url,latitude,longitude,date,height,width,media,copyRight,country,address,keyword,source
https://live.staticflickr.com/7277/26530211350_22ac0a49cc_o.jpg,50.08688,14.42088666666667,,,,,,Czechia,Old Town; Prague; Czechia,hotel,cameraforensics
https://live.staticflickr.com/1615/26650409792_71e7b387d7_o.jpg,50.08730833333333,14.42655,,,,,,Czechia,Seebergovský palác; Králodvorská; Old Town; Prague; 11005; Czechia,hotel,cameraforensics
http://static.panoramio.com/photos/original/90692523.jpg,50.087777777777774,14.42194444444444,,,,,,Czechia,Stone Bell House; Týnská; Old Town; Prague; 110000; Czechia,hotel,cameraforensics
https://live.staticflickr.com/1603/24379127094_a228333781_o.jpg,50.087219444444436,14.42600555555556,,,,,,Czechia,Obvodní soud pro Prahu 1 a 7; Celetná; Old Town; Prague; 110 00; Czechia,hotel,cameraforensics
https://drscdn.500px.org/photo/67323297/q%3D80_m%3D2000/v2?webp=true&sig=725b76c0e08399224ad6de74598ed5b6693ed70aeb989d4d7d6d2d6723157afc,50.08798333333333,14.4214,,,,,,Czechia,Old Town; Prague; Czechia,hotel,cameraforensics
https://live.staticflickr.com/8714/28064988413_67e6f257a0_o.jpg,50.08690555555553,14.42081666666667,,,,,,Czechia,Old Town; Prague; Czechia,hotel,cameraforensics
https://live.staticflickr.com/2881/11779841723_aa3d28c813_o.jpg,50.08685,14.420811388888893,,,,,,Czechia,Old Town; Prague; Czechia,hotel,cameraforensics
http://static.panoramio.com/photos/original/108661245.jpg,50.09477166666667,14.43664166666667,,,,,,Czechia,Hlávkův most; Holešovice; Prague; 17000; Czechia,hotel,cameraforensics
https://live.staticflickr.com/8761/18162999911_6d88dd167b_o.jpg,50.090152777777774,14.43491944444444,,,,,,Czechia,Libeřské lahůdky; Biskupská; New Town; Prague; 10 000; Czechia,hotel,cameraforensics
https://live.staticflickr.com/5683/21658205804_64030ae84c_o.jpg,50.08753666666667,14.43161333333333,,,,,,Czechia,Lidový dům; Hybernská; New Town; Prague; 1; Czechia,hotel,cameraforensics
https://t-ec.bstatic.com/images/hotel/max1280x900/923/92329121.jpg,49.968454507853096,12.6992270350456,,,,,,Czechia,Monty; Příkrá; Mariánské Lázně; Cheb District; Karlovarský kraj; Northwest; 353 01; Czechia,hotel,cameraforensics
https://t-ec.bstatic.com/images/hotel/max1280x900/128/128842819.jpg,49.96558882927511,12.7027407288551,,,,,,Czechia,714/1a; Boženy Němcové; Třešňovka; Mariánské Lázně; Cheb District; Karlovarský kraj; Northwest; 35301; Czechia,hotel,cameraforensics
https://t-ec.bstatic.com/images/hotel/max1280x900/270/27085880.jpg,49.9622415835007,12.703073322773,,,,,,Czechia,264/3; Křižíkova; Třešňovka; Mariánské Lázně; Cheb District; Karlovarský kraj; Northwest; 35301; Czechia,hotel,cameraforensics
https://s-ec.bstatic.com/images/hotel/max1280x900/219/21913375.jpg,49.97113236086739,12.701653838057599,,,,,,Czechia,123/11; Ruská; Mariánské Lázně; Cheb District; Karlovarský kraj; Northwest; 35301; Czechia,hotel,cameraforensics
https://s-ec.bstatic.com/images/hotel/max1280x900/507/50763202.jpg,49.968608052341004,12.7045632898808,,,,,,Czechia,358/4; Anglická; Mariánské Lázně; Cheb District; Karlovarský kraj; Northwest; 35301; Czechia,hotel,cameraforensics
https://s-ec.bstatic.com/images/hotel/max1280x900/270/27048322.jpg,49.9622415835007,12.703073322773,,,,,,Czechia,264/3; Křižíkova; Třešňovka; Mariánské Lázně; Cheb District; Karlovarský kraj; Northwest; 35301; Czechia,hotel,cameraforensics
https://q-cf.bstatic.com/images/hotel/max1280x900/165/165025361.jpg,49.9712726,12.700862599999999,,,,,,Czechia,427/30; Ruská; Mariánské Lázně; Cheb District; Karlovarský kraj; Northwest; 35301; Czechia,hotel,cameraforensics
https://r-cf.bstatic.com/images/hotel/max1280x900/146/146507849.jpg,49.9717516,12.7022314,,,,,,Czechia,369/15; Lidická; Mariánské Lázně; Cheb District; Karlovarský kraj; Northwest; 35301; Czechia,hotel,cameraforensics
https://live.staticflickr.com/1700/24893547034_e6217bd6b9_o.jpg,49.96434666666666,12.70183666666667,,,,,,Czechia,268/23; Hlavní třída; Třešňovka; Mariánské Lázně; Cheb District; Karlovarský kraj; Northwest; 35301; Czechia,hotel,cameraforensics
https://s-ec.bstatic.com/images/hotel/max1280x900/140/140038335.jpg,49.968454507853096,12.6992270350456,,,,,,Czechia,Monty; Příkrá; Mariánské Lázně; Cheb District; Karlovarský kraj; Northwest; 353 01; Czechia,hotel,cameraforensics
https://live.staticflickr.com/4260/35618361576_5f98f8c860_o.jpg,49.1963898888889,16.60604297222222,,,,,,Czechia,Sušené Ovoce; Česká; Brno-město; Město Brno; Brno; okres Brno-město; Jihomoravský kraj; Southeast; 601 51; Czechia,hotel,cameraforensics
https://live.staticflickr.com/710/22554455583_9b6cd992a0_o.jpg,49.197747222222226,16.60651388888889,,,,,,Czechia,Česká; Joštova; Brno-město; Město Brno; Brno; okres Brno-město; Jihomoravský kraj; Southeast; 601 51; Czechia,hotel,cameraforensics
https://live.staticflickr.com/5347/30442095630_b341674cd1_o.jpg,49.19148333333333,16.60692777777778,,,,,,Czechia,Biskupská; Brno-město; Město Brno; Brno; okres Brno-město; Jihomoravský kraj; Southeast; 602 00; Czechia,hotel,cameraforensics
http://static.panoramio.com/photos/original/54283744.jpg,49.19118933333333,16.60684083333333,,,,,,Czechia,268/9; Petrov; Brno-město; Město Brno; Brno; okres Brno-město; Jihomoravský kraj; Southeast; 60200; Czechia,hotel,cameraforensics
https://t-ec.bstatic.com/images/hotel/max1280x900/649/64905604.jpg,49.192546106157714,16.6095766425133,,,,,,Czechia,Cyrilometodějská záložna; Zelný trh; Brno-město; Město Brno; Brno; okres Brno-město; Jihomoravský kraj; Southeast; Czechia,hotel,cameraforensics
https://t-ec.bstatic.com/images/hotel/max1280x900/641/64179211.jpg,49.196373798336,16.604704409837698,,,,,,Czechia,243/17; Solniční; Brno-město; Město Brno; Brno; okres Brno-město; Jihomoravský kraj; Southeast; 60200; Czechia,hotel,cameraforensics
https://s-ec.bstatic.com/images/hotel/max1280x900/757/75717156.jpg,49.1940821,16.6107686,,,,,,Czechia,470/4; Minoritská; Brno-město; Město Brno; Brno; okres Brno-město; Jihomoravský kraj; Southeast; 60200; Czechia,hotel,cameraforensics
https://t-ec.bstatic.com/images/hotel/max1280x900/113/113081562.jpg,49.1948545883611,16.6048794239759,,,,,,Czechia,International; Panenská; Brno-město; Město Brno; Brno; okres Brno-město; Jihomoravský kraj; Southeast; 601 51; Czechia,hotel,cameraforensics
https://s-ec.bstatic.com/images/hotel/max1280x900/124/124570516.jpg,49.189039,16.599420000000002,,,,,,Czechia,307/59; Hybešova; Staré Brno; Brno; okres Brno-město; Jihomoravský kraj; Southeast; 60200; Czechia,hotel,cameraforensics
https://t-ec.bstatic.com/images/hotel/max1280x900/136/136125544.jpg,49.194664,16.60891,,,,,,Czechia,U Čtyř mamlasů; Freedom Square; Brno-město; Město Brno; Brno; okres Brno-město; Jihomoravský kraj; Southeast; Czechia,hotel,cameraforensics
https://live.staticflickr.com/5328/17625203020_430e1492fc_o.jpg,50.077709197997216,14.418074607849169,,,,,,Czechia,Mannis Mini Market; Na Zbořenci; New Town; Prague; 11121; Czechia,hotel,cameraforensics
https://live.staticflickr.com/3679/8791146219_b17c66a1b5_o.jpg,50.075628999922216,14.410415330027778,,,,,,Czechia,Jiráskův most; Nábřežní; Smíchov; Prague; 150 000; Czechia,hotel,cameraforensics
https://live.staticflickr.com/510/32478949090_a2229e312c_o.jpg,50.06820833333333,14.41474,,,,,,Czechia,New Town; Prague; 128 00; Czechia,hotel,cameraforensics
https://live.staticflickr.com/8698/28750871576_90819f8a3b_o.jpg,50.067761111111096,14.41147777777778,,,,,,Czechia,Smíchovská náplavka; Smíchov; Prague; 300; Czechia,hotel,cameraforensics
https://live.staticflickr.com/5597/15406531537_bd2de3e505_o.jpg,50.076225,14.41373055555556,,,,,,Czechia,Matylda; Novoměstská náplavka; New Town; Prague; 150 000; Czechia,hotel,cameraforensics
https://live.staticflickr.com/7558/27394058304_2ccf79c013_o.jpg,50.07409833333333,14.41070166666667,,,,,,Czechia,Nábřežní; Smíchov; Prague; 150 000; Czechia,hotel,cameraforensics
https://live.staticflickr.com/5344/31290412391_095f286140_o.jpg,50.07592777777778,14.41363611111111,,,,,,Czechia,Jiráskův most; Nábřežní; Smíchov; Prague; 150 000; Czechia,hotel,cameraforensics
https://live.staticflickr.com/2638/32909720066_b535c7a869_o.jpg,50.07479166666667,14.42776111111111,,,,,,Czechia,Ibis Praha Wenceslas Square; 36; Kateřinská; New Town; Prague; 12000; Czechia,hotel,cameraforensics
https://live.staticflickr.com/8277/29440069712_734f655604_o.jpg,50.06763333333333,14.41517777777778,,,,,,Czechia,Svobodova; New Town; Prague; 128 00; Czechia,hotel,cameraforensics
https://live.staticflickr.com/2887/34120440752_5d8640212b_o.jpg,50.0696,14.410816666666667,,,,,,Czechia,Skatepark Smíchov; Hořejší nábřeží; Smíchov; Prague; 300; Czechia,hotel,cameraforensics
https://live.staticflickr.com/8243/29288789962_eaf251dfb9_o.jpg,50.080406879894454,14.412418659980561,,,,,,Czechia,S.P.L.A.V.; Masarykovo nábřeží; New Town; Prague; 11665; Czechia,hotel,cameraforensics
https://live.staticflickr.com/5659/21082843388_5f7a36b1c6_o.jpg,50.08664444444447,14.41021944444444,,,,,,Czechia,Charles Bridge; Hroznová; Lesser Town; Prague; 11801; Czechia,hotel,cameraforensics
https://live.staticflickr.com/2914/14587144971_61ce5719d4_o.jpg,50.082547222222225,14.41288888888889,,,,,,Czechia,Kristian Marco riverside cafe; Smetanovo nábřeží; Old Town; Prague; 11665; Czechia,hotel,cameraforensics
https://live.staticflickr.com/7203/27080687384_7dda80b5a9_o.jpg,50.08848055555556,14.40383611111111,,,,,,Czechia,palác Smiřických; Malostranské náměstí; Lesser Town; Prague; 11800; Czechia,hotel,cameraforensics
https://live.staticflickr.com/8813/17179226539_8fdf744c9b_o.jpg,50.088,14.41016666666667,,,,,,Czechia,Panorama; ; Lesser Town; Prague; +964; Czechia,hotel,cameraforensics
https://live.staticflickr.com/4317/35920056292_894b774663_o.jpg,50.08355833333334,14.39500833333333,,,,,,Czechia,Petrin Observation Tower; křížová cesta; Lesser Town; Prague; 118 00; Czechia,hotel,cameraforensics
https://live.staticflickr.com/4350/36134457274_49e7090fcf_o.jpg,50.08782666666666,14.40476833333333,,,,,,Czechia,Kaiserštejnský palác; Josefská; Lesser Town; Prague; 11801; Czechia,hotel,cameraforensics
https://live.staticflickr.com/8234/8597141546_282cf2803f_o.jpg,50.08831333333333,14.40102666666667,,,,,,Czechia,Morzin Palace; Nerudova; Lesser Town; Prague; 118 00; Czechia,hotel,cameraforensics
https://live.staticflickr.com/4396/35585826214_2e21564995_o.jpg,50.084722222222226,14.41333333333333,,,,,,Czechia,Karlovy lázně; Smetanovo nábřeží; Old Town; Prague; 11665; Czechia,hotel,cameraforensics
http://static.panoramio.com/photos/original/6155581.jpg,50.08622985810555,14.413251932736108,,,,,,Czechia,Charles Bridge; Hroznová; Lesser Town; Prague; 11801; Czechia,hotel,cameraforensics
https://live.staticflickr.com/8088/8503677260_7db77c40c0_o.jpg,49.2027638888889,16.60048611111111,,,,,,Czechia,Buranteatr; Kounicova; Veveří; Brno; okres Brno-město; Jihomoravský kraj; Southeast; 60200; Czechia,hotel,cameraforensics
https://s-ec.bstatic.com/images/hotel/max1280x900/126/12658181.jpg,49.196229635332095,16.6070681065321,,,,,,Czechia,Pivnice Pegas; 120/4; Jakubská; Brno-město; Město Brno; Brno; okres Brno-město; Jihomoravský kraj; Southeast; 60200; Czechia,hotel,cameraforensics
https://live.staticflickr.com/1688/24272929906_df98cf0c88_o.jpg,49.19653055555555,16.60608611111111,,,,,,Czechia,Vágner; Česká; Brno-město; Město Brno; Brno; okres Brno-město; Jihomoravský kraj; Southeast; 601 51; Czechia,hotel,cameraforensics
https://s-ec.bstatic.com/images/hotel/max1280x900/525/52526249.jpg,49.20328912802071,16.620557684511002,,,,,,Czechia,437/20; Merhautova; Zábrdovice; Brno; okres Brno-město; Jihomoravský kraj; Southeast; 61300; Czechia,hotel,cameraforensics
https://live.staticflickr.com/7465/15498380650_88e8fb2e81_o.jpg,49.19715,16.614888888888892,,,,,,Czechia,140/45; Koliště; Brno-město; Město Brno; Brno; okres Brno-město; Jihomoravský kraj; Southeast; 60200; Czechia,hotel,cameraforensics
https://t-ec.bstatic.com/images/hotel/max1280x900/124/124641860.jpg,49.19911572604922,16.6120329981476,,,,,,Czechia,639/21; Koliště; Brno-město; Město Brno; Brno; okres Brno-město; Jihomoravský kraj; Southeast; 60200; Czechia,hotel,cameraforensics
https://s-ec.bstatic.com/images/hotel/max1280x900/331/33121836.jpg,49.1959119,16.6090663,,,,,,Czechia,Gỗ Brno; 4; Běhounská; Brno-město; Město Brno; Brno; okres Brno-město; Jihomoravský kraj; Southeast; 60200; Czechia,hotel,cameraforensics
https://live.staticflickr.com/8020/28768961283_bf634a82b5_o.jpg,49.20767,16.60730833333333,,,,,,Czechia,Svojsíkův srub; Pionýrská; Ponava; Brno; okres Brno-město; Jihomoravský kraj; Southeast; 601 51; Czechia,hotel,cameraforensics
https://live.staticflickr.com/8764/17519650795_1a9d43230b_o.jpg,50.07304,14.40709302777778,,,,,,Czechia,Úřad městské části Praha 5; 1381/4; náměstí 14. října; Smíchov; Prague; 15000; Czechia,hotel,cameraforensics
https://live.staticflickr.com/7381/26917183932_f610ff8ae3_o.jpg,50.07485833333333,14.399594444444439,,,,,,Czechia,Stanice přírodovědců DDM hl. m. Prahy; Holečkova; Smíchov; Prague; 150 000; Czechia,hotel,cameraforensics
https://live.staticflickr.com/4256/35439779892_c83a289dc6_o.jpg,50.08529722222222,14.40847222222222,,,,,,Czechia,Josef Dobrovský; U Sovových mlýnů; Lesser Town; Prague; 11801; Czechia,hotel,cameraforensics
https://live.staticflickr.com/5815/31185765595_859dd34147_o.jpg,50.08683833333333,14.408,,,,,,Czechia,Charles Bridge; Hroznová; Lesser Town; Prague; 11801; Czechia,hotel,cameraforensics
https://live.staticflickr.com/5527/10099591234_ffe97cc718_o.jpg,50.08449833333334,14.42145833333333,,,,,,Czechia,967/17; Rytířská; Old Town; Prague; 11000; Czechia,hotel,cameraforensics
https://live.staticflickr.com/7707/26987393515_ef8eca7dda_o.jpg,50.085405,14.424220000000002,,,,,,Czechia,Guess; Havířská; Old Town; Prague; 11000; Czechia,hotel,cameraforensics
https://live.staticflickr.com/7461/26901593722_a74fc77c07_o.jpg,50.084445,14.421388333333333,,,,,,Czechia,KU Bar; V Kotcích; Old Town; Prague; 11000; Czechia,hotel,cameraforensics
https://live.staticflickr.com/339/19123885353_5c147b1885_o.jpg,50.08011666666667,14.42985833333333,,,,,,Czechia,Grand Optical; Wenceslas Square; New Town; Prague; 115 20; Czechia,hotel,cameraforensics
https://live.staticflickr.com/5328/17464756766_47305c78fe_o.jpg,50.08264166666667,14.42318333333333,,,,,,Czechia,klášter Františkánů; Jungmannovo náměstí; New Town; Prague; Czechia,hotel,cameraforensics
https://live.staticflickr.com/8378/8590112951_dc7c176728_o.jpg,50.08531166666667,14.43041166666667,,,,,,Czechia,Veřejné WC; Jindřišská; New Town; Prague; 116 47; Czechia,hotel,cameraforensics
https://live.staticflickr.com/723/23884216165_99885a24c6_o.jpg,50.08084,14.432128,,,,,,Czechia,Politických vězňů; New Town; Prague; 116 47; Czechia,hotel,cameraforensics
https://live.staticflickr.com/2924/14163105960_9438288cc8_o.jpg,50.08716666666667,14.42033333333333,,,,,,Czechia,Old Town City Hall; Mikulášská; Old Town; Prague; 110000; Czechia,hotel,cameraforensics
https://live.staticflickr.com/1619/26718679605_cb6cb28b2d_o.jpg,49.39882,15.58224166666667,,,,,,Czechia,VŠ Polytechnická; Tolstého; Brtnické předměstí; Jihlava; okres Jihlava; Kraj Vysočina; Southeast; 586 01; Czechia,hotel,cameraforensics
https://t-ec.bstatic.com/images/hotel/max1280x900/138/13826680.jpg,49.39747980433111,15.588933080434801,,,,,,Czechia,Grandhotel Garni; 1; Husova; Brtnické předměstí; Jihlava; okres Jihlava; Kraj Vysočina; Southeast; 58601; Czechia,hotel,cameraforensics
https://live.staticflickr.com/4642/38051302835_7051859ba0_o.jpg,49.396477777777775,15.58703333333333,,,,,,Czechia,ev.3202; Husova; Brtnické předměstí; Jihlava; okres Jihlava; Kraj Vysočina; Southeast; 58601; Czechia,hotel,cameraforensics
http://static.panoramio.com/photos/original/52050305.jpg,49.39632416666667,15.5900725,,,,,,Czechia,Morový sloup; Masarykovo náměstí; Brtnické předměstí; Jihlava; okres Jihlava; Kraj Vysočina; Southeast; 586 01; Czechia,hotel,cameraforensics
https://s-ec.bstatic.com/images/hotel/max1280x900/385/38513180.jpg,49.4020257,15.587995800000002,,,,,,Czechia,1395/30; Havlíčkova; Jihlava; okres Jihlava; Kraj Vysočina; Southeast; 58601; Czechia,hotel,cameraforensics
https://t-ec.bstatic.com/images/hotel/max1280x900/138/13826662.jpg,49.39747980433111,15.588933080434801,,,,,,Czechia,Grandhotel Garni; 1; Husova; Brtnické předměstí; Jihlava; okres Jihlava; Kraj Vysočina; Southeast; 58601; Czechia,hotel,cameraforensics
https://live.staticflickr.com/1548/26652601141_f9321c0233_o.jpg,49.39862833333333,15.58209666666667,,,,,,Czechia,VŠ Polytechnická; Tolstého; Brtnické předměstí; Jihlava; okres Jihlava; Kraj Vysočina; Southeast; 586 01; Czechia,hotel,cameraforensics
https://live.staticflickr.com/2845/11357194874_aac6222f2e_o.jpg,49.39696388888889,15.583394444444439,,,,,,Czechia,Brtnické předměstí; Jihlava; okres Jihlava; Kraj Vysočina; Southeast; 58601; Czechia,hotel,cameraforensics
https://s-ec.bstatic.com/images/hotel/max1280x900/388/38879074.jpg,49.39803664822779,15.5904914438725,,,,,,Czechia,112/4; Křížová; Brtnické předměstí; Jihlava; okres Jihlava; Kraj Vysočina; Southeast; 58601; Czechia,hotel,cameraforensics
https://t-ec.bstatic.com/images/hotel/max1280x900/495/49570947.jpg,49.39747980433111,15.588933080434801,,,,,,Czechia,Grandhotel Garni; 1; Husova; Brtnické předměstí; Jihlava; okres Jihlava; Kraj Vysočina; Southeast; 58601; Czechia,hotel,cameraforensics
http://farm6.static.flickr.com/5446/9014403491_a956f6db4f_o.jpg,49.18768,16.582082999999994,,,,,,Czechia,A; Křížkovského; Pisárky; Brno; okres Brno-město; Jihomoravský kraj; Southeast; 64700; Czechia,hotel,cameraforensics
https://live.staticflickr.com/3671/33375283862_a9978db544_o.jpg,49.18772833333333,16.579705,,,,,,Czechia,Brno Exhibition Centre; 42; Pisárky; Brno; okres Brno-město; Jihomoravský kraj; Southeast; 64700; Czechia,hotel,cameraforensics
https://live.staticflickr.com/3750/9013960351_6dc2e7e486_o.jpg,49.18767777777778,16.58208333333333,,,,,,Czechia,A; Křížkovského; Pisárky; Brno; okres Brno-město; Jihomoravský kraj; Southeast; 64700; Czechia,hotel,cameraforensics
https://t-ec.bstatic.com/images/hotel/max1280x900/215/21504637.jpg,49.186895,16.5866808000001,,,,,,Czechia,Satyam; 33; Křížkovského; Pisárky; Brno; okres Brno-město; Jihomoravský kraj; Southeast; 60300; Czechia,hotel,cameraforensics
https://t-ec.bstatic.com/images/hotel/max1280x900/266/26657262.jpg,49.191881762160214,16.5833795070648,,,,,,Czechia,Národní centrum ošetřovatelství a nelékařských zdravotnických oborů; Vinařská; Staré Brno; Brno; okres Brno-město; Jihomoravský kraj; Southeast; 60300; Czechia,hotel,cameraforensics
https://s-ec.bstatic.com/images/hotel/max1280x900/123/123686625.jpg,49.19022020000001,16.5822884,,,,,,Czechia,37/96; Hlinky; Pisárky; Brno; okres Brno-město; Jihomoravský kraj; Southeast; 60300; Czechia,hotel,cameraforensics
https://live.staticflickr.com/7397/9015150676_54ebec3144_o.jpg,49.18767777777778,16.58208333333333,,,,,,Czechia,A; Křížkovského; Pisárky; Brno; okres Brno-město; Jihomoravský kraj; Southeast; 64700; Czechia,hotel,cameraforensics
https://live.staticflickr.com/8120/9006166648_cdf04b3343_o.jpg,49.18767777777778,16.58202777777778,,,,,,Czechia,A; Křížkovského; Pisárky; Brno; okres Brno-město; Jihomoravský kraj; Southeast; 64700; Czechia,hotel,cameraforensics
https://live.staticflickr.com/5453/9015662244_961c8be89e_o.jpg,49.18767777777778,16.58208333333333,,,,,,Czechia,A; Křížkovského; Pisárky; Brno; okres Brno-město; Jihomoravský kraj; Southeast; 64700; Czechia,hotel,cameraforensics
https://live.staticflickr.com/5333/9005033407_9e6fd21580_o.jpg,49.18767777777778,16.58202777777778,,,,,,Czechia,A; Křížkovského; Pisárky; Brno; okres Brno-město; Jihomoravský kraj; Southeast; 64700; Czechia,hotel,cameraforensics
https://s-ec.bstatic.com/images/hotel/max1280x900/965/96554087.jpg,49.8399420123092,18.281773348410105,,,,,,Czechia,Nářadí Tona; s.r.o.; 3209/58; Poděbradova; Moravská Ostrava; Ostrava; okres Ostrava-město; Moravskoslezský kraj; Moravia-Silesia; 70200; Czechia,hotel,cameraforensics
https://t-ec.bstatic.com/images/hotel/max1280x900/130/130447781.jpg,49.8350614389222,18.277909308671997,,,,,,Czechia,Hotel Na Kafkové; 1380/15; Kafkova; Moravská Ostrava; Ostrava; okres Ostrava-město; Moravskoslezský kraj; Moravia-Silesia; 70200; Czechia,hotel,cameraforensics
https://live.staticflickr.com/8487/8232490501_1582cb485d_o.jpg,49.83776777777778,18.29547944444445,,,,,,Czechia,Knihovna města Ostravy; Havlíčkovo nábřeží; Moravská Ostrava; Ostrava; okres Ostrava-město; Moravskoslezský kraj; Moravia-Silesia; 71200; Czechia,hotel,cameraforensics
https://live.staticflickr.com/8490/8232528533_d8b5d319d2_o.jpg,49.83774055555556,18.295314444444443,,,,,,Czechia,Knihovna města Ostravy; Havlíčkovo nábřeží; Moravská Ostrava; Ostrava; okres Ostrava-město; Moravskoslezský kraj; Moravia-Silesia; 71200; Czechia,hotel,cameraforensics
https://t-ec.bstatic.com/images/hotel/max1280x900/805/80560664.jpg,49.8350614389222,18.277909308671997,,,,,,Czechia,Hotel Na Kafkové; 1380/15; Kafkova; Moravská Ostrava; Ostrava; okres Ostrava-město; Moravskoslezský kraj; Moravia-Silesia; 70200; Czechia,hotel,cameraforensics
https://live.staticflickr.com/1887/42451672140_52191897d1_o.jpg,49.842348799999996,18.2824208,,,,,,Czechia,633/91; Nádražní; Moravská Ostrava; Ostrava; okres Ostrava-město; Moravskoslezský kraj; Moravia-Silesia; 70200; Czechia,hotel,cameraforensics
https://live.staticflickr.com/2880/10172771534_84df099b58_o.jpg,49.83966666666667,18.2935,,,,,,Czechia,2740/20; Matiční; Moravská Ostrava; Ostrava; okres Ostrava-město; Moravskoslezský kraj; Moravia-Silesia; 70200; Czechia,hotel,cameraforensics
https://s-ec.bstatic.com/images/hotel/max1280x900/355/35571709.jpg,49.8324755,18.2843483,,,,,,Czechia,1753/80; 28. října; Moravská Ostrava; Ostrava; okres Ostrava-město; Moravskoslezský kraj; Moravia-Silesia; 70200; Czechia,hotel,cameraforensics
https://t-ec.bstatic.com/images/hotel/max1280x900/208/20821138.jpg,49.8359082657499,18.285143226385106,,,,,,Czechia,Brioni; Stodolní; Moravská Ostrava; Ostrava; okres Ostrava-město; Moravskoslezský kraj; Moravia-Silesia; 70200; Czechia,hotel,cameraforensics
https://s-ec.bstatic.com/images/hotel/max1280x900/355/35571842.jpg,49.8324755,18.2843483,,,,,,Czechia,1753/80; 28. října; Moravská Ostrava; Ostrava; okres Ostrava-město; Moravskoslezský kraj; Moravia-Silesia; 70200; Czechia,hotel,cameraforensics
http://static.panoramio.com/photos/original/34491946.jpg,50.22325555555553,12.8832,,,,,,Czechia,Hot Spring Colonnade; Tržiště; Karlovy Vary; Carlsbad; okres Karlovy Vary; Karlovarský kraj; Northwest; 36000; Czechia,hotel,cameraforensics
https://live.staticflickr.com/3944/15507935697_2a1e962135_o.jpg,50.222161111111106,12.888575,,,,,,Czechia,Velkopopovicka Pub; Petřín; Karlovy Vary; Carlsbad; okres Karlovy Vary; Karlovarský kraj; Northwest; 360 01; Czechia,hotel,cameraforensics
https://t-ec.bstatic.com/images/hotel/max1280x900/487/48739374.jpg,50.22245572116661,12.884917706251096,,,,,,Czechia,Ambiente; Moravská; Karlovy Vary; Carlsbad; okres Karlovy Vary; Karlovarský kraj; Northwest; 36000; Czechia,hotel,cameraforensics
https://s-ec.bstatic.com/images/hotel/max1280x900/727/72798030.jpg,50.21903620000001,12.8911556,,,,,,Czechia,1304/2; Jarní; Karlovy Vary; Carlsbad; okres Karlovy Vary; Karlovarský kraj; Northwest; 36001; Czechia,hotel,cameraforensics
https://s-ec.bstatic.com/images/hotel/max1280x900/522/52270086.jpg,50.2233071328311,12.8901305794716,,,,,,Czechia,California club; Tyršova; Karlovy Vary; Carlsbad; okres Karlovy Vary; Karlovarský kraj; Northwest; 360 01; Czechia,hotel,cameraforensics
https://live.staticflickr.com/713/22490154760_8b10402f84_o.jpg,50.21797222222222,12.88516666666667,,,,,,Czechia,Goethova stezka; Karlovy Vary; Carlsbad; okres Karlovy Vary; Karlovarský kraj; Northwest; 36000; Czechia,hotel,cameraforensics
https://t-ec.bstatic.com/images/hotel/max1280x900/116/116704120.jpg,50.22558835926829,12.878893464803696,,,,,,Czechia,Bristol Palace - Bristol Group; 918/34; Zámecký vrch; Karlovy Vary; Carlsbad; okres Karlovy Vary; Karlovarský kraj; Northwest; 36001; Czechia,hotel,cameraforensics
https://s-ec.bstatic.com/images/hotel/max1280x900/760/76088412.jpg,50.227083365354396,12.8759443759918,,,,,,Czechia,1044/25; Zahradní; Karlovy Vary; Carlsbad; okres Karlovy Vary; Karlovarský kraj; Northwest; 36001; Czechia,hotel,cameraforensics
https://t-ec.bstatic.com/images/hotel/max1280x900/647/64727646.jpg,50.222214608474395,12.8854045271873,,,,,,Czechia,2111/3a; Moravská; Karlovy Vary; Carlsbad; okres Karlovy Vary; Karlovarský kraj; Northwest; 36001; Czechia,hotel,cameraforensics
https://t-ec.bstatic.com/images/hotel/max1280x900/250/25099950.jpg,50.2243631284375,12.8819662927708,,,,,,Czechia,411/11; Zámecký vrch; Karlovy Vary; Carlsbad; okres Karlovy Vary; Karlovarský kraj; Northwest; 36001; Czechia,hotel,cameraforensics
https://drscdn.500px.org/photo/224764573/m%3D2048_k%3D1_a%3D1/v2?client_application_id=36673&webp=true&sig=001d2af09c6ed4b6fc9b13cb9568b237fbe62854ff563386da355bad71738e1e,50.08760555555556,14.44953333333333,,,,,,Czechia,John Zizka Memorial; cyklostezka Staré spojení; Žižkov; Prague; CZ - 130 00; Czechia,hotel,cameraforensics
https://live.staticflickr.com/5713/23310447843_b3414af632_o.jpg,50.089775,14.43286388888889,,,,,,Czechia,Imperial; 15; Na Poříčí; New Town; Prague; 11000; Czechia,hotel,cameraforensics
http://static.panoramio.com/photos/original/92160753.jpg,50.09209888888889,14.44856083333333,,,,,,Czechia,238/6; Karlínské náměstí; Florenc; Karlín; Prague; 18600; Czechia,hotel,cameraforensics
https://live.staticflickr.com/7644/26402766164_3a01ec6110_o.jpg,50.088,14.44483333333333,,,,,,Czechia,Army Museum Žižkov; 1600/2; U Památníku; Žižkov; Prague; 13000; Czechia,hotel,cameraforensics
https://live.staticflickr.com/4273/34809425816_a00e3b542c_o.jpg,50.088269444444435,14.431261111111107,,,,,,Czechia,1028/8; V Celnici; New Town; Prague; 11000; Czechia,hotel,cameraforensics
https://live.staticflickr.com/8876/17922690554_da46bb0606_o.jpg,50.090497222222226,14.432138888888893,,,,,,Czechia,1129/8; Zlatnická; New Town; Prague; 11000; Czechia,hotel,cameraforensics
https://live.staticflickr.com/7524/15081185914_401193b871_o.jpg,50.087445,14.444814000000001,,,,,,Czechia,Army Museum Žižkov; 1600/2; U Památníku; Žižkov; Prague; 13000; Czechia,hotel,cameraforensics
https://live.staticflickr.com/3771/11237013975_8d1e96499e_o.jpg,50.07166666666667,14.4,,,,,,Czechia,palác Křižík; Plzeňská; Smíchov; Prague; 151 34; Czechia,hotel,cameraforensics
https://s-ec.bstatic.com/images/hotel/max1280x900/118/118451704.jpg,50.0705191,14.4069933000001,,,,,,Czechia,986/17; Jindřicha Plachty; Smíchov; Prague; 15000; Czechia,hotel,cameraforensics
https://s-ec.bstatic.com/images/hotel/max1280x900/112/112649290.jpg,50.0715459,14.405707099999999,,,,,,Czechia,Pho Champion; Na Bělidle; Smíchov; Prague; 151 34; Czechia,hotel,cameraforensics
https://s-ec.bstatic.com/images/hotel/max1280x900/411/41171124.jpg,50.0623648851739,14.409387409687,,,,,,Czechia,851/42; Nádražní; Smíchov; Prague; 15000; Czechia,hotel,cameraforensics
https://live.staticflickr.com/4531/27083751299_a42e382566_o.jpg,50.0675,14.396944444444447,,,,,,Czechia,2263/31; Ostrovského; Smíchov; Prague; 15000; Czechia,hotel,cameraforensics
https://live.staticflickr.com/4536/38144437034_46c8e02638_o.jpg,50.06694444444447,14.396388888888893,,,,,,Czechia,Zimní stadion Nikolajka; Tomkova; Smíchov; Prague; 150 00; Czechia,hotel,cameraforensics
https://s-ec.bstatic.com/images/hotel/max1280x900/379/37924259.jpg,50.0702658188732,14.4090333580971,,,,,,Czechia,1143/10; Svornosti; Smíchov; Prague; 15000; Czechia,hotel,cameraforensics
https://live.staticflickr.com/4060/4370919750_869b353a44_o.jpg,50.079078,14.433219,2010-02-12 11:34:14,2736.0,3648.0,photo,5.0,Czechia,343/6; Vinohradská; Vinohrady; Prague; 12000; Czechia,hotel room,flickr
https://live.staticflickr.com/3109/2580265729_460bc087dd_o.jpg,50.078466,14.403398000000001,2008-05-26 09:19:37,1944.0,2592.0,photo,0.0,Czechia,1/1; Holečkova; Smíchov; Prague; 15000; Czechia,hotel room,flickr
https://live.staticflickr.com/6076/6025490171_40b8531ede_o.jpg,49.97422,12.703235000000001,2011-08-09 08:06:20,2362.0,3543.0,photo,0.0,Czechia,Orea Spa Hotel Bohemia; 100/40; Hlavní třída; Mariánské Lázně; Cheb District; Karlovarský kraj; Northwest; 353 01; Czechia,hotel room,flickr
https://farm4.staticflickr.com/3942/15530145367_1270b03bfb_b.jpg,48.810577,14.316555,2014-10-10 10:29:19,,,photo,0.0,Czechia,Hotel Arcadie; 148; Horní; Vnitřní Město; Český Krumlov; Domoradice; Český Krumlov; okres Český Krumlov; Jihočeský kraj; Southwest; 381 01; Czechia,hotel room,flickr
https://live.staticflickr.com/3823/9981798906_319bc42a0c_o.jpg,50.092393,14.434660999999998,2013-09-18 21:03:36,750.0,1000.0,photo,2.0,Czechia,1443/50; Klimentská; New Town; Prague; 11000; Czechia,hotel room,flickr
https://live.staticflickr.com/229/520654129_276ca420f6_o.jpg,50.076696999999996,14.415307,2007-05-22 07:37:01,1920.0,2560.0,photo,5.0,Czechia,Potraviny ovoce-zelenina; Náplavní; New Town; Prague; 11665; Czechia,hotel room,flickr
https://farm4.staticflickr.com/3275/2800136912_2b80d7e0ac_b.jpg,50.083889,14.424017999999998,2008-08-26 22:19:34,,,photo,0.0,Czechia,New Town; Prague; 11000; Czechia,hotel room,flickr
https://live.staticflickr.com/2908/13996007006_857414979a_o.jpg,50.078635,14.475933,2014-04-26 17:48:46,640.0,640.0,photo,0.0,Czechia,Dorint Hotel Don Giovanni Prague; Vinohradská; Žižkov; Prague; 10042; Czechia,hotel room,flickr
https://live.staticflickr.com/3191/2554939366_581511d399_o.jpg,50.087444,14.406208,2008-05-25 09:27:34,598.0,900.0,photo,0.0,Czechia,16; Mostecká; Lesser Town; Prague; 110 00; Czechia,hotel room,flickr
https://live.staticflickr.com/4249/35258885131_d6405df24a_o.jpg,50.087652,14.4317,2008-12-01 00:00:00,2000.0,3008.0,photo,5.0,Czechia,Lidový dům; Hybernská; New Town; Prague; 1; Czechia,hotel room,flickr
https://live.staticflickr.com/7418/11381930883_654fcd04d1_o.jpg,50.085344,14.419554999999999,2013-12-15 09:17:09,2416.0,3168.0,photo,0.0,Czechia,U Bílého zajíce; Michalská; Old Town; Prague; 11665; Czechia,hotel room,flickr
https://live.staticflickr.com/2534/3804887507_20164b8aff_o.jpg,50.082081,14.430155,2009-08-05 16:15:31,1024.0,768.0,photo,0.0,Czechia,Sovereign; 916/16; Politických vězňů; New Town; Prague; 11000; Czechia,hotel room,flickr
https://farm9.staticflickr.com/8251/8473791660_f446161b15_b.jpg,50.076972,14.431915,2013-02-03 09:19:27,,,photo,0.0,Czechia,Anglická; Vinohrady; Prague; 120 00; Czechia,hotel room,flickr
https://live.staticflickr.com/8693/17167433931_0e5e076f9f_o.jpg,50.071381,14.402710999999998,2015-04-05 15:48:01,2592.0,3888.0,photo,0.0,Czechia,Anděl; Stroupežnického; Smíchov; Prague; 151 34; Czechia,hotel room,flickr
https://live.staticflickr.com/65535/48822507301_7a54f0a385_o.jpg,50.10646,14.269125,2018-07-28 21:26:52,1944.0,2592.0,photo,1.0,Czechia,Courtyard Prague Airport; 1092/8; Aviatická; Ruzyně; Prague; 16100; Czechia,hotel room,flickr
https://live.staticflickr.com/8727/16545625454_0204a99082_o.jpg,50.071381,14.402710999999998,2015-04-05 15:47:22,2409.0,3616.0,photo,0.0,Czechia,Anděl; Stroupežnického; Smíchov; Prague; 151 34; Czechia,hotel room,flickr
https://farm9.staticflickr.com/8094/8472701637_2167a92b53_b.jpg,50.073887,14.426422,2013-02-03 09:18:55,,,photo,0.0,Czechia,I. stomatologická klinika; Ke Karlovu; New Town; Prague; 12132; Czechia,hotel room,flickr
https://live.staticflickr.com/172/366197507_65fbaf6d8c_o.jpg,50.077303,14.422667,2007-01-17 15:53:22,2010.0,3065.0,photo,4.0,Czechia,Mini Market; Žitná; New Town; Prague; 11121; Czechia,hotel room,flickr
https://live.staticflickr.com/188/463513617_817cbf3008_o.jpg,50.105469,14.487769,2007-04-13 05:44:43,2348.0,3516.0,photo,1.0,Czechia,546/14; Kurta Konráda; Libeň; Prague; 19000; Czechia,hotel room,flickr
https://farm4.staticflickr.com/3192/2981990189_b5db625ed9_b.jpg,50.085899,14.424949,2008-10-17 15:29:29,,,photo,0.0,Czechia,palác Myslbek; Na Příkopě; New Town; Prague; 110 00; Czechia,hotel room,flickr
https://live.staticflickr.com/4594/25265354698_d81dfd7e0d_o.jpg,50.219369,12.87853,2017-04-06 08:56:59,3515.0,5265.0,photo,0.0,Czechia,Grandhotel Pupp; 310/8; Mírové náměstí; Karlovy Vary; Carlsbad; okres Karlovy Vary; Karlovarský kraj; Northwest; 36001; Czechia,hotel room,flickr
https://live.staticflickr.com/1156/1455045754_8eea149707_o.jpg,50.071932000000004,14.446291,2007-08-28 06:05:56,1361.0,2048.0,photo,0.0,Czechia,240/76; Francouzská; Vinohrady; Prague; 10100; Czechia,inn room,flickr
https://live.staticflickr.com/1094/1454175625_9a7c6c5bd8_o.jpg,50.071932000000004,14.446291,2007-08-28 04:20:55,1361.0,2048.0,photo,0.0,Czechia,240/76; Francouzská; Vinohrady; Prague; 10100; Czechia,inn room,flickr
https://live.staticflickr.com/530/18525437444_641669373a_o.jpg,49.184171,16.579914000000002,2015-04-25 11:28:02,1067.0,1600.0,photo,0.0,Czechia,Congress Hall; Křížkovského; Pisárky; Brno; okres Brno-město; Jihomoravský kraj; Southeast; 64700; Czechia,inn room,flickr
https://live.staticflickr.com/1198/1455129574_2c75f0f85f_o.jpg,50.071903999999996,14.446226999999999,2007-08-28 06:05:56,1361.0,2048.0,photo,0.0,Czechia,240/76; Francouzská; Vinohrady; Prague; 10100; Czechia,inn room,flickr
https://live.staticflickr.com/1004/1454181235_419c78316c_o.jpg,50.071932000000004,14.446291,2007-08-28 06:18:56,1362.0,2048.0,photo,0.0,Czechia,240/76; Francouzská; Vinohrady; Prague; 10100; Czechia,inn room,flickr
https://live.staticflickr.com/1052/1454258875_4afb8cad65_o.jpg,50.071903999999996,14.446226999999999,2007-08-28 04:20:55,1361.0,2048.0,photo,0.0,Czechia,240/76; Francouzská; Vinohrady; Prague; 10100; Czechia,inn room,flickr
https://live.staticflickr.com/1131/1455131264_2d0772b024_o.jpg,50.071903999999996,14.446226999999999,2007-08-28 06:17:04,1361.0,2048.0,photo,0.0,Czechia,240/76; Francouzská; Vinohrady; Prague; 10100; Czechia,inn room,flickr
https://live.staticflickr.com/1408/1454179703_fafc38cdbf_o.jpg,50.071932000000004,14.446291,2007-08-28 06:09:17,1361.0,2048.0,photo,0.0,Czechia,240/76; Francouzská; Vinohrady; Prague; 10100; Czechia,inn room,flickr
https://farm8.staticflickr.com/7100/6929456714_5741cd972c_b.jpg,49.746613,13.382248,2011-07-27 08:44:12,,,photo,0.0,Czechia,Hvězda; Pražská; Vnitřní Město; Plzeň; okres Plzeň-město; Plzeňský kraj; Southwest; 301 12; Czechia,hotel bathroom,flickr
https://farm6.staticflickr.com/5486/14496744001_314873465f_b.jpg,50.089605,14.431282000000001,2014-06-19 10:12:24,,,photo,0.0,Czechia,Hotel Century Old Town Prague; 7; Na Poříčí; New Town; Prague; 11000; Czechia,hotel bathroom,flickr
https://farm5.staticflickr.com/4031/4286220345_0a336d877f_b.jpg,50.095153,14.400329000000001,2010-01-15 18:44:00,,,photo,0.0,Czechia,Na Valech; Hradčany; Prague; 11900; Czechia,hotel bathroom,flickr
https://live.staticflickr.com/6220/6213756742_98ebb978e2_o.jpg,50.067442,14.344754,2011-10-05 09:50:28,480.0,640.0,photo,0.0,Czechia,A; 103/215c; Plzeňská; Motol; Prague; 15000; Czechia,hotel bathroom,flickr
https://live.staticflickr.com/1149/1131314126_c5b2634093_o.jpg,50.087003,14.408397,2007-08-05 20:15:00,1280.0,853.0,photo,0.0,Czechia,Márnice; Charles Bridge; Lesser Town; Prague; 11801; Czechia,hotel bathroom,flickr
https://live.staticflickr.com/4105/5049998645_6d55718000_o.jpg,50.0745,14.408923000000001,2010-09-07 15:33:28,2400.0,3600.0,photo,0.0,Czechia,Riverside hotel; Janáčkovo nábřeží; Smíchov; Prague; 150 000; Czechia,hotel bathroom,flickr
https://live.staticflickr.com/4566/37866025625_489ca8eb0b_o.jpg,50.079726,14.431056,2017-10-11 17:30:36,4000.0,5181.0,photo,0.0,Czechia,Muzeum; Muzejní oáza; Vinohrady; Prague; 12132; Czechia,hotel bathroom,flickr
https://farm3.staticflickr.com/2712/4286220851_2bb8afe9f6_b.jpg,50.095153,14.400329000000001,2010-01-15 18:44:36,,,photo,0.0,Czechia,Na Valech; Hradčany; Prague; 11900; Czechia,hotel bathroom,flickr
https://live.staticflickr.com/5342/8958373838_180e797be4_o.jpg,50.09133900000001,14.431048,2013-05-09 13:01:10,1335.0,1000.0,photo,0.0,Czechia,1756/34; Soukenická; New Town; Prague; 11000; Czechia,hotel bathroom,flickr
https://live.staticflickr.com/5330/8958373876_46b6b10d04_o.jpg,50.09133900000001,14.431048,2013-05-09 15:17:57,1335.0,1000.0,photo,0.0,Czechia,1756/34; Soukenická; New Town; Prague; 11000; Czechia,hotel bathroom,flickr
https://live.staticflickr.com/3853/14727106836_da5b36f8ff_o.jpg,50.09158,14.424523,2014-07-12 10:37:24,1184.0,1776.0,photo,0.0,Czechia,U Zelené mříže; Anežská; Old Town; Prague; 11005; Czechia,hotel bathroom,flickr
https://farm4.staticflickr.com/3950/15597324496_43961af8eb_b.jpg,50.090816,14.404679999999999,2014-10-05 17:54:57,,,photo,0.0,Czechia,Ledebourská zahrada; U Zlaté studně; Lesser Town; Prague; 11801; Czechia,hotel bathroom,flickr
https://live.staticflickr.com/1397/1391743747_991c94fedf_o.jpg,50.56165,15.906486,2007-09-10 00:01:26,2592.0,1944.0,photo,0.0,Czechia,Mateřská škola - Sluníčko; Komenského; Střední Předměstí; Trutnov; okres Trutnov; Královéhradecký kraj; Northeast; 54101; Czechia,hotel bathroom,flickr
https://live.staticflickr.com/4494/37013925433_718201efcb_o.jpg,50.089944,14.405013,2017-06-04 07:05:13,5471.0,3484.0,photo,0.0,Czechia,16/1; Valdštejnské náměstí; Lesser Town; Prague; 11800; Czechia,hotel bathroom,flickr
https://live.staticflickr.com/6040/6213148583_1a5b69f932_o.jpg,50.067442,14.344754,2009-01-20 18:59:11,1024.0,768.0,photo,0.0,Czechia,A; 103/215c; Plzeňská; Motol; Prague; 15000; Czechia,hotel bathroom,flickr
https://live.staticflickr.com/1138/1131313418_294bb6493a_o.jpg,50.087003,14.408397,2007-08-05 20:14:51,1280.0,853.0,photo,0.0,Czechia,Márnice; Charles Bridge; Lesser Town; Prague; 11801; Czechia,hotel bathroom,flickr
https://live.staticflickr.com/65535/49113656266_0aa0e1f2cf_o.jpg,50.08566,14.419854999999998,2019-11-05 04:26:17,5472.0,3648.0,photo,2.0,Czechia,U Železných dveří; Jilská; Old Town; Prague; 11665; Czechia,hotel suite,flickr
https://live.staticflickr.com/3250/2784895196_b1213ff481_o.jpg,49.856136,18.542089,2005-10-19 12:02:29,600.0,800.0,photo,5.0,Czechia,58/5a; Karola Śliwky; Fryštát; Karviná-město; Karviná; okres Karviná; Moravskoslezský kraj; Moravia-Silesia; 73301; Czechia,hotel suite,flickr
https://live.staticflickr.com/3011/2784044091_87226494b0_o.jpg,49.856136,18.542089,2005-10-19 12:02:25,600.0,800.0,photo,5.0,Czechia,58/5a; Karola Śliwky; Fryštát; Karviná-město; Karviná; okres Karviná; Moravskoslezský kraj; Moravia-Silesia; 73301; Czechia,hotel suite,flickr
https://live.staticflickr.com/3178/2784899594_90904c5a74_o.jpg,49.856136,18.542089,2005-10-19 12:02:22,768.0,1024.0,photo,5.0,Czechia,58/5a; Karola Śliwky; Fryštát; Karviná-město; Karviná; okres Karviná; Moravskoslezský kraj; Moravia-Silesia; 73301; Czechia,hotel suite,flickr
https://live.staticflickr.com/3022/2784043537_98981a2cb3_o.jpg,49.856136,18.542089,2005-10-19 12:02:26,854.0,640.0,photo,5.0,Czechia,58/5a; Karola Śliwky; Fryštát; Karviná-město; Karviná; okres Karviná; Moravskoslezský kraj; Moravia-Silesia; 73301; Czechia,hotel suite,flickr
https://live.staticflickr.com/3153/2784898136_6e50e8d679_o.jpg,49.856136,18.542089,2005-10-19 12:02:24,600.0,800.0,photo,5.0,Czechia,58/5a; Karola Śliwky; Fryštát; Karviná-město; Karviná; okres Karviná; Moravskoslezský kraj; Moravia-Silesia; 73301; Czechia,hotel suite,flickr
https://live.staticflickr.com/3214/2784048711_bc2b56abc2_o.jpg,49.856136,18.542089,2005-10-19 12:02:19,853.0,640.0,photo,5.0,Czechia,58/5a; Karola Śliwky; Fryštát; Karviná-město; Karviná; okres Karviná; Moravskoslezský kraj; Moravia-Silesia; 73301; Czechia,hotel suite,flickr
https://live.staticflickr.com/3236/2784048065_33172604b3_o.jpg,49.856136,18.542089,2005-10-19 12:02:20,853.0,640.0,photo,5.0,Czechia,58/5a; Karola Śliwky; Fryštát; Karviná-město; Karviná; okres Karviná; Moravskoslezský kraj; Moravia-Silesia; 73301; Czechia,hotel suite,flickr
https://live.staticflickr.com/3079/2784042351_b4dcfc2fcf_o.jpg,49.856136,18.542089,2005-10-19 12:02:28,600.0,800.0,photo,5.0,Czechia,58/5a; Karola Śliwky; Fryštát; Karviná-město; Karviná; okres Karviná; Moravskoslezský kraj; Moravia-Silesia; 73301; Czechia,hotel suite,flickr
https://live.staticflickr.com/3105/2784896502_14b37e2995_o.jpg,49.856136,18.542089,2005-10-19 12:02:27,854.0,640.0,photo,5.0,Czechia,58/5a; Karola Śliwky; Fryštát; Karviná-město; Karviná; okres Karviná; Moravskoslezský kraj; Moravia-Silesia; 73301; Czechia,hotel suite,flickr
https://farm4.staticflickr.com/3012/2784898600_58ef4e312e_b.jpg,49.856136,18.542089,2005-10-19 12:02:23,,,photo,0.0,Czechia,58/5a; Karola Śliwky; Fryštát; Karviná-město; Karviná; okres Karviná; Moravskoslezský kraj; Moravia-Silesia; 73301; Czechia,hotel suite,flickr
https://live.staticflickr.com/4144/5011361603_7491948a25_o.jpg,50.0745,14.408923000000001,2010-09-07 11:24:15,2022.0,3600.0,photo,0.0,Czechia,Riverside hotel; Janáčkovo nábřeží; Smíchov; Prague; 150 000; Czechia,hotel suite,flickr
https://live.staticflickr.com/5061/5690718810_82fb363b03_o.jpg,50.066453,14.402707,2010-07-20 10:38:47,1181.0,1535.0,photo,3.0,Czechia,Node5; Radlická; Smíchov; Prague; 151 34; Czechia,vacation bedroom,flickr
https://live.staticflickr.com/1149/612961994_e65aa934e6_o.jpg,50.083175,14.430263,2007-06-02 15:02:38,1944.0,2592.0,photo,3.0,Czechia,1397/5; Olivova; New Town; Prague; 11000; Czechia,vacation bedroom,flickr
https://live.staticflickr.com/1183/612913006_a1f7340048_o.jpg,50.083175,14.430263,2007-06-02 14:58:17,2592.0,1944.0,photo,3.0,Czechia,1397/5; Olivova; New Town; Prague; 11000; Czechia,vacation bedroom,flickr
https://live.staticflickr.com/21/32911630_4e7dfecff3_o.jpg,50.083175,14.430263,2005-05-27 09:57:00,2304.0,1728.0,photo,3.0,Czechia,1397/5; Olivova; New Town; Prague; 11000; Czechia,vacation bedroom,flickr
https://live.staticflickr.com/2306/2138662827_bff8460b63_o.jpg,50.087289,14.398763,2007-11-19 09:24:06,2816.0,2112.0,photo,1.0,Czechia,U Tří bílých křížků; Vlašská; Lesser Town; Prague; 118 00; Czechia,vacation bedroom,flickr
https://live.staticflickr.com/21/32911626_8cdbea8c58_o.jpg,50.083175,14.430263,2005-05-27 09:55:24,2304.0,1728.0,photo,3.0,Czechia,1397/5; Olivova; New Town; Prague; 11000; Czechia,vacation bedroom,flickr
https://live.staticflickr.com/23/32911627_9b2a50488b_o.jpg,50.083175,14.430263,2005-05-27 09:55:38,2304.0,1728.0,photo,3.0,Czechia,1397/5; Olivova; New Town; Prague; 11000; Czechia,vacation bedroom,flickr
https://live.staticflickr.com/1034/612958000_bbb89f5548_o.jpg,50.083175,14.430263,2007-06-02 15:02:15,1944.0,2592.0,photo,3.0,Czechia,1397/5; Olivova; New Town; Prague; 11000; Czechia,vacation bedroom,flickr
https://farm2.staticflickr.com/1203/1477207385_f0d5bc1717_b.jpg,50.077413,14.430198,2007-09-28 13:46:15,,,photo,0.0,Czechia,1581/69; Legerova; New Town; Prague; 11000; Czechia,vacation bedroom,flickr
https://live.staticflickr.com/3293/2794840353_2dd2ed5fd1_o.jpg,50.088112,14.424017999999998,2008-08-04 05:07:48,1200.0,1600.0,photo,3.0,Czechia,636/9; Týn; Old Town; Prague; 11000; Czechia,vacation bathroom,flickr
https://live.staticflickr.com/7148/6440756903_096a2c508a_o.jpg,49.601532,17.244887,2010-05-17 11:06:40,1183.0,1535.0,photo,3.0,Czechia,Best; 1194/36; Dolní hejčínská; Hejčín; Olomouc; okres Olomouc; Olomouc Region; Central Moravia; 77900; Czechia,vacation bathroom,flickr
https://live.staticflickr.com/3182/2795687094_afbc77d87f_o.jpg,50.088112,14.424017999999998,2008-08-04 05:08:01,1201.0,1600.0,photo,3.0,Czechia,636/9; Týn; Old Town; Prague; 11000; Czechia,vacation bathroom,flickr
https://live.staticflickr.com/3194/2795686892_d6eb928526_o.jpg,50.088112,14.424017999999998,2008-08-04 05:08:31,1200.0,1600.0,photo,3.0,Czechia,636/9; Týn; Old Town; Prague; 11000; Czechia,vacation bathroom,flickr
https://live.staticflickr.com/3082/2795686024_8a7530237a_o.jpg,50.088112,14.424017999999998,2008-08-04 05:38:57,1600.0,1200.0,photo,3.0,Czechia,636/9; Týn; Old Town; Prague; 11000; Czechia,vacation bathroom,flickr
https://live.staticflickr.com/3039/2794839813_d7f1872a54_o.jpg,50.088112,14.424017999999998,2008-08-04 05:12:07,1200.0,1600.0,photo,3.0,Czechia,636/9; Týn; Old Town; Prague; 11000; Czechia,vacation bathroom,flickr
https://live.staticflickr.com/3136/2795687474_298a369e07_o.jpg,50.088112,14.424017999999998,2008-08-04 05:07:36,1200.0,1600.0,photo,3.0,Czechia,636/9; Týn; Old Town; Prague; 11000; Czechia,vacation bathroom,flickr
https://live.staticflickr.com/3186/2794839571_5e436ff47f_o.jpg,50.088112,14.424017999999998,2008-08-04 05:37:33,1200.0,1600.0,photo,3.0,Czechia,636/9; Týn; Old Town; Prague; 11000; Czechia,vacation bathroom,flickr
https://live.staticflickr.com/3273/2795686526_d0628094ac_o.jpg,50.088112,14.424017999999998,2008-08-04 05:12:49,1200.0,1600.0,photo,3.0,Czechia,636/9; Týn; Old Town; Prague; 11000; Czechia,vacation bathroom,flickr
https://live.staticflickr.com/3052/2794839421_b39cee71b5_o.jpg,50.088112,14.424017999999998,2008-08-04 05:38:31,1600.0,1200.0,photo,3.0,Czechia,636/9; Týn; Old Town; Prague; 11000; Czechia,vacation bathroom,flickr
https://live.staticflickr.com/3133/2795690858_af4544af32_o.jpg,50.088112,14.424017999999998,2008-08-02 15:17:08,1600.0,1200.0,photo,3.0,Czechia,636/9; Týn; Old Town; Prague; 11000; Czechia,vacation bathroom,flickr
https://live.staticflickr.com/22/32911629_a3f92951ad_o.jpg,50.083175,14.430263,2005-05-27 09:56:37,1728.0,2304.0,photo,3.0,Czechia,1397/5; Olivova; New Town; Prague; 11000; Czechia,vacation bathroom,flickr
https://live.staticflickr.com/5189/5690719360_7f1c85cb4f_o.jpg,50.066453,14.402707,2010-07-20 15:10:15,1181.0,1535.0,photo,3.0,Czechia,Node5; Radlická; Smíchov; Prague; 151 34; Czechia,vacation bathroom,flickr
https://live.staticflickr.com/21/32911628_fec1493072_o.jpg,50.083175,14.430263,2005-05-27 09:55:53,2304.0,1728.0,photo,3.0,Czechia,1397/5; Olivova; New Town; Prague; 11000; Czechia,vacation bathroom,flickr
https://live.staticflickr.com/1894/42662779020_c0cb0945b7_o.jpg,50.088077,14.403108,2017-09-30 13:37:08,3000.0,4000.0,photo,1.0,Czechia,Saint Nicholas; Malostranské náměstí; Lesser Town; Prague; 11800; Czechia,room decor,flickr
https://live.staticflickr.com/1612/26070481096_0d4295c453_o.jpg,50.090338,14.403913,2016-02-25 18:16:14,3727.0,5579.0,photo,4.0,Czechia,palác Schützenů; Sněmovní; Lesser Town; Prague; 11801; Czechia,room decor,flickr
https://live.staticflickr.com/1624/26092011415_01ebb93619_o.jpg,50.090338,14.403913,2016-02-25 18:15:22,5790.0,3868.0,photo,4.0,Czechia,palác Schützenů; Sněmovní; Lesser Town; Prague; 11801; Czechia,room decor,flickr
https://live.staticflickr.com/7581/29788069680_fe45034351_o.jpg,50.229786,12.87235,2016-08-10 14:54:16,5444.0,3648.0,photo,5.0,Czechia,Lázně V.; Bulharská; Karlovy Vary; Carlsbad; okres Karlovy Vary; Karlovarský kraj; Northwest; 36001; Czechia,room decor,flickr
https://live.staticflickr.com/1120/929858216_4ca89954e1_o.jpg,50.081585,14.447107,2005-05-17 17:45:40,768.0,1024.0,photo,1.0,Czechia,1606/12; Kubelíkova; Žižkov; Prague; 13000; Czechia,room decor,flickr
https://live.staticflickr.com/5263/5591506327_4f8f5e9a94_o.jpg,50.095124,14.416191,2011-04-05 14:04:45,480.0,640.0,photo,0.0,Czechia,Kyvadlo-vlajkový stožár býval. památníku Stalina; Stalin square; Holešovice; Prague; 110 000; Czechia,room decor,flickr
https://live.staticflickr.com/4822/45008719134_d3856c3d56_o.jpg,50.090566,14.40086,2018-10-02 13:30:22,3888.0,2592.0,photo,0.0,Czechia,Prague Castle; Zlatá ulička u Daliborky; Hradčany; Prague; 11900; Czechia,room decor,flickr
https://live.staticflickr.com/3777/13375833803_4f0cf596b0_o.jpg,50.066932,14.423471,2014-03-17 15:32:03,532.0,800.0,photo,0.0,Czechia,Albertov; 2107/2d; Horská; Vyšehrad; Prague; 120 00; Czechia,rental room,flickr
https://farm5.staticflickr.com/4374/37213578442_a82fdff447_b.jpg,48.810262,14.31879,2017-08-17 13:21:53,,,photo,0.0,Czechia,Hotel Garni; 28; Rooseveltova; Latrán; Český Krumlov; okres Český Krumlov; Jihočeský kraj; Southwest; 381 01; Czechia,booking.com,flickr
https://live.staticflickr.com/1677/24818383795_33e596dfeb_o.jpg,50.085488,14.415006,2016-02-04 13:09:48,2464.0,6464.0,photo,0.0,Czechia,Pöttingovský palác; 8; Karlova; Old Town; Prague; 11000; Czechia,booking.com,flickr
https://live.staticflickr.com/65535/49901562162_3b58c980ee_o.jpg,49.94325,14.184311,2020-02-21 16:31:03,2115.0,3760.0,photo,3.0,Czechia,11620; Budňany; Karlštejn; okres Beroun; Central Bohemia; 26718; Czechia,booking.com,flickr
https://live.staticflickr.com/65535/49900739313_928d2c36dd_o.jpg,49.939151,14.187984,2020-02-21 16:01:01,3080.0,5472.0,photo,3.0,Czechia,Karlštejn; 11620; Budňany; Karlštejn; okres Beroun; Central Bohemia; 26718; Czechia,booking.com,flickr
https://live.staticflickr.com/65535/49901562022_7f8e9401cb_o.jpg,49.943225,14.184269,2020-02-21 16:31:37,2138.0,3801.0,photo,3.0,Czechia,11620; Budňany; Karlštejn; okres Beroun; Central Bohemia; 26718; Czechia,booking.com,flickr
https://farm3.staticflickr.com/2792/4279608847_49ebf6b5a4_b.jpg,50.087768,14.4247,2007-02-07 12:35:02,,,photo,0.0,Czechia,Pivnice stupartska; 9; Malá Štupartská; Old Town; Prague; 11005; Czechia,bedroom,flickr
https://farm3.staticflickr.com/2400/2043862506_3d613c9d5b_b.jpg,50.079451,14.432773,2007-11-16 00:44:13,,,photo,0.0,Czechia,Museum; Metro A; Muzejní oáza; Vinohrady; Prague; 120 00; Czechia,bedroom,flickr
https://live.staticflickr.com/3860/14300779217_9e3b739a39_o.jpg,50.08456,14.40477,2014-03-27 23:21:12,2432.0,4320.0,photo,4.0,Czechia,Czech Museum of Music; 2; Karmelitská; Lesser Town; Prague; 11800; Czechia,bedroom,flickr
https://live.staticflickr.com/8492/8348350393_a06dcd83ab_o.jpg,48.642054,14.232466,2008-01-04 14:29:04,2448.0,3264.0,photo,0.0,Czechia,Lipno nad Vltavou; Slupečná; Lipno nad Vltavou; okres Český Krumlov; Jihočeský kraj; Southwest; 38278; Czechia,bedroom,flickr
https://live.staticflickr.com/8517/8348338721_55eba3d20a_o.jpg,48.642054,14.232466,2008-01-05 09:19:37,2448.0,3264.0,photo,0.0,Czechia,Lipno nad Vltavou; Slupečná; Lipno nad Vltavou; okres Český Krumlov; Jihočeský kraj; Southwest; 38278; Czechia,bedroom,flickr
https://live.staticflickr.com/5222/5591505835_27481b6334_o.jpg,50.095124,14.416191,2011-04-05 14:04:27,480.0,640.0,photo,0.0,Czechia,Kyvadlo-vlajkový stožár býval. památníku Stalina; Stalin square; Holešovice; Prague; 110 000; Czechia,bedroom,flickr
https://live.staticflickr.com/7177/6979702115_b7cfa18706_o.jpg,50.078081,14.338134,2012-03-12 17:23:07,998.0,1500.0,photo,3.0,Czechia,1072/48; Za Oborou; Břevnov; Prague; 16900; Czechia,bedroom,flickr
https://live.staticflickr.com/7067/6833582788_34cf03f7bb_o.jpg,50.078081,14.338134,2012-03-12 17:14:22,998.0,1500.0,photo,3.0,Czechia,1072/48; Za Oborou; Břevnov; Prague; 16900; Czechia,bedroom,flickr
https://farm4.staticflickr.com/3259/2872815317_426da8075a_b.jpg,50.079151,14.43299,2008-09-14 13:42:31,,,photo,0.0,Czechia,Vinohradská; Vinohrady; Prague; 120 00; Czechia,Camera d'albergo,flickr
https://live.staticflickr.com/111/316591423_816da622de_o.jpg,49.21042,16.567382000000002,2006-12-07 20:17:45,427.0,516.0,photo,0.0,Czechia,Driving Range Žabovřesky; Kníničská; Žabovřesky; Brno; okres Brno-město; Jihomoravský kraj; Southeast; 637 00; Czechia,habitacion,flickr
https://farm4.staticflickr.com/3714/8847165598_fc69b633e3_b.jpg,50.073281,14.414062,2013-05-23 11:22:13,,,photo,0.0,Czechia,Palackého náměstí. dopravní kamera; Rašínovo nábřeží; New Town; Prague; 128 00; Czechia,habitacion,flickr
https://farm4.staticflickr.com/3371/3179601444_ed702fcee9_b.jpg,50.079151,14.43299,2009-01-03 12:45:41,,,photo,0.0,Czechia,Vinohradská; Vinohrady; Prague; 120 00; Czechia,holiday room,flickr
https://live.staticflickr.com/5088/5327311809_57889d463e_o.jpg,49.58439600000001,15.936827,2009-06-11 00:32:01,1944.0,2592.0,photo,3.0,Czechia,Zámecké zahrady; Santiniho; Žďár nad Sázavou 2; Zámek Žďár; Žďár nad Sázavou; okres Žďár nad Sázavou; Kraj Vysočina; Southeast; 59101; Czechia,holiday room,flickr
https://live.staticflickr.com/5010/5328045510_461fe3e697_o.jpg,49.58439600000001,15.936827,2009-06-11 01:08:46,2535.0,1901.0,photo,3.0,Czechia,Zámecké zahrady; Santiniho; Žďár nad Sázavou 2; Zámek Žďár; Žďár nad Sázavou; okres Žďár nad Sázavou; Kraj Vysočina; Southeast; 59101; Czechia,holiday room,flickr
https://live.staticflickr.com/1862/44217931161_5a26a13120_o.jpg,50.092069,14.403934,2017-07-02 16:16:54,1500.0,1775.0,photo,3.0,Czechia,Prague Castle; Zlatá ulička u Daliborky; Hradčany; Prague; 11900; Czechia,holiday room,flickr
https://live.staticflickr.com/3489/3896234472_8908dcac6d_o.jpg,50.082809999999995,14.394664,2005-08-09 10:30:31,600.0,800.0,photo,0.0,Czechia,12. zastavení; křížová cesta; Lesser Town; Prague; 118 00; Czechia,holiday room,flickr
https://farm2.staticflickr.com/1353/1010475439_0d197ef2fc_b.jpg,50.078348999999996,14.428825,2007-08-01 11:45:46,,,photo,0.0,Czechia,Policie ČR - Oddělení hlídkové služby; Krakovská; New Town; Prague; 12132; Czechia,holiday room,flickr
https://farm3.staticflickr.com/2880/12559960043_4b7737ca4f_b.jpg,50.073783,14.417163,2014-02-12 09:43:07,,,photo,0.0,Czechia,326/15; Na Moráni; New Town; Prague; 12800; Czechia,best western room,flickr
https://live.staticflickr.com/4126/5049997699_dbdb0a1e66_o.jpg,50.0745,14.408923,2010-09-07 19:31:23,2534.0,3524.0,photo,0.0,Czechia,Riverside hotel; Janáčkovo nábřeží; Smíchov; Prague; 150 000; Czechia,comfort room,flickr
https://live.staticflickr.com/65535/49517207036_97fd6c5ed8_o.jpg,50.184461,14.416379,2019-12-08 15:48:51,2173.0,2172.0,photo,0.0,Czechia,V Honech; Klecany; okres Praha-východ; Central Bohemia; 25067; Czechia,comfort room,flickr
https://farm8.staticflickr.com/7027/6614699029_e37538c4ee_b.jpg,48.810466,14.315188,2011-12-04 17:41:52,,,photo,0.0,Czechia,5; náměstí Svornosti; Vnitřní Město; Český Krumlov; okres Český Krumlov; Jihočeský kraj; Southwest; 381 01; Czechia,comfort room,flickr
https://live.staticflickr.com/5772/30280490395_ee24c22386_o.jpg,50.086025,14.433127,2014-06-01 00:00:00,3072.0,4608.0,photo,0.0,Czechia,1628/17; Senovážné náměstí; New Town; Prague; 11000; Czechia,comfort room,flickr
https://farm3.staticflickr.com/2315/2222243820_a7f3007f79_b.jpg,50.08658300000001,14.409792,2006-11-21 01:34:18,,,photo,0.0,Czechia,Charles Bridge; Hroznová; Lesser Town; Prague; 11801; Czechia,days inn room,flickr
https://live.staticflickr.com/4037/4662899530_f3f472bc62_o.jpg,50.0745,14.408923000000001,2009-02-13 13:05:44,1333.0,2000.0,photo,0.0,Czechia,Riverside hotel; Janáčkovo nábřeží; Smíchov; Prague; 150 000; Czechia,deluxe room,flickr
https://live.staticflickr.com/8557/8958373728_cf327675db_o.jpg,50.09133900000001,14.431048,2013-05-09 14:08:47,749.0,1000.0,photo,0.0,Czechia,1756/34; Soukenická; New Town; Prague; 11000; Czechia,deluxe room,flickr
https://live.staticflickr.com/3752/8958373680_a27f28136a_o.jpg,50.09133900000001,14.431048,2013-05-09 13:41:31,749.0,1000.0,photo,0.0,Czechia,1756/34; Soukenická; New Town; Prague; 11000; Czechia,deluxe room,flickr
https://live.staticflickr.com/5337/8958373944_b4f9e8fb7b_o.jpg,50.09133900000001,14.431048,2013-05-09 14:24:50,749.0,1000.0,photo,0.0,Czechia,1756/34; Soukenická; New Town; Prague; 11000; Czechia,deluxe room,flickr
https://live.staticflickr.com/4137/4852115543_7246bbc8e0_o.jpg,50.0745,14.408923000000001,2010-07-20 16:12:34,2232.0,3600.0,photo,0.0,Czechia,Riverside hotel; Janáčkovo nábřeží; Smíchov; Prague; 150 000; Czechia,deluxe room,flickr
https://live.staticflickr.com/2169/2100679266_7997bdfa6c_o.jpg,50.088428,14.431807,2007-09-25 10:35:18,641.0,1012.0,photo,0.0,Czechia,Hilton Prague Old Town; 7; V Celnici; New Town; Prague; 110 00; Czechia,twin room,flickr
https://farm7.staticflickr.com/6229/6343820232_4ddf74d2fd_b.jpg,49.189038,16.572403,2011-11-12 17:40:53,,,photo,0.0,Czechia,Parking BVV; Bauerova; Pisárky; Brno; okres Brno-město; Jihomoravský kraj; Southeast; 625 00; Czechia,twin room,flickr
https://live.staticflickr.com/302/32578606035_10f83722b9_o.jpg,50.094116,14.454663,2016-09-18 14:40:09,2448.0,3264.0,photo,0.0,Czechia,632/7a; Šaldova; Karlín; Prague; 18600; Czechia,twin room,flickr
https://live.staticflickr.com/3167/3288030464_90a2fb993d_o.jpg,50.071594,14.430289000000002,2008-11-26 13:53:44,548.0,1000.0,photo,0.0,Czechia,1865/4; Fügnerovo náměstí; New Town; Prague; 12000; Czechia,twin room,flickr
https://farm5.staticflickr.com/4714/25078157147_bbd1f227b8_b.jpg,50.090072,14.418605,2015-07-07 12:00:18,,,photo,0.0,Czechia,Old New Synagogue; Červená; Jewish quarter; Prague; 110 000; Czechia,twin room,flickr
https://live.staticflickr.com/3392/3287206621_ba534b45ec_o.jpg,50.071594,14.430289000000002,2009-02-17 07:03:29,572.0,800.0,photo,0.0,Czechia,1865/4; Fügnerovo náměstí; New Town; Prague; 12000; Czechia,twin room,flickr
https://farm5.staticflickr.com/4698/26076860108_e88a478d1b_b.jpg,50.090072,14.418605,2015-07-07 11:59:19,,,photo,0.0,Czechia,Old New Synagogue; Červená; Jewish quarter; Prague; 110 000; Czechia,twin room,flickr
https://live.staticflickr.com/6101/6213148507_cd2735616d_o.jpg,50.067442,14.344754,2009-11-21 11:33:21,683.0,756.0,photo,0.0,Czechia,A; 103/215c; Plzeňská; Motol; Prague; 15000; Czechia,twin room,flickr
https://live.staticflickr.com/6046/6213242385_6a19b3669f_o.jpg,50.067442,14.344754,2011-10-05 09:50:28,480.0,640.0,photo,0.0,Czechia,A; 103/215c; Plzeňská; Motol; Prague; 15000; Czechia,twin room,flickr
https://live.staticflickr.com/2929/14563427720_dc5331b376_o.jpg,50.09158,14.424523,2014-07-12 10:37:33,1184.0,1776.0,photo,0.0,Czechia,U Zelené mříže; Anežská; Old Town; Prague; 11005; Czechia,twin room,flickr
https://live.staticflickr.com/6184/6025930166_17af20e859_o.jpg,49.976856,12.707897,2011-08-09 07:26:50,2362.0,3543.0,photo,0.0,Czechia,13/7; Goethovo náměstí; Mariánské Lázně; Cheb District; Karlovarský kraj; Northwest; 35301; Czechia,superior suite,flickr
https://live.staticflickr.com/4147/5011361405_f34aa65fcb_o.jpg,50.0745,14.408923,2010-09-07 12:51:06,2400.0,3600.0,photo,0.0,Czechia,Riverside hotel; Janáčkovo nábřeží; Smíchov; Prague; 150 000; Czechia,superior suite,flickr
https://farm1.staticflickr.com/439/20171972712_cf4b8030ec_b.jpg,50.187066,12.754397,2015-07-04 17:31:40,,,photo,0.0,Czechia,Hrad Loket; Zámecká; Loket; Sokolov District; Karlovarský kraj; Northwest; 35733; Czechia,queen room,flickr
https://live.staticflickr.com/162/401880922_1e93d6a1ec_o.jpg,50.108166,14.438867000000002,2007-02-22 16:53:56,1536.0,2048.0,photo,0.0,Czechia,631/1; Plynární; Holešovice; Prague; 17000; Czechia,queen room,flickr
https://live.staticflickr.com/4118/4776775381_11eab9cddf_o.jpg,50.077292,14.422366,2010-06-09 12:30:31,2696.0,4059.0,photo,0.0,Czechia,Brasserie Délice; Žitná; New Town; Prague; 11121; Czechia,sheraton room,flickr
https://farm3.staticflickr.com/2735/4286219895_a548edbf0a_b.jpg,50.095153,14.400329,2010-01-15 18:43:51,,,photo,0.0,Czechia,Na Valech; Hradčany; Prague; 11900; Czechia,sheraton room,flickr
https://live.staticflickr.com/4074/4783770556_26429c3159_o.jpg,50.077292,14.422366,2010-06-09 18:56:13,4288.0,2848.0,photo,0.0,Czechia,Brasserie Délice; Žitná; New Town; Prague; 11121; Czechia,sheraton room,flickr
https://farm3.staticflickr.com/2714/4286219305_9fe147d166_b.jpg,50.095153,14.400329,2010-01-15 18:43:30,,,photo,0.0,Czechia,Na Valech; Hradčany; Prague; 11900; Czechia,sheraton room,flickr
https://farm5.staticflickr.com/4053/4286218875_5d21028d4e_b.jpg,50.095153,14.400329,2010-01-15 18:43:11,,,photo,0.0,Czechia,Na Valech; Hradčany; Prague; 11900; Czechia,sheraton room,flickr
https://farm5.staticflickr.com/4003/4287010378_76aed5c9f7_b.jpg,50.095153,14.400329,2010-01-17 07:59:13,,,photo,0.0,Czechia,Na Valech; Hradčany; Prague; 11900; Czechia,sheraton room,flickr
https://live.staticflickr.com/8480/8200998890_3a63376894_o.jpg,50.088325,14.431379000000002,2012-11-19 11:35:15,423.0,610.0,photo,0.0,Czechia,1028/8; V Celnici; New Town; Prague; 11000; Czechia,Premier room,flickr
https://live.staticflickr.com/3868/14914957091_c286e08abc_o.jpg,48.812798,14.315614000000002,2014-08-01 12:09:19,3531.0,2397.0,photo,0.0,Czechia,Castle and Chateau Český Krumlov; Na Dlouhé zdi; Vnitřní Město; Český Krumlov; okres Český Krumlov; Jihočeský kraj; Southwest; 381 01; Czechia,Premier room,flickr
https://live.staticflickr.com/2823/9567302650_4d8e1bc433_o.jpg,49.870333,16.313,2013-08-07 18:36:52,2448.0,3264.0,photo,0.0,Czechia,154; Šantovo nám.; Litomyšl-Město; Litomyšl; okres Svitavy; Pardubický kraj; Northeast; 57001; Czechia,Premier room,flickr
https://live.staticflickr.com/4149/5029567729_6d199d0818_o.jpg,50.088829,14.419787,2010-09-27 08:27:37,480.0,640.0,photo,0.0,Czechia,Nespresso; 10; Pařížská; Jewish quarter; Prague; 11000; Czechia,prestige room,flickr
https://live.staticflickr.com/4145/5030183638_19114c96a7_o.jpg,50.088829,14.419787,2010-09-27 08:27:40,480.0,640.0,photo,0.0,Czechia,Nespresso; 10; Pařížská; Jewish quarter; Prague; 11000; Czechia,prestige room,flickr
https://live.staticflickr.com/4149/5029567991_5f84a657bd_o.jpg,50.088829,14.419787,2010-09-27 08:27:43,480.0,640.0,photo,0.0,Czechia,Nespresso; 10; Pařížská; Jewish quarter; Prague; 11000; Czechia,prestige room,flickr
https://live.staticflickr.com/4107/5029568401_d402b4c7fb_o.jpg,50.088829,14.419787,2010-09-27 08:27:52,480.0,640.0,photo,0.0,Czechia,Nespresso; 10; Pařížská; Jewish quarter; Prague; 11000; Czechia,prestige room,flickr
https://live.staticflickr.com/4113/5030183968_04af314b91_o.jpg,50.088829,14.419787,2010-09-27 08:27:47,480.0,640.0,photo,0.0,Czechia,Nespresso; 10; Pařížská; Jewish quarter; Prague; 11000; Czechia,prestige room,flickr
https://live.staticflickr.com/4148/5030183708_50d11f1cc4_o.jpg,50.088829,14.419787,2010-09-27 08:27:41,480.0,640.0,photo,0.0,Czechia,Nespresso; 10; Pařížská; Jewish quarter; Prague; 11000; Czechia,prestige room,flickr
https://live.staticflickr.com/4113/5029568243_a8a79c5e5a_o.jpg,50.088829,14.419787,2010-09-27 08:27:49,480.0,640.0,photo,0.0,Czechia,Nespresso; 10; Pařížská; Jewish quarter; Prague; 11000; Czechia,prestige room,flickr
https://live.staticflickr.com/5260/5522294065_73466f876b_o.jpg,50.080076,14.426282,2011-03-09 11:07:09,2592.0,3888.0,photo,3.0,Czechia,Doreen Warriner; Štěpánská; New Town; Prague; 11121; Czechia,radisson blu room,flickr
https://live.staticflickr.com/7554/15531653164_0ca68777d7_o.jpg,50.079979,14.426407,2014-12-31 08:24:02,1280.0,1920.0,photo,0.0,Czechia,Alcron; 623/40; Štěpánská; New Town; Prague; 11000; Czechia,radisson blu room,flickr
https://live.staticflickr.com/7572/15531653144_cfdfddbb8c_o.jpg,50.079979,14.426407,2014-12-31 08:22:10,1280.0,1920.0,photo,0.0,Czechia,Alcron; 623/40; Štěpánská; New Town; Prague; 11000; Czechia,radisson blu room,flickr
https://live.staticflickr.com/7488/16153995975_be461ed73f_o.jpg,50.079979,14.426407,2014-12-31 08:25:20,1280.0,1920.0,photo,0.0,Czechia,Alcron; 623/40; Štěpánská; New Town; Prague; 11000; Czechia,radisson blu room,flickr
https://live.staticflickr.com/7552/15967921109_6933811ac9_o.jpg,50.079979,14.426407,2014-12-31 08:24:37,1280.0,1920.0,photo,0.0,Czechia,Alcron; 623/40; Štěpánská; New Town; Prague; 11000; Czechia,radisson blu room,flickr
https://live.staticflickr.com/7466/16153995965_8af2f8693c_o.jpg,50.079979,14.426407,2014-12-31 08:27:46,1280.0,1920.0,photo,0.0,Czechia,Alcron; 623/40; Štěpánská; New Town; Prague; 11000; Czechia,radisson blu room,flickr
https://live.staticflickr.com/8216/8270340460_6ed6903328_o.jpg,50.079544,14.459595000000002,2012-12-13 08:57:02,423.0,610.0,photo,0.0,Czechia,The Farmer's Market; Lucemburská; Žižkov; Prague; 13005; Czechia,marriott room,flickr
https://live.staticflickr.com/8362/8269247591_c4a43e85cf_o.jpg,50.079544,14.459595000000002,2012-12-13 08:44:54,423.0,610.0,photo,0.0,Czechia,The Farmer's Market; Lucemburská; Žižkov; Prague; 13005; Czechia,marriott room,flickr
https://live.staticflickr.com/1030/581359383_61364992fd_o.jpg,50.072152,14.401144,2005-11-24 13:25:42,2592.0,1944.0,photo,2.0,Czechia,Parkoviště Nový Smíchov; Kartouzská; Smíchov; Prague; 151 34; Czechia,ibis room,flickr
https://farm6.staticflickr.com/5316/5871765165_2fc01d6f73_b.jpg,50.09454,14.454531,2011-06-11 19:00:35,,,photo,0.0,Czechia,Pentahotel Prague; 54/13; Sokolovská; Florenc; Karlín; Prague; 18600; Czechia,ibis room,flickr
https://farm3.staticflickr.com/2101/2178565739_176b8e451f_b.jpg,50.08723,14.425606,2008-01-04 18:09:50,,,photo,0.0,Czechia,590/25; Celetná; Old Town; Prague; 11000; Czechia,grand room,flickr
https://live.staticflickr.com/1760/42425147472_a34d209e2a_o.jpg,50.087255,14.425705,2018-05-10 10:51:39,4042.0,6049.0,photo,0.0,Czechia,11007:53; Celetná; Old Town; Prague; 110 00; Czechia,grand room,flickr
https://farm4.staticflickr.com/3749/14279596812_b6d0c9330b_b.jpg,50.087058,14.42537,2013-06-09 17:41:42,,,photo,0.0,Czechia,House of the Black Madonna; Ovocný trh; Old Town; Prague; 11000; Czechia,grand room,flickr
https://farm6.staticflickr.com/5164/5290761805_8d2bbc5fed_b.jpg,50.087052,14.42539,2010-12-25 18:48:31,,,photo,0.0,Czechia,House of the Black Madonna; Ovocný trh; Old Town; Prague; 11000; Czechia,grand room,flickr
https://farm6.staticflickr.com/5084/5290762837_3e2474dc72_b.jpg,50.087052,14.42539,2010-12-25 18:48:46,,,photo,0.0,Czechia,House of the Black Madonna; Ovocný trh; Old Town; Prague; 11000; Czechia,grand room,flickr
https://live.staticflickr.com/164/340817066_f68811d0a2_o.jpg,50.08712,14.425456,2006-12-15 15:40:29,1944.0,2592.0,photo,0.0,Czechia,House of the Black Madonna; Ovocný trh; Old Town; Prague; 11000; Czechia,grand room,flickr
https://live.staticflickr.com/7297/11735329184_0787d296e3_o.jpg,50.08718,14.425763,2013-12-31 19:10:22,2448.0,2448.0,photo,0.0,Czechia,11007:53; Celetná; Old Town; Prague; 110 00; Czechia,grand room,flickr
https://live.staticflickr.com/3483/3195547180_fc9500d11e_o.jpg,50.087024,14.427543,2008-05-22 09:00:58,2736.0,3648.0,photo,3.0,Czechia,KOB 28.října -Můstek; Na Příkopě; New Town; Prague; 11005; Czechia,grand room,flickr
https://live.staticflickr.com/3699/13446279924_18470af6fb_o.jpg,50.090755,14.418810999999998,2012-04-08 03:10:35,1920.0,2560.0,photo,0.0,Czechia,131/2; Bílkova; Jewish quarter; Prague; 11000; Czechia,grand room,flickr
https://live.staticflickr.com/5513/10645123996_93cf238996_o.jpg,50.087019,14.425589000000002,2013-11-03 14:07:29,640.0,640.0,photo,4.0,Czechia,House of the Black Madonna; Ovocný trh; Old Town; Prague; 11000; Czechia,grand room,flickr
https://live.staticflickr.com/135/340819853_41289a6cb2_o.jpg,50.08712,14.425456,2006-12-15 15:41:18,1944.0,2592.0,photo,0.0,Czechia,House of the Black Madonna; Ovocný trh; Old Town; Prague; 11000; Czechia,grand room,flickr
https://live.staticflickr.com/3305/3177315019_21b5007e2c_o.jpg,50.087024,14.427543,2008-05-22 08:58:34,2736.0,3648.0,photo,3.0,Czechia,KOB 28.října -Můstek; Na Příkopě; New Town; Prague; 11005; Czechia,grand room,flickr
https://farm8.staticflickr.com/7199/6926398847_7e4137a6b8_b.jpg,50.081162,14.425563,2011-10-26 11:39:45,,,photo,0.0,Czechia,palác Lucerna; Štěpánská; New Town; Prague; 11121; Czechia,grand room,flickr
https://live.staticflickr.com/278/19142230092_7cc1d7cb95_o.jpg,49.184171,16.579914000000002,2015-04-25 10:42:33,1067.0,1600.0,photo,0.0,Czechia,Congress Hall; Křížkovského; Pisárky; Brno; okres Brno-město; Jihomoravský kraj; Southeast; 64700; Czechia,holiday inn room,flickr
https://live.staticflickr.com/470/18525409074_e986a2b0f1_o.jpg,49.184171,16.579914000000002,2015-04-25 17:14:21,1067.0,1600.0,photo,0.0,Czechia,Congress Hall; Křížkovského; Pisárky; Brno; okres Brno-město; Jihomoravský kraj; Southeast; 64700; Czechia,holiday inn room,flickr
https://live.staticflickr.com/503/19142199912_e21a4a039a_o.jpg,49.184171,16.579914000000002,2015-04-25 17:14:05,1067.0,1600.0,photo,0.0,Czechia,Congress Hall; Křížkovského; Pisárky; Brno; okres Brno-město; Jihomoravský kraj; Southeast; 64700; Czechia,holiday inn room,flickr
https://live.staticflickr.com/549/18525436044_46fa24e674_o.jpg,49.184171,16.579914000000002,2015-04-25 12:23:14,1067.0,1600.0,photo,0.0,Czechia,Congress Hall; Křížkovského; Pisárky; Brno; okres Brno-město; Jihomoravský kraj; Southeast; 64700; Czechia,holiday inn room,flickr
https://live.staticflickr.com/279/19142248462_954b94e3ca_o.jpg,49.184171,16.579914000000002,2015-04-25 17:14:11,1067.0,1600.0,photo,0.0,Czechia,Congress Hall; Křížkovského; Pisárky; Brno; okres Brno-město; Jihomoravský kraj; Southeast; 64700; Czechia,holiday inn room,flickr
https://farm4.staticflickr.com/3542/3486491430_871e23622d_b.jpg,50.062752,14.429812,2009-04-28 15:09:58,,,photo,0.0,Czechia,Nusle; Prague; 12800; Czechia,holiday inn room,flickr
https://farm3.staticflickr.com/2762/4074669838_c8e9e7d939_b.jpg,50.48085800000001,14.941298000000002,2009-06-27 11:36:31,,,photo,0.0,Czechia,Na Růžku; Husova; Na Bahnech; Bakov nad Jizerou; Malá Bělá; Bakov nad Jizerou; okres Mladá Boleslav; Central Bohemia; 29401; Czechia,family room,flickr
https://live.staticflickr.com/8178/8063217460_6b2e318a6e_o.jpg,50.0954,14.405451999999999,2012-08-14 12:56:10,2448.0,3264.0,photo,0.0,Czechia,Na Baště svatého Jiří; Hradčany; Prague; 11900; Czechia,family room,flickr
https://live.staticflickr.com/8461/8063212918_34a2b924c7_o.jpg,50.0954,14.405451999999999,2012-08-14 12:56:27,2448.0,3264.0,photo,0.0,Czechia,Na Baště svatého Jiří; Hradčany; Prague; 11900; Czechia,family room,flickr
https://live.staticflickr.com/4007/4183255734_a7131767df_o.jpg,49.999186,14.617035000000001,2009-12-12 18:06:16,1067.0,1600.0,photo,1.0,Czechia,11; Do Kopečka; Lipany; Prague; 10300; Czechia,family room,flickr
https://live.staticflickr.com/8020/7183610050_77b433e21d_o.jpg,50.08527700000001,14.398888,2012-04-27 15:51:13,3216.0,4288.0,photo,3.0,Czechia,Schönbornská zahrada; Vlašská; Lesser Town; Prague; 118 00; Czechia,executive room,flickr
https://live.staticflickr.com/5170/5369769028_9022505b95_o.jpg,50.067986,14.418284,2010-08-13 19:17:52,2106.0,3000.0,photo,0.0,Czechia,Park Inn Hotel Prague; 1; Svobodova; Vyšehrad; Prague; 12800; Czechia,executive room,flickr
https://live.staticflickr.com/5241/5226697910_242121fd09_o.jpg,50.07191,14.436454,2010-12-02 16:44:43,3328.0,4992.0,photo,0.0,Czechia,318/12; Belgická; Vinohrady; Prague; 12000; Czechia,executive room,flickr
https://live.staticflickr.com/4025/5145432674_087f5d9ef9_o.jpg,50.07191,14.436454,2007-03-21 22:04:48,1067.0,1600.0,photo,0.0,Czechia,318/12; Belgická; Vinohrady; Prague; 12000; Czechia,executive room,flickr
https://live.staticflickr.com/5263/5689699903_86434b6498_o.jpg,50.109391,14.393720000000002,2008-01-18 17:17:40,1388.0,2000.0,photo,0.0,Czechia,International; Koulova; Dejvice; Prague; 160 00; Czechia,executive room,flickr
https://live.staticflickr.com/4004/5080797454_79f8c136d4_o.jpg,50.07156,14.430948999999998,2007-09-15 13:23:26,480.0,360.0,photo,0.0,Czechia,Отель АBE; Legerova; New Town; Prague; 1815; Czechia,double room,flickr
https://live.staticflickr.com/6149/6025211669_169a2b67ce_o.jpg,49.976837,12.70725,2011-08-09 06:22:12,2000.0,3006.0,photo,0.0,Czechia,16/1; Goethovo náměstí; Mariánské Lázně; Cheb District; Karlovarský kraj; Northwest; 35301; Czechia,double room,flickr
https://live.staticflickr.com/6207/6025531441_ae6299303e_o.jpg,49.979484,12.703527,2006-04-21 11:05:30,2000.0,3008.0,photo,0.0,Czechia,Svoboda; 393/6; Chopinova; Mariánské Lázně; Cheb District; Karlovarský kraj; Northwest; 35301; Czechia,double room,flickr
https://live.staticflickr.com/4144/5080797340_3bf587d8eb_o.jpg,50.07156,14.430948999999998,2007-08-28 13:31:40,480.0,640.0,photo,0.0,Czechia,Отель АBE; Legerova; New Town; Prague; 1815; Czechia,double room,flickr
https://farm6.staticflickr.com/5469/9422629831_e183bb281b_b.jpg,50.104235,14.390412,2013-05-27 10:19:45,,,photo,0.0,Czechia,Národní technická knihovna; Studentská; Dejvice; Prague; 1097; Czechia,double room,flickr
https://live.staticflickr.com/1048/1455128184_028b3b83fb_o.jpg,50.071904,14.446227,2007-08-28 05:30:17,2048.0,1361.0,photo,0.0,Czechia,240/76; Francouzská; Vinohrady; Prague; 10100; Czechia,double room,flickr
https://live.staticflickr.com/1259/764277707_d31e2f94f8_o.jpg,49.733494,13.389501,2007-06-12 15:56:48,2112.0,2816.0,photo,0.0,Czechia,1969/18; Zahradní; Petrohrad; Plzeň; okres Plzeň-město; Plzeňský kraj; Southwest; 32600; Czechia,double room,flickr
https://live.staticflickr.com/2799/4099739398_f5c924ee4f_o.jpg,50.102792,14.425059,2006-01-23 06:46:56,2304.0,3072.0,photo,0.0,Czechia,Academy of Fine Arts; U Akademie; Bubeneč; Prague; 170 00; Czechia,double room,flickr
https://live.staticflickr.com/4900/39761741523_cec6160d0c_o.jpg,50.075544,14.41385,2017-08-16 18:16:56,5430.0,3620.0,photo,0.0,Czechia,Mánes VO-pevná; Rašínovo nábřeží; New Town; Prague; 150 000; Czechia,family suite,flickr
https://live.staticflickr.com/8760/17464874276_d2fd6ee931_o.jpg,50.086638,14.420253,2015-04-07 20:14:06,3913.0,5858.0,photo,4.0,Czechia,Old Town; Prague; Czechia,family suite,flickr
https://live.staticflickr.com/2110/2089021824_2e194ca0c6_o.jpg,50.08808,14.427489000000001,2007-12-02 12:21:30,461.0,615.0,photo,4.0,Czechia,Hotel Paříž; Králodvorská; Old Town; Prague; 11005; Czechia,family suite,flickr
https://live.staticflickr.com/2624/3851124193_8aa611a4f5_o.jpg,50.075361,14.408226,2009-08-24 01:09:20,471.0,728.0,photo,0.0,Czechia,1113/2; Dienzenhoferovy sady; Smíchov; Prague; 15000; Czechia,junior suite,flickr
https://live.staticflickr.com/2550/3851124197_ae5f60c450_o.jpg,50.075361,14.408226,2008-03-18 11:00:04,1535.0,2244.0,photo,0.0,Czechia,1113/2; Dienzenhoferovy sady; Smíchov; Prague; 15000; Czechia,junior suite,flickr
https://live.staticflickr.com/8332/8348733009_56c4d5a8ef_o.jpg,50.084362,14.406179000000002,2013-01-05 21:28:49,612.0,612.0,photo,2.0,Czechia,463/1; Nosticova; Lesser Town; Prague; 11800; Czechia,junior suite,flickr
https://farm2.staticflickr.com/1509/24411496581_ded6f879c9_b.jpg,50.089213,14.40598,2015-12-23 11:03:38,,,photo,0.0,Czechia,Augustinian monastery; Valdštejnské náměstí; Lesser Town; Prague; Czechia,junior suite,flickr
https://farm2.staticflickr.com/1643/24411408881_058de2ea91_b.jpg,50.089213,14.40598,2015-12-22 17:27:44,,,photo,0.0,Czechia,Augustinian monastery; Valdštejnské náměstí; Lesser Town; Prague; Czechia,junior suite,flickr
https://farm2.staticflickr.com/1501/24493861195_0e6b460599_b.jpg,50.089213,14.40598,2015-12-22 17:27:56,,,photo,0.0,Czechia,Augustinian monastery; Valdštejnské náměstí; Lesser Town; Prague; Czechia,junior suite,flickr
https://live.staticflickr.com/4134/4852113589_81c880eb23_o.jpg,50.0745,14.408923,2010-07-20 11:44:32,2752.0,3600.0,photo,0.0,Czechia,Riverside hotel; Janáčkovo nábřeží; Smíchov; Prague; 150 000; Czechia,junior suite,flickr
https://farm2.staticflickr.com/1714/23865699964_988a07a09b_b.jpg,50.089213,14.40598,2015-12-23 11:03:51,,,photo,0.0,Czechia,Augustinian monastery; Valdštejnské náměstí; Lesser Town; Prague; Czechia,junior suite,flickr
https://farm2.staticflickr.com/1463/24493774255_8843df883e_b.jpg,50.089213,14.40598,2015-12-22 16:58:12,,,photo,0.0,Czechia,Augustinian monastery; Valdštejnské náměstí; Lesser Town; Prague; Czechia,junior suite,flickr
https://farm2.staticflickr.com/1576/23865726394_636801e5f1_b.jpg,50.089213,14.40598,2015-12-26 15:17:33,,,photo,0.0,Czechia,Augustinian monastery; Valdštejnské náměstí; Lesser Town; Prague; Czechia,junior suite,flickr
https://farm2.staticflickr.com/1674/24385595632_9f657b442e_b.jpg,50.089213,14.40598,2015-12-22 17:28:00,,,photo,0.0,Czechia,Augustinian monastery; Valdštejnské náměstí; Lesser Town; Prague; Czechia,junior suite,flickr
https://farm2.staticflickr.com/1650/23867101633_8b7ecfe34d_b.jpg,50.089213,14.40598,2015-12-24 12:31:18,,,photo,0.0,Czechia,Augustinian monastery; Valdštejnské náměstí; Lesser Town; Prague; Czechia,junior suite,flickr
https://farm2.staticflickr.com/1598/24126045429_73044c3e29_b.jpg,50.089213,14.40598,2015-12-22 17:27:38,,,photo,0.0,Czechia,Augustinian monastery; Valdštejnské náměstí; Lesser Town; Prague; Czechia,junior suite,flickr
https://farm2.staticflickr.com/1570/23867108603_c8e5818483_b.jpg,50.089213,14.40598,2015-12-26 15:17:25,,,photo,0.0,Czechia,Augustinian monastery; Valdštejnské náměstí; Lesser Town; Prague; Czechia,junior suite,flickr
https://farm2.staticflickr.com/1491/24126173249_2d1dc77cef_b.jpg,50.089213,14.40598,2015-12-26 15:17:53,,,photo,0.0,Czechia,Augustinian monastery; Valdštejnské náměstí; Lesser Town; Prague; Czechia,junior suite,flickr
https://farm2.staticflickr.com/1638/24411503161_506d00e21f_b.jpg,50.089213,14.40598,2015-12-23 11:04:01,,,photo,0.0,Czechia,Augustinian monastery; Valdštejnské náměstí; Lesser Town; Prague; Czechia,junior suite,flickr
https://farm2.staticflickr.com/1589/24411493871_19341123bf_b.jpg,50.089213,14.40598,2015-12-23 11:03:35,,,photo,0.0,Czechia,Augustinian monastery; Valdštejnské náměstí; Lesser Town; Prague; Czechia,junior suite,flickr
https://farm2.staticflickr.com/1459/24493889865_3fc9050d56_b.jpg,50.089213,14.40598,2015-12-23 17:10:18,,,photo,0.0,Czechia,Augustinian monastery; Valdštejnské náměstí; Lesser Town; Prague; Czechia,junior suite,flickr
https://farm7.staticflickr.com/6139/6029714256_65cc3e10bd_b.jpg,50.087258,14.426663,2010-02-19 17:32:38,,,photo,0.0,Czechia,585/31; Celetná; Old Town; Prague; 11000; Czechia,junior suite,flickr
https://farm7.staticflickr.com/6089/6029722004_4292b4d15e_b.jpg,50.087258,14.426663,2010-02-19 17:34:17,,,photo,0.0,Czechia,585/31; Celetná; Old Town; Prague; 11000; Czechia,junior suite,flickr
