url,latitude,longitude,date,height,width,media,copyRight,country,address,keyword,source
https://live.staticflickr.com/1577/25849592500_9a9e73c046_o.jpg,57.04964166666667,9.92729166666667,,,,,,Denmark,Utzon Center; Musikkens Plads; Vejgård; Aalborg; Aalborg Municipality; North Denmark Region; 9000; Denmark,hotel,cameraforensics
https://live.staticflickr.com/5335/9831253754_524f6ee805_o.jpg,57.04883333333333,9.9185,,,,,,Denmark,Aalborg Kloster; Klosterjordet; Aalborg; Aalborg Municipality; North Denmark Region; 9000; Denmark,hotel,cameraforensics
https://live.staticflickr.com/7522/16109712579_840925f2bb_o.jpg,57.048458333333336,9.92276944444444,,,,,,Denmark,Nytorv v/ Salling (G); G; Eternitten; Aalborg; Aalborg Municipality; North Denmark Region; 9000; Denmark,hotel,cameraforensics
https://live.staticflickr.com/3776/13705990874_4e7d721aa4_o.jpg,57.04983333333333,9.91866666666667,,,,,,Denmark,7; Jomfru Ane Gade; Aalborg; Aalborg Municipality; North Denmark Region; 9000; Denmark,hotel,cameraforensics
https://live.staticflickr.com/7348/11581118786_bc4a626738_o.jpg,57.05151388888889,9.910925,,,,,,Denmark,6B; Poul Paghs Gade; Aalborg; Aalborg Municipality; North Denmark Region; 9000; Denmark,hotel,cameraforensics
https://live.staticflickr.com/5544/10589099923_a0131743e0_o.jpg,57.0515,9.91633333333333,,,,,,Denmark,16; Borgergade; Aalborg; Aalborg Municipality; North Denmark Region; 9000; Denmark,hotel,cameraforensics
https://live.staticflickr.com/5517/10588980896_1d274fb632_o.jpg,57.0515,9.91066666666667,,,,,,Denmark,6B; Poul Paghs Gade; Aalborg; Aalborg Municipality; North Denmark Region; 9000; Denmark,hotel,cameraforensics
https://live.staticflickr.com/3730/32486668064_8b0c2d6c84_o.jpg,57.04813888888889,9.918963888888893,,,,,,Denmark,Studenterhuset Aalborg; Gammeltorv; Eternitten; Aalborg; Aalborg Municipality; North Denmark Region; Denmark,hotel,cameraforensics
https://live.staticflickr.com/1448/26630380371_f1ee3c81e0_o.jpg,57.05,9.91933333333333,,,,,,Denmark,6; Jomfru Anes Gård; Aalborg; Aalborg Municipality; North Denmark Region; 9000; Denmark,hotel,cameraforensics
https://live.staticflickr.com/3935/33207913256_8bc9a9f7e7_o.jpg,57.04781666666667,9.92556666666667,,,,,,Denmark,5; Gabels Torv; Eternitten; Aalborg; Aalborg Municipality; North Denmark Region; 9000; Denmark,hotel,cameraforensics
https://live.staticflickr.com/7450/11239194215_23f9be43b2_o.jpg,56.15399997222222,10.200166638888893,,,,,,Denmark,ARoS Kunstmuseum; Vester Allé; Aarhus; Aarhus Municipality; Central Denmark Region; 8000; Denmark,hotel,cameraforensics
https://live.staticflickr.com/572/23417346945_67131e6697_o.jpg,56.15345833333333,10.214475,,,,,,Denmark,Dokk1; Hack Kampmanns Plads; Aarhus; Aarhus Municipality; Central Denmark Region; 8000; Denmark,hotel,cameraforensics
https://live.staticflickr.com/5684/22788973644_405cb6cc34_o.jpg,56.15333055555556,10.213397222222222,,,,,,Denmark,Dokk1; Hack Kampmanns Plads; Aarhus; Aarhus Municipality; Central Denmark Region; 8000; Denmark,hotel,cameraforensics
https://live.staticflickr.com/5818/21837538765_60abc8260a_o.jpg,56.152736111111096,10.19943888888889,,,,,,Denmark,Musikhuset Aarhus; Skovgaardsgade; Aarhus; Aarhus Municipality; Central Denmark Region; 8000; Denmark,hotel,cameraforensics
https://live.staticflickr.com/4348/36649234261_931307c086_o.jpg,56.15450972222222,10.21287416666667,,,,,,Denmark,Pakhus 13; Havnegade; Aarhus; Aarhus Municipality; Central Denmark Region; 8000; Denmark,hotel,cameraforensics
https://live.staticflickr.com/4358/36871920325_784048e22b_o.jpg,56.15223055555553,10.20105833333333,,,,,,Denmark,16; Frederiks Allé; Aarhus; Aarhus Municipality; Central Denmark Region; 8000; Denmark,hotel,cameraforensics
https://live.staticflickr.com/4427/36514438520_a69f28eed1_o.jpg,56.15014166666667,10.205819444444439,,,,,,Denmark,950; Banegårdspladsen; Aarhus; Aarhus Municipality; Central Denmark Region; 8000; Denmark,hotel,cameraforensics
https://live.staticflickr.com/7416/13893618679_4cfd7a85f4_o.jpg,56.152946472222226,10.201550472222221,,,,,,Denmark,Ridehuset; Frederiks Allé; Aarhus; Aarhus Municipality; Central Denmark Region; 8000; Denmark,hotel,cameraforensics
https://live.staticflickr.com/430/32527090762_05a9d8143b_o.jpg,56.15266666666667,10.20783333333333,,,,,,Denmark,A-GAMING; Sønder Allé; Aarhus; Aarhus Municipality; Central Denmark Region; 8000; Denmark,hotel,cameraforensics
https://live.staticflickr.com/5065/5857535348_2da08dc530_o.jpg,56.153999999999996,10.1995,,,,,,Denmark,Art Cafe; Your rainbow panorama; Aarhus; Aarhus Municipality; Central Denmark Region; 8000; Denmark,hotel,cameraforensics
https://q-cf.bstatic.com/images/hotel/max1280x900/225/225023817.jpg,55.500214,9.565659,,,,,,Denmark,18; Fjorddalen; Drejens; Kolding; Kolding Municipality; Region of Southern Denmark; 6000; Denmark,hotel,cameraforensics
https://q-cf.bstatic.com/images/hotel/max1280x900/217/217705402.jpg,55.4978,9.565389999999999,,,,,,Denmark,90; Fjorddalen; Drejens; Kolding; Kolding Municipality; Region of Southern Denmark; 6000; Denmark,hotel,cameraforensics
https://live.staticflickr.com/519/32685683112_be0fdcef82_o.jpg,55.4987388888889,9.55521944444444,,,,,,Denmark,Hotel Koldingfjord; Fjordvej; Drejens; Kolding; Kolding Municipality; Region of Southern Denmark; 6091; Denmark,hotel,cameraforensics
https://live.staticflickr.com/7372/9208835792_2e51a596d0_o.jpg,55.49783333333333,9.5555,,,,,,Denmark,Hotel Koldingfjord; Fjordvej; Drejens; Kolding; Kolding Municipality; Region of Southern Denmark; 6091; Denmark,hotel,cameraforensics
https://live.staticflickr.com/8439/7775000056_455438ce9b_o.jpg,55.49810416666666,9.55562944444444,,,,,,Denmark,Hotel Koldingfjord; Fjordvej; Drejens; Kolding; Kolding Municipality; Region of Southern Denmark; 6091; Denmark,hotel,cameraforensics
https://live.staticflickr.com/7404/27777419956_d9257714ef_o.jpg,55.49720277777778,9.555963888888893,,,,,,Denmark,Hotel Koldingfjord; Fjordvej; Drejens; Kolding; Kolding Municipality; Region of Southern Denmark; 6091; Denmark,hotel,cameraforensics
https://live.staticflickr.com/8548/30198152442_2af9efff20_o.jpg,55.500744444444436,9.555036111111107,,,,,,Denmark,8; Venøvænget; Drejens; Kolding; Kolding Municipality; Region of Southern Denmark; 6000; Denmark,hotel,cameraforensics
https://r-cf.bstatic.com/images/hotel/max1280x900/820/82082995.jpg,55.49832824,9.5553574,,,,,,Denmark,Hotel Koldingfjord; Fjordvej; Drejens; Kolding; Kolding Municipality; Region of Southern Denmark; 6091; Denmark,hotel,cameraforensics
https://q-cf.bstatic.com/images/hotel/max1280x900/225/225023915.jpg,55.500214,9.565659,,,,,,Denmark,18; Fjorddalen; Drejens; Kolding; Kolding Municipality; Region of Southern Denmark; 6000; Denmark,hotel,cameraforensics
https://live.staticflickr.com/557/32024517133_5f70d4497e_o.jpg,55.4987388888889,9.55521944444444,,,,,,Denmark,Hotel Koldingfjord; Fjordvej; Drejens; Kolding; Kolding Municipality; Region of Southern Denmark; 6091; Denmark,hotel,cameraforensics
https://live.staticflickr.com/1492/25212906740_646c8ee51b_o.jpg,55.46758608333333,8.44391663888889,,,,,,Denmark,15; Stormgade; Strandby; Esbjerg; Esbjerg Municipality; Region of Southern Denmark; 6700; Denmark,hotel,cameraforensics
https://live.staticflickr.com/2872/12006995593_a465f75e34_o.jpg,55.46433333333334,8.4465,,,,,,Denmark,Havneadministrationen; Landgangen; Rørkjær; Esbjerg; Esbjerg Municipality; Region of Southern Denmark; 6700; Denmark,hotel,cameraforensics
https://live.staticflickr.com/5794/23502007563_639b22d4ff_o.jpg,55.461955,8.443538055555559,,,,,,Denmark,Dokken City Beach; Østre Dok Kaj; Dokken; Strandby; Esbjerg; Esbjerg Municipality; Region of Southern Denmark; 6700; Denmark,hotel,cameraforensics
https://r-cf.bstatic.com/images/hotel/max1280x900/781/78142109.jpg,55.46744124,8.451792,,,,,,Denmark,Hotel Britannia - FITNESS; Danmarksgade; Rørkjær; Esbjerg; Esbjerg Municipality; Region of Southern Denmark; 6700; Denmark,hotel,cameraforensics
https://live.staticflickr.com/8312/8030033482_46ab0d9d45_o.jpg,55.47216666666666,8.44866666666667,,,,,,Denmark,92; Jyllandsgade; Boldesager; Esbjerg; Esbjerg Municipality; Region of Southern Denmark; 6700; Denmark,hotel,cameraforensics
https://live.staticflickr.com/2838/10255689016_819cd4a798_o.jpg,55.47366666666667,8.44683333333333,,,,,,Denmark,111; Rolfsgade; Boldesager; Esbjerg; Esbjerg Municipality; Region of Southern Denmark; 6700; Denmark,hotel,cameraforensics
https://live.staticflickr.com/8243/8665259390_9b6d87d511_o.jpg,55.468999999999994,8.458833333333331,,,,,,Denmark,Esbjerg; Jernbanegade; Rørkjær; Esbjerg; Esbjerg Municipality; Region of Southern Denmark; 6700; Denmark,hotel,cameraforensics
https://live.staticflickr.com/6080/6102968922_0ec744da44_o.jpg,55.46733333333334,8.44083333333333,,,,,,Denmark,W2; Willemoesgade; Strandby; Esbjerg; Esbjerg Municipality; Region of Southern Denmark; 6700; Denmark,hotel,cameraforensics
https://q-cf.bstatic.com/images/hotel/max1280x900/212/212284311.jpg,55.4658329,8.4531575,,,,,,Denmark,Christoffersen Guld Sølv Ure; Kongensgade; Rørkjær; Esbjerg; Esbjerg Municipality; Region of Southern Denmark; 6700; Denmark,hotel,cameraforensics
https://live.staticflickr.com/4536/37830011235_89a41ee9b3_o.jpg,55.46638888888889,8.451944444444441,,,,,,Denmark,Christian IX's rytterstatue; Torvet; Rørkjær; Esbjerg; Esbjerg Municipality; Region of Southern Denmark; 6700; Denmark,hotel,cameraforensics
https://live.staticflickr.com/7337/11236136074_ded5aba8a2_o.jpg,55.67318194444444,12.570770555555553,,,,,,Denmark,Tivoli Gardens; Bernstorffsgade; Meatpacking District; Vesterbro; Copenhagen; Copenhagen Municipality; Capital Region of Denmark; 1704; Denmark,hotel,cameraforensics
https://live.staticflickr.com/8101/8590033482_33c091efec_o.jpg,55.67147416666667,12.5655375,,,,,,Denmark,13; Reventlowsgade; Meatpacking District; Vesterbro; Copenhagen; Copenhagen Municipality; Capital Region of Denmark; 1651; Denmark,hotel,cameraforensics
https://live.staticflickr.com/8809/18049527232_ef710756d6_o.jpg,55.675647222222224,12.57581944444444,,,,,,Denmark,Stormbroen; Frederiksholms Kanal; Christianshavn; Copenhagen; Copenhagen Municipality; Capital Region of Denmark; 1204; Denmark,hotel,cameraforensics
https://live.staticflickr.com/1621/24605544576_83e3a81c11_o.jpg,55.67513811104167,12.57741045363333,,,,,,Denmark,Slotsholmen; Christians Brygge; Christianshavn; Copenhagen; Copenhagen Municipality; Capital Region of Denmark; 1409; Denmark,hotel,cameraforensics
https://live.staticflickr.com/2856/11805054675_55d5870c61_o.jpg,55.67416666666666,12.57416666666667,,,,,,Denmark,National Museum of Denmark; Vester Voldgade; Christianshavn; Copenhagen; Copenhagen Municipality; Capital Region of Denmark; 1555; Denmark,hotel,cameraforensics
https://live.staticflickr.com/601/32287812335_26ea95b6a2_o.jpg,55.67476388888889,12.57495277777778,,,,,,Denmark,National Museum of Denmark; Vester Voldgade; Christianshavn; Copenhagen; Copenhagen Municipality; Capital Region of Denmark; 1555; Denmark,hotel,cameraforensics
https://live.staticflickr.com/4231/35551217436_1756e4b7df_o.jpg,55.673545,12.56803833333333,,,,,,Denmark,Tivoli Gardens; Bernstorffsgade; Meatpacking District; Vesterbro; Copenhagen; Copenhagen Municipality; Capital Region of Denmark; 1704; Denmark,hotel,cameraforensics
https://live.staticflickr.com/5512/30493453175_5f237324d1_o.jpg,55.67428333333334,12.57390833333333,,,,,,Denmark,National Museum of Denmark; Vester Voldgade; Christianshavn; Copenhagen; Copenhagen Municipality; Capital Region of Denmark; 1555; Denmark,hotel,cameraforensics
https://live.staticflickr.com/3669/13306033393_b1d0867ab0_o.jpg,55.67398055555557,12.564363888888893,,,,,,Denmark,Panoptikonbygningen; Vesterbrogade; Vesterbro; Copenhagen; Copenhagen Municipality; Capital Region of Denmark; 1570; Denmark,hotel,cameraforensics
https://live.staticflickr.com/8520/28786886160_c14b5e29cb_o.jpg,55.67307777777778,12.570052777777779,,,,,,Denmark,Tivoli Gardens; Bernstorffsgade; Meatpacking District; Vesterbro; Copenhagen; Copenhagen Municipality; Capital Region of Denmark; 1704; Denmark,hotel,cameraforensics
https://live.staticflickr.com/7603/17000191366_9abcc0b085_o.jpg,55.67866666666666,12.574666666666667,,,,,,Denmark,38A; Vimmelskaftet; Christianshavn; Copenhagen; Copenhagen Municipality; Capital Region of Denmark; 1161; Denmark,hotel,cameraforensics
https://live.staticflickr.com/5635/31136588956_a0811ebe43_o.jpg,55.67575,12.56908888888889,,,,,,Denmark,City Hall Square; H.C. Andersens Boulevard; Vesterbro; Copenhagen; Copenhagen Municipality; Capital Region of Denmark; 1608; Denmark,hotel,cameraforensics
https://live.staticflickr.com/3852/19000951246_f777ddae96_o.jpg,55.67919798752778,12.575911808669439,,,,,,Denmark,34; Valkendorfsgade; Christianshavn; Copenhagen; Copenhagen Municipality; Capital Region of Denmark; 1151; Denmark,hotel,cameraforensics
https://live.staticflickr.com/8506/8496942639_13e0c01671_o.jpg,55.69083333333333,12.54733333333333,,,,,,Denmark,En engel i blandt os; Poppelalléen; Nørrebro; Copenhagen; Copenhagen Municipality; Capital Region of Denmark; 1960; Denmark,hotel,cameraforensics
https://live.staticflickr.com/3867/14517670813_2c3aca82a5_o.jpg,55.68315833333333,12.55869166666667,,,,,,Denmark,56; Peblinge Dossering; Nørrebro; Copenhagen; Copenhagen Municipality; Capital Region of Denmark; 2200; Denmark,hotel,cameraforensics
https://live.staticflickr.com/5326/31029663262_71ebef8e7d_o.jpg,55.6870111111111,12.56204166666667,,,,,,Denmark,4; Peblinge Dossering; Nørrebro; Copenhagen; Copenhagen Municipality; Capital Region of Denmark; 2200; Denmark,hotel,cameraforensics
https://live.staticflickr.com/8447/29051381960_a119edb361_o.jpg,55.67928055555557,12.54683333333333,,,,,,Denmark,4B; Harsdorffsvej; Frederiksberg; Frederiksberg Municipality; Capital Region of Denmark; 1874; Denmark,hotel,cameraforensics
https://live.staticflickr.com/754/22962954764_25113b34f1_o.jpg,55.684975,12.55198333333333,,,,,,Denmark,31; Åboulevard; Frederiksberg; Frederiksberg Municipality; Capital Region of Denmark; 1960; Denmark,hotel,cameraforensics
https://live.staticflickr.com/6006/5997809670_e364e590fb_o.jpg,55.678999999999995,12.55083333333333,,,,,,Denmark,48D; Sankt Knuds Vej; Frederiksberg; Frederiksberg Municipality; Capital Region of Denmark; 1903; Denmark,hotel,cameraforensics
https://live.staticflickr.com/8110/8548439632_9387c1c494_o.jpg,55.6875,12.5465,,,,,,Denmark,11; Jesper Brochmands Gade; Nørrebro; Copenhagen; Copenhagen Municipality; Capital Region of Denmark; 2200; Denmark,hotel,cameraforensics
https://live.staticflickr.com/8155/7296855356_c67d782006_o.jpg,55.67983333333333,12.5485,,,,,,Denmark,34; H.C. Ørsteds Vej; Frederiksberg; Frederiksberg Municipality; Capital Region of Denmark; 1879; Denmark,hotel,cameraforensics
https://live.staticflickr.com/8236/8540504814_a9dbf47ec0_o.jpg,55.68116666666667,12.5525,,,,,,Denmark,Forum Copenhagen; Julius Thomsens Plads; Frederiksberg; Frederiksberg Municipality; Capital Region of Denmark; 1925; Denmark,hotel,cameraforensics
https://56.media.tumblr.com/4979d1c3067792e27431eb166209547c/tumblr_oq9z8icZya1v5r922o1_1280.jpg,55.69195555555557,12.55570833333333,,,,,,Denmark,29F; Guldbergsgade; Nørrebro; Copenhagen; Copenhagen Municipality; Capital Region of Denmark; 2200; Denmark,hotel,cameraforensics
https://live.staticflickr.com/278/20285075988_320a0d4efc_o.jpg,57.44103611111111,10.53840555555556,,,,,,Denmark,5; Kirkepladsen; Frederikshavn; Frederikshavn Municipality; North Denmark Region; 9900; Denmark,hotel,cameraforensics
https://live.staticflickr.com/5229/5677257132_8ba8521288_o.jpg,57.43695254999444,10.544090869938891,,,,,,Denmark,Andelskaj; Frederikshavn; Frederikshavn Municipality; North Denmark Region; 9900; Denmark,hotel,cameraforensics
https://live.staticflickr.com/7321/16393050620_d55e33c142_o.jpg,57.441547222222226,10.53479166666667,,,,,,Denmark,Frederikshavn Bibliotek; Parallelvej; Frederikshavn; Frederikshavn Municipality; North Denmark Region; 9900; Denmark,hotel,cameraforensics
https://live.staticflickr.com/8166/6959251210_1e3d205839_o.jpg,57.4395,10.54183333333333,,,,,,Denmark,Havnepladsen; Frederikshavn; Frederikshavn Municipality; North Denmark Region; 9900; Denmark,hotel,cameraforensics
https://live.staticflickr.com/2837/10476532744_43f7e753f3_o.jpg,57.43683333333333,10.53083333333333,,,,,,Denmark,Sæbybanestien; Frederikshavn; Frederikshavn Municipality; North Denmark Region; 9900; Denmark,hotel,cameraforensics
https://live.staticflickr.com/4090/5064987888_a6cbc51f5b_o.jpg,57.44091750000001,10.52870666666667,,,,,,Denmark,FKC GENBRUG; Ternevej; Frederikshavn; Frederikshavn Municipality; North Denmark Region; 9900; Denmark,hotel,cameraforensics
https://q-cf.bstatic.com/images/hotel/max1280x900/904/90496374.jpg,57.4399308,10.5354891,,,,,,Denmark,3B; Tordenskjoldsgade; Frederikshavn; Frederikshavn Municipality; North Denmark Region; 9900; Denmark,hotel,cameraforensics
https://live.staticflickr.com/1660/24700898851_c7a8e003d8_o.jpg,57.43421944444444,10.537622222222222,,,,,,Denmark,Færgehavnsvej; Frederikshavn; Frederikshavn Municipality; North Denmark Region; 9900; Denmark,hotel,cameraforensics
https://live.staticflickr.com/4047/4646433845_eb6c4508a0_o.jpg,57.43745916666666,10.53402861111111,,,,,,Denmark,40; Midtpunkt; Frederikshavn; Frederikshavn Municipality; North Denmark Region; 9900; Denmark,hotel,cameraforensics
https://live.staticflickr.com/65535/47996152922_242e7d3ec5_o.jpg,57.43488875,10.54575544444444,,,,,,Denmark,Færgeterminal 4; Færgehavnsvej; Frederikshavn; Frederikshavn Municipality; North Denmark Region; 9900; Denmark,hotel,cameraforensics
https://live.staticflickr.com/1483/26119490564_e4465393c2_o.jpg,57.04379666666667,9.90328833333333,,,,,,Denmark,25; Duebrødrevej; Hasseris; Aalborg; Aalborg Municipality; North Denmark Region; 9000; Denmark,hotel,cameraforensics
https://live.staticflickr.com/1515/26659798851_7386221649_o.jpg,57.04379666666667,9.90328833333333,,,,,,Denmark,25; Duebrødrevej; Hasseris; Aalborg; Aalborg Municipality; North Denmark Region; 9000; Denmark,hotel,cameraforensics
https://live.staticflickr.com/4349/36723941526_6f4abd021d_o.jpg,55.735252777777774,9.12946388888889,,,,,,Denmark,Legoland; Båstlundvej; Billund Municipality; Region of Southern Denmark; 7190; Denmark,hotel,cameraforensics
https://live.staticflickr.com/726/21268188578_a093363917_o.jpg,55.73520555555553,9.131536111111107,,,,,,Denmark,Billund Municipality; Region of Southern Denmark; Denmark,hotel,cameraforensics
https://live.staticflickr.com/8253/29035272471_8de2dd18c7_o.jpg,55.73536666666666,9.12687166666667,,,,,,Denmark,Legoland; Båstlundvej; Billund Municipality; Region of Southern Denmark; 7190; Denmark,hotel,cameraforensics
https://live.staticflickr.com/7375/10453768683_636575b018_o.jpg,55.73507222222222,9.12658416666667,,,,,,Denmark,Legoland; Båstlundvej; Billund Municipality; Region of Southern Denmark; 7190; Denmark,hotel,cameraforensics
https://live.staticflickr.com/3894/14460917421_c3185df30c_o.jpg,55.734069999999996,9.12543333333333,,,,,,Denmark,Legoland; Båstlundvej; Billund Municipality; Region of Southern Denmark; 7190; Denmark,hotel,cameraforensics
https://live.staticflickr.com/4441/36001684330_acea8b00f4_o.jpg,55.734722222222224,9.128888888888893,,,,,,Denmark,Miniland; Nordmarksvej; Billund Municipality; Region of Southern Denmark; 7190; Denmark,hotel,cameraforensics
https://live.staticflickr.com/7488/15936410889_8d05476a91_o.jpg,55.73556388888889,9.13161111111111,,,,,,Denmark,Legoland P1; Nordmarksvej; Billund Municipality; Region of Southern Denmark; 7190; Denmark,hotel,cameraforensics
https://live.staticflickr.com/5057/5583371944_34e090f0dd_o.jpg,55.735999722222225,9.12882666666667,,,,,,Denmark,Miniland; Nordmarksvej; Billund Municipality; Region of Southern Denmark; 7190; Denmark,hotel,cameraforensics
https://live.staticflickr.com/5063/5582711411_55189a3001_o.jpg,55.73457,9.12834833333333,,,,,,Denmark,Miniland; Nordmarksvej; Billund Municipality; Region of Southern Denmark; 7190; Denmark,hotel,cameraforensics
https://live.staticflickr.com/8278/8769007223_289a1617eb_o.jpg,55.73468888888889,9.128061111111107,,,,,,Denmark,Legoland; Båstlundvej; Billund Municipality; Region of Southern Denmark; 7190; Denmark,hotel,cameraforensics
https://live.staticflickr.com/2932/14121036727_bf41622f07_o.jpg,55.744952777777776,9.147825,,,,,,Denmark,Apron North; Cirrusvej; Billund Municipality; Region of Southern Denmark; 7190; Denmark,hotel,cameraforensics
https://live.staticflickr.com/7343/8759555098_1b6c8e8a88_o.jpg,55.74633333333333,9.14816666666667,,,,,,Denmark,Billund Lufthavn; Passagerterminalen; Billund Municipality; Region of Southern Denmark; 7190; Denmark,hotel,cameraforensics
https://live.staticflickr.com/7852/32150657717_1f609e5c69_o.jpg,55.74635833333333,9.148244444444439,,,,,,Denmark,Billund Lufthavn; Passagerterminalen; Billund Municipality; Region of Southern Denmark; 7190; Denmark,hotel,cameraforensics
https://q-cf.bstatic.com/images/hotel/max1280x900/219/219766571.jpg,55.74596261,9.14204895,,,,,,Denmark,11; Cirrusvej; Billund Municipality; Region of Southern Denmark; 7190; Denmark,hotel,cameraforensics
https://live.staticflickr.com/4231/35044450843_902721f438_o.jpg,55.74477805555557,9.141261388888893,,,,,,Denmark,7; Cirrusvej; Billund Municipality; Region of Southern Denmark; 7190; Denmark,hotel,cameraforensics
https://live.staticflickr.com/5487/12369766103_800e41b7fa_o.jpg,55.745082,9.148008,,,,,,Denmark,Apron North; Cirrusvej; Billund Municipality; Region of Southern Denmark; 7190; Denmark,hotel,cameraforensics
https://live.staticflickr.com/970/27953920228_00c0c6d2ec_o.jpg,55.74557938888889,9.14786277777778,,,,,,Denmark,Apron North; Cirrusvej; Billund Municipality; Region of Southern Denmark; 7190; Denmark,hotel,cameraforensics
https://live.staticflickr.com/4601/25404266038_98a872d52b_o.jpg,55.74633333333333,9.142475,,,,,,Denmark,Zleep Hotel Billund Airport; Passagerterminalen; Billund Municipality; Region of Southern Denmark; 7190; Denmark,hotel,cameraforensics
https://live.staticflickr.com/5546/12369608455_95b8a8a728_o.jpg,55.745082,9.148008,,,,,,Denmark,Apron North; Cirrusvej; Billund Municipality; Region of Southern Denmark; 7190; Denmark,hotel,cameraforensics
https://live.staticflickr.com/8648/16439629107_7bd8f9bc8b_o.jpg,55.74633055555553,9.148169444444449,,,,,,Denmark,Billund Lufthavn; Passagerterminalen; Billund Municipality; Region of Southern Denmark; 7190; Denmark,hotel,cameraforensics
https://live.staticflickr.com/7310/11930240503_395b4004ba_o.jpg,57.0441,9.928755555555561,,,,,,Denmark,14; Thomas Boss Gade; Eternitten; Aalborg; Aalborg Municipality; North Denmark Region; 9000; Denmark,hotel,cameraforensics
https://live.staticflickr.com/4276/34957351166_0a42f07439_o.jpg,57.04877777777778,9.91241388888889,,,,,,Denmark,Aalborg Universitetshospital Nord; Reberbansgade; Aalborg; Aalborg Municipality; North Denmark Region; 9000; Denmark,hotel,cameraforensics
https://live.staticflickr.com/554/19264331642_560e8599b8_o.jpg,57.04536388888889,9.928261111111107,,,,,,Denmark,94; Danmarksgade; Eternitten; Aalborg; Aalborg Municipality; North Denmark Region; 9000; Denmark,hotel,cameraforensics
https://live.staticflickr.com/2934/14054124776_02233814aa_o.jpg,55.68016666666666,12.5895,,,,,,Denmark,Nyhavn; Havnegade; Christianshavn; Copenhagen; Copenhagen Municipality; Capital Region of Denmark; 1251; Denmark,hotel,cameraforensics
https://live.staticflickr.com/7651/29144796991_b002edef79_o.jpg,55.679644444444435,12.59120833333333,,,,,,Denmark,Nyhavn; Havnegade; Christianshavn; Copenhagen; Copenhagen Municipality; Capital Region of Denmark; 1251; Denmark,hotel,cameraforensics
https://live.staticflickr.com/8587/28141023154_63c52cdb42_o.jpg,55.68455833333334,12.59054933333333,,,,,,Denmark,Bernstorffs Palæ; Bredgade; Frederiksstaden; Copenhagen; Copenhagen Municipality; Capital Region of Denmark; 1260; Denmark,hotel,cameraforensics
https://live.staticflickr.com/8524/8595980326_4dde44e353_o.jpg,55.68316666666666,12.60466666666667,,,,,,Denmark,The Royal Danish Academy of Fine Arts Schools of Architecture; Design and Conservation; Danneskiold-Samsøes Allé; Margretheholm; Frederiksstaden; Copenhagen; Copenhagen Municipality; Capital Region of Denmark; 1435; Denmark,hotel,cameraforensics
https://live.staticflickr.com/2825/32741155180_b113becaaa_o.jpg,55.683575,12.59491944444444,,,,,,Denmark,45B; Toldbodgade; Frederiksstaden; Copenhagen; Copenhagen Municipality; Capital Region of Denmark; 1253; Denmark,hotel,cameraforensics
https://live.staticflickr.com/4391/36474268891_6639214e40_o.jpg,55.67958333333333,12.59748333333333,,,,,,Denmark,46; Trangravsvej; Frederiksstaden; Copenhagen; Copenhagen Municipality; Capital Region of Denmark; 1436; Denmark,hotel,cameraforensics
https://live.staticflickr.com/428/19595772718_f961d0b899_o.jpg,55.68409444444447,12.59368611111111,,,,,,Denmark,Amalienborg; Amalienborg Slotsplads; Nyboder; Frederiksstaden; Copenhagen; Copenhagen Municipality; Capital Region of Denmark; 1257; Denmark,hotel,cameraforensics
https://live.staticflickr.com/2088/32806731046_b496326983_o.jpg,55.68108611111111,12.585497222222221,,,,,,Denmark,Kongens Nytorv; Frederiksstaden; Copenhagen; Copenhagen Municipality; Capital Region of Denmark; 1050; Denmark,hotel,cameraforensics
https://live.staticflickr.com/8516/29722978445_783f416f2b_o.jpg,55.680277777777775,12.598055555555561,,,,,,Denmark,46; Trangravsvej; Frederiksstaden; Copenhagen; Copenhagen Municipality; Capital Region of Denmark; 1436; Denmark,hotel,cameraforensics
https://live.staticflickr.com/3942/15518302716_1635598ff5_o.jpg,55.680168,12.589824,,,,,,Denmark,Nyhavn; Havnegade; Christianshavn; Copenhagen; Copenhagen Municipality; Capital Region of Denmark; 1251; Denmark,hotel,cameraforensics
https://66.media.tumblr.com/ca1cdd480349d31431a88082bfc9767d/tumblr_o92paq0KUu1usqbyko1_1280.jpg,55.647780000000004,12.54683,,,,,,Denmark,6; Richard Boones Vej; Sluseholmen; Copenhagen; Copenhagen Municipality; Capital Region of Denmark; 2450; Denmark,hotel,cameraforensics
https://live.staticflickr.com/657/22640923135_08f1930595_o.jpg,55.65045833333333,12.547211111111107,,,,,,Denmark,Sømærk; Peter Holms Vej; Teglholmen; Copenhagen; Copenhagen Municipality; Capital Region of Denmark; 2450; Denmark,hotel,cameraforensics
https://live.staticflickr.com/3948/33471381385_20ed018e0a_o.jpg,55.65039166666666,12.546855555555561,,,,,,Denmark,Sømærk; Peter Holms Vej; Teglholmen; Copenhagen; Copenhagen Municipality; Capital Region of Denmark; 2450; Denmark,hotel,cameraforensics
https://68.media.tumblr.com/ef7f5cae373d38024c024016d70e0ba6/tumblr_ohrtkwxPoj1vxire3o1_1280.jpg,55.64846666666666,12.53206388888889,,,,,,Denmark,13; Schubertsvej; Sluseholmen; Copenhagen; Copenhagen Municipality; Capital Region of Denmark; 2450; Denmark,hotel,cameraforensics
https://r-cf.bstatic.com/images/hotel/max1280x900/154/15443455.jpg,55.6544339,12.54157484,,,,,,Denmark,Scandic Sydhavnen; Vasbygade; Frederiks Brygge; Copenhagen; Copenhagen Municipality; Capital Region of Denmark; 1733; Denmark,hotel,cameraforensics
https://s-media-cache-ak0.pinimg.com/originals/7d/ba/78/7dba7877a9719b3e802daaf12073ecf7.jpg,55.65395833333334,12.54398888888889,,,,,,Denmark,TDC Group Kantine; Teglholmsgade; Teglholmen; Copenhagen; Copenhagen Municipality; Capital Region of Denmark; 2450; Denmark,hotel,cameraforensics
https://live.staticflickr.com/666/31861547784_c81278bfda_o.jpg,55.655815000000004,12.531145,,,,,,Denmark,Søndre Kapel; Bavnehøj Allé; Valby; Copenhagen; Copenhagen Municipality; Capital Region of Denmark; 1799; Denmark,hotel,cameraforensics
https://live.staticflickr.com/8091/8578823428_a24264ebef_o.jpg,55.650166666666664,12.54816666666667,,,,,,Denmark,TV 2; Teglholm Allé; Teglholmen; Copenhagen; Copenhagen Municipality; Capital Region of Denmark; 2450; Denmark,hotel,cameraforensics
https://live.staticflickr.com/5441/9367619656_78f4e1de0e_o.jpg,55.64983333333333,12.5495,,,,,,Denmark,21; Teglholm Tværvej; Teglholmen; Copenhagen; Copenhagen Municipality; Capital Region of Denmark; 2450; Denmark,hotel,cameraforensics
https://live.staticflickr.com/4461/36880437874_609b281c33_o.jpg,55.659052777777774,12.538663888888893,,,,,,Denmark,Bavnehøjhallen; Enghavevej; Frederiks Brygge; Copenhagen; Copenhagen Municipality; Capital Region of Denmark; 1765; Denmark,hotel,cameraforensics
https://i.pinimg.com/originals/7b/45/9e/7b459e980e70fd127cfc0497ab3d02a9.jpg,56.163711111111105,10.20570555555556,,,,,,Denmark,99A; Høegh-Guldbergs Gade; Aarhus; Aarhus Municipality; Central Denmark Region; 8000; Denmark,hotel,cameraforensics
https://live.staticflickr.com/7075/26818898401_86413b02a6_o.jpg,56.16109166666666,10.213480555555561,,,,,,Denmark,3; Rådmand Liisbergs Gade; Nørrestenbro; Aarhus; Aarhus Municipality; Central Denmark Region; 8000; Denmark,hotel,cameraforensics
https://live.staticflickr.com/4536/37821659705_c1b0274a2f_o.jpg,56.15800475,10.218296027777779,,,,,,Denmark,24; Inge Lehmanns Gade; Aarhus; Aarhus Municipality; Central Denmark Region; 8000; Denmark,hotel,cameraforensics
https://live.staticflickr.com/4249/34600213874_465e2e537c_o.jpg,56.15535638888889,10.220359722222222,,,,,,Denmark,18; Balticagade; Aarhus; Aarhus Municipality; Central Denmark Region; 8000; Denmark,hotel,cameraforensics
https://live.staticflickr.com/4306/35202319424_9d34fdedff_o.jpg,55.673947222222225,12.58926666666667,,,,,,Denmark,Ministry of Foreign Affairs of Denmark; Strandgade; Christianshavn; Copenhagen; Copenhagen Municipality; Capital Region of Denmark; 1408; Denmark,hotel,cameraforensics
http://static.panoramio.com/photos/original/100650021.jpg,55.67566166666667,12.58289666666667,,,,,,Denmark,Slotsholmen; Christians Brygge; Christianshavn; Copenhagen; Copenhagen Municipality; Capital Region of Denmark; 1409; Denmark,hotel,cameraforensics
https://live.staticflickr.com/4344/36443301212_cb91532cc3_o.jpg,55.678897222222226,12.57946111111111,,,,,,Denmark,Amagertorv; Østergade; Frederiksstaden; Copenhagen; Copenhagen Municipality; Capital Region of Denmark; 1100; Denmark,hotel,cameraforensics
https://live.staticflickr.com/7275/27102395166_7d5475b857_o.jpg,55.67373333333333,12.593355555555561,,,,,,Denmark,Pigen og blomsten; Overgaden Oven Vandet; Christianshavn; Copenhagen; Copenhagen Municipality; Capital Region of Denmark; 1415; Denmark,hotel,cameraforensics
https://live.staticflickr.com/5728/31029879052_c41350b68b_o.jpg,55.67270277777778,12.595911111111107,,,,,,Denmark,Christianshavns Skole - filialen; Voldboligerne; Christianshavn; Copenhagen; Copenhagen Municipality; Capital Region of Denmark; 1426; Denmark,hotel,cameraforensics
https://q-cf.bstatic.com/images/hotel/max1280x900/135/135210646.jpg,56.15349643,10.03955126,,,,,,Denmark,900; Silkeborgvej; Debbel Huse; Aarhus Municipality; Central Denmark Region; 8220; Denmark,hotel,cameraforensics
https://q-cf.bstatic.com/images/hotel/max1280x900/115/11522791.jpg,56.15349643,10.03955126,,,,,,Denmark,900; Silkeborgvej; Debbel Huse; Aarhus Municipality; Central Denmark Region; 8220; Denmark,hotel,cameraforensics
https://r-cf.bstatic.com/images/hotel/max1280x900/147/14761380.jpg,56.15349643,10.03955126,,,,,,Denmark,900; Silkeborgvej; Debbel Huse; Aarhus Municipality; Central Denmark Region; 8220; Denmark,hotel,cameraforensics
https://r-cf.bstatic.com/images/hotel/max1280x900/110/11057279.jpg,56.15349643,10.03955126,,,,,,Denmark,900; Silkeborgvej; Debbel Huse; Aarhus Municipality; Central Denmark Region; 8220; Denmark,hotel,cameraforensics
https://live.staticflickr.com/4437/36477196051_7a4033cab1_o.jpg,56.15226111111111,10.04105833333333,,,,,,Denmark,889; Silkeborgvej; Debbel Huse; Aarhus Municipality; Central Denmark Region; 8220; Denmark,hotel,cameraforensics
https://live.staticflickr.com/4741/25192491337_90cb64b2ba_o.jpg,56.15710833333333,10.045472222222221,,,,,,Denmark,Herningmotorvejen; Debbel Huse; Aarhus; Aarhus Municipality; Central Denmark Region; 8462; Denmark,hotel,cameraforensics
https://r-cf.bstatic.com/images/hotel/max1280x900/135/135210670.jpg,56.15349643,10.03955126,,,,,,Denmark,900; Silkeborgvej; Debbel Huse; Aarhus Municipality; Central Denmark Region; 8220; Denmark,hotel,cameraforensics
https://r-cf.bstatic.com/images/hotel/max1280x900/115/11522743.jpg,56.15349643,10.03955126,,,,,,Denmark,900; Silkeborgvej; Debbel Huse; Aarhus Municipality; Central Denmark Region; 8220; Denmark,hotel,cameraforensics
https://live.staticflickr.com/7884/33230398198_995b2d1ebc_o.jpg,56.15455,10.03634166666667,,,,,,Denmark,Herningmotorvejen; Debbel Huse; Aarhus; Aarhus Municipality; Central Denmark Region; 8462; Denmark,hotel,cameraforensics
https://live.staticflickr.com/4768/40031990412_11546cf291_o.jpg,56.15831388888889,10.045555555555561,,,,,,Denmark,Østjyske Motorvej; Aarhus; Aarhus Municipality; Central Denmark Region; Denmark,hotel,cameraforensics
https://s-media-cache-ak0.pinimg.com/originals/84/3e/2b/843e2bf1705e87068d2cab8957843021.jpg,55.3965,10.38494166666667,,,,,,Denmark,15B; Store Gråbrødrestræde; Hunderup; Odense; Odense Kommune; Region of Southern Denmark; 5000; Denmark,hotel,cameraforensics
https://live.staticflickr.com/2926/33424906673_60521e8b5e_o.jpg,55.39513333333333,10.38411388888889,,,,,,Denmark,55; Vestergade; Hunderup; Odense; Odense Kommune; Region of Southern Denmark; 5000; Denmark,hotel,cameraforensics
https://live.staticflickr.com/8796/18265298555_270c046747_o.jpg,55.40289722222222,10.38380833333333,,,,,,Denmark,8; Kottesgade; Skibhuskvarteret; Odense; Odense Kommune; Region of Southern Denmark; 5000; Denmark,hotel,cameraforensics
https://66.media.tumblr.com/c2459990b25abf95dea4bdb6fc20e8fc/tumblr_oemh9kdFfX1v1ypmvo1_1280.jpg,55.39591,10.383506666666667,,,,,,Denmark,39; Vintapperstræde; Hunderup; Odense; Odense Kommune; Region of Southern Denmark; 5000; Denmark,hotel,cameraforensics
https://live.staticflickr.com/1703/26661023931_2c21b881e6_o.jpg,55.402277777777776,10.382727777777779,,,,,,Denmark,Byens Bro; Odense; Odense Kommune; Region of Southern Denmark; 5000; Denmark,hotel,cameraforensics
https://68.media.tumblr.com/fb241cffa5616c0322f05b4b7008d8bb/tumblr_ojc8ty5yvY1r5x4ldo1_1280.jpg,55.397166666666664,10.39356388888889,,,,,,Denmark,28; Nedergade; Odense; Odense Kommune; Region of Southern Denmark; 5000; Denmark,hotel,cameraforensics
https://live.staticflickr.com/1547/26120762164_6f330d6ac7_o.jpg,55.40150555555557,10.38266944444444,,,,,,Denmark,Byens Bro; Odense; Odense Kommune; Region of Southern Denmark; 5000; Denmark,hotel,cameraforensics
https://live.staticflickr.com/5451/31394815245_506e176f3b_o.jpg,55.39583333333334,10.39,,,,,,Denmark,2B; Albani Torv; Hunderup; Odense; Odense Kommune; Region of Southern Denmark; 5000; Denmark,hotel,cameraforensics
https://drscdn.500px.org/photo/215390423/m%3D2048_k%3D1_a%3D1/20e921f9b7f93d3ae5e389c6077dd652,55.40132777777778,10.38267222222222,,,,,,Denmark,Byens Bro; Odense; Odense Kommune; Region of Southern Denmark; 5000; Denmark,hotel,cameraforensics
https://live.staticflickr.com/7579/15800464617_1346c4167d_o.jpg,55.70045555555557,12.587080555555561,,,,,,Denmark,28; Fiskedamsgade; Indre Østerbro; Østerbro; Copenhagen; Copenhagen Municipality; Capital Region of Denmark; 2100; Denmark,hotel,cameraforensics
https://live.staticflickr.com/3729/9708361741_cbaa347a7f_o.jpg,55.69262472222222,12.58765138888889,,,,,,Denmark,6; Oslo Plads; Nyboder; Frederiksstaden; Copenhagen; Copenhagen Municipality; Capital Region of Denmark; 2100; Denmark,hotel,cameraforensics
https://live.staticflickr.com/4440/36002115294_6d049c925c_o.jpg,55.69283666666666,12.59913,,,,,,Denmark,The Little Mermaid; Langelinie; Frederiksstaden; Copenhagen; Copenhagen Municipality; Capital Region of Denmark; 1259; Denmark,hotel,cameraforensics
https://live.staticflickr.com/3860/14874368703_ac3e418c2a_o.jpg,55.69275,12.59881,,,,,,Denmark,Langelinie; Nyboder; Frederiksstaden; Copenhagen; Copenhagen Municipality; Capital Region of Denmark; 1259; Denmark,hotel,cameraforensics
https://live.staticflickr.com/581/33132708645_c1b41c0a75_o.jpg,55.69562222222223,12.60297222222222,,,,,,Denmark,Isbjørn med unger; Langeliniekaj; Frederiksstaden; Copenhagen; Copenhagen Municipality; Capital Region of Denmark; 1259; Denmark,hotel,cameraforensics
https://live.staticflickr.com/677/32685141565_bc2d181b25_o.jpg,55.69148333333333,12.59000555555556,,,,,,Denmark,Mindesmærke for frivillige og faldne; Folke Bernadottes Allé; Nyboder; Frederiksstaden; Copenhagen; Copenhagen Municipality; Capital Region of Denmark; 1328; Denmark,hotel,cameraforensics
https://live.staticflickr.com/5592/30652196362_e9b3a1ec04_o.jpg,55.69378333333334,12.60203888888889,,,,,,Denmark,Langelinie Lystbådehavn; Langelinievej; Nyboder; Frederiksstaden; Copenhagen; Copenhagen Municipality; Capital Region of Denmark; 1259; Denmark,hotel,cameraforensics
http://static.panoramio.com/photos/original/16771126.jpg,55.699293999999995,12.599412,,,,,,Denmark,Den genmodificerede Havfrue; Pakhuskaj; Marmormolen; Frederiksstaden; Copenhagen; Copenhagen Municipality; Capital Region of Denmark; 1259; Denmark,hotel,cameraforensics
https://live.staticflickr.com/7797/18161164606_7f01207223_o.jpg,55.69379166666667,12.59694166666667,,,,,,Denmark,The Maritime Memorial; Langelinievej; Nyboder; Frederiksstaden; Copenhagen; Copenhagen Municipality; Capital Region of Denmark; 1259; Denmark,hotel,cameraforensics
https://live.staticflickr.com/1755/40585513750_45a5596bce_o.jpg,55.69288611111111,12.59915833333333,,,,,,Denmark,The Little Mermaid; Langelinie; Frederiksstaden; Copenhagen; Copenhagen Municipality; Capital Region of Denmark; 1259; Denmark,hotel,cameraforensics
https://live.staticflickr.com/7703/16685861443_0744e266a0_o.jpg,55.68934333333333,12.59241166666667,,,,,,Denmark,Kastellet; Folke Bernadottes Allé; Nyboder; Frederiksstaden; Copenhagen; Copenhagen Municipality; Capital Region of Denmark; 1328; Denmark,hotel,cameraforensics
https://live.staticflickr.com/5459/18697868809_a8ca675f66_o.jpg,55.68876388888889,12.583938888888893,,,,,,Denmark,30; Rigensgade; Frederiksstaden; Copenhagen; Copenhagen Municipality; Capital Region of Denmark; 1316; Denmark,hotel,cameraforensics
https://live.staticflickr.com/7736/17227394358_9474dc9bfa_o.jpg,55.68573055555557,12.577555555555561,,,,,,Denmark,Rosenborg Castle; Øster Voldgade; Nyboder; Frederiksstaden; Copenhagen; Copenhagen Municipality; Capital Region of Denmark; 1307; Denmark,hotel,cameraforensics
https://live.staticflickr.com/8698/28043922660_cec41d14da_o.jpg,55.329195,8.76367833333333,,,,,,Denmark,Kolvig; Mellemdammen; Ribe; Esbjerg Municipality; Region of Southern Denmark; 6760; Denmark,hotel,cameraforensics
https://live.staticflickr.com/5745/21846406020_cffee2064d_o.jpg,55.327820277777775,8.76284527777778,,,,,,Denmark,2; Von Støckens Plads; Ribe; Esbjerg Municipality; Region of Southern Denmark; 6760; Denmark,hotel,cameraforensics
https://live.staticflickr.com/5599/15248500407_7656ef2d4a_o.jpg,55.32805083333334,8.76218555555556,,,,,,Denmark,Ribe Cathedral; Torvet; Ribe; Esbjerg Municipality; Region of Southern Denmark; 6760; Denmark,hotel,cameraforensics
https://live.staticflickr.com/614/21606297408_3cb6280d1c_o.jpg,55.33383166666667,8.76228333333333,,,,,,Denmark,Ringvejen; Esbjerg Municipality; Region of Southern Denmark; 6760; Denmark,hotel,cameraforensics
https://live.staticflickr.com/3354/3638366973_55ba27d6ba_o.jpg,55.33,8.764444444444441,,,,,,Denmark,Odd Fellow Logen Riberhus; Sanct Peders Gade; Ribe; Esbjerg Municipality; Region of Southern Denmark; 6760; Denmark,hotel,cameraforensics
https://drscdn.500px.org/photo/261282655/m%3D2048_k%3D1_a%3D1/v2?client_application_id=36673&webp=true&sig=6f292dce447e7bae030882f8f4fac6b0e9b708d11d696f549870f145c2975d01,55.33021436456666,8.762567304075,,,,,,Denmark,Johanne Dan; Skibbroen; Ribe; Esbjerg Municipality; Region of Southern Denmark; 6760; Denmark,hotel,cameraforensics
https://live.staticflickr.com/7086/7289579838_41a513f0c0_o.jpg,55.33,8.7625,,,,,,Denmark,Johanne Dan; Skibbroen; Ribe; Esbjerg Municipality; Region of Southern Denmark; 6760; Denmark,hotel,cameraforensics
https://live.staticflickr.com/7083/7289569168_1afc8a0c46_o.jpg,55.33083333333333,8.76183333333333,,,,,,Denmark,Stormflodssøjle; Skibbroen; Ribe; Esbjerg Municipality; Region of Southern Denmark; 6760; Denmark,hotel,cameraforensics
https://q-cf.bstatic.com/images/hotel/max1280x900/133/13356039.jpg,55.33101042,8.76335084,,,,,,Denmark,Danhostel Ribe; Sanct Peders Gade; Ribe; Esbjerg Municipality; Region of Southern Denmark; 6760; Denmark,hotel,cameraforensics
https://r-cf.bstatic.com/images/hotel/max1280x900/103/10358303.jpg,55.32850509,8.7623021,,,,,,Denmark,Weis Stue; Torvet; Ribe; Esbjerg Municipality; Region of Southern Denmark; 6760; Denmark,hotel,cameraforensics
https://live.staticflickr.com/7683/17368890272_4e9c4f1591_o.jpg,55.64838333333334,12.46496388888889,,,,,,Denmark,Hvidovre Hospital; Kettegård Alle; Hvidovre; Hvidovre Municipality; Capital Region of Denmark; 2650; Denmark,hotel,cameraforensics
https://live.staticflickr.com/2903/13942486228_c366737e3c_o.jpg,55.64529166666667,12.46210277777778,,,,,,Denmark,Hvidovre Hospitals Kollegium; Kettegård Alle; Hvidovre; Hvidovre Municipality; Capital Region of Denmark; 2650; Denmark,hotel,cameraforensics
https://live.staticflickr.com/2766/4205333887_fd510864d4_o.jpg,55.650166666666664,12.4585,,,,,,Denmark,Avedøre Havnevej; Brøndbyøster; Brøndby Municipality; Copenhagen; Capital Region of Denmark; 2650; Denmark,hotel,cameraforensics
https://live.staticflickr.com/5213/5536295979_03f6acefe2_o.jpg,55.6485,12.4595,,,,,,Denmark,Avedøre Havnevej; Hvidovre; Hvidovre Municipality; Capital Region of Denmark; 2650; Denmark,hotel,cameraforensics
https://live.staticflickr.com/5263/5764693219_4aa54670c3_o.jpg,55.645,12.46166666666667,,,,,,Denmark,Avedøre Havnevej; Hvidovre; Hvidovre Municipality; Capital Region of Denmark; 2650; Denmark,hotel,cameraforensics
https://live.staticflickr.com/3757/10097238864_948324b411_o.jpg,55.64916666666667,12.46883333333333,,,,,,Denmark,Hvidovre Hospital; Kettegård Alle; Hvidovre; Hvidovre Municipality; Capital Region of Denmark; 2650; Denmark,hotel,cameraforensics
https://live.staticflickr.com/2492/3704016522_66745052c3_o.jpg,55.64816666666667,12.4625,,,,,,Denmark,Hvidovre Hospital; Arnold Nielsens Boulevard; Hvidovre; Hvidovre Municipality; Capital Region of Denmark; 2650; Denmark,hotel,cameraforensics
https://live.staticflickr.com/3487/3704015324_3421d967ab_o.jpg,55.64816666666667,12.4625,,,,,,Denmark,Hvidovre Hospital; Arnold Nielsens Boulevard; Hvidovre; Hvidovre Municipality; Capital Region of Denmark; 2650; Denmark,hotel,cameraforensics
https://q-cf.bstatic.com/images/hotel/max1280x900/208/208439892.jpg,55.64630233,12.45944023,,,,,,Denmark,Scandic Hvidovre; Avedøre Havnevej; Hvidovre; Hvidovre Municipality; Capital Region of Denmark; 2650; Denmark,hotel,cameraforensics
https://live.staticflickr.com/3715/10361100934_2493a9b35b_o.jpg,55.64916666666667,12.469000000000001,,,,,,Denmark,Hvidovre Hospital; Arnold Nielsens Boulevard; Hvidovre; Hvidovre Municipality; Capital Region of Denmark; 2650; Denmark,hotel,cameraforensics
https://live.staticflickr.com/5469/9714239070_2abc42937d_o.jpg,55.67583333333333,12.56722222222222,,,,,,Denmark,Proud Mary; Vesterbrogade; Vesterbro; Copenhagen; Copenhagen Municipality; Capital Region of Denmark; 1608; Denmark,hotel,cameraforensics
https://live.staticflickr.com/3944/15284080398_e9ab085567_o.jpg,55.67616111111111,12.56852222222222,,,,,,Denmark,Vesterbro; Copenhagen; Copenhagen Municipality; Capital Region of Denmark; 1550; Denmark,hotel,cameraforensics
https://live.staticflickr.com/5607/15380457408_0e99ff5b85_o.jpg,55.736697222222226,9.12553333333333,,,,,,Denmark,Knights' Kingdom; Nordmarksvej; Billund Municipality; Region of Southern Denmark; 7190; Denmark,hotel,cameraforensics
https://r-cf.bstatic.com/images/hotel/max1280x900/669/66975661.jpg,57.72181567,10.56820393,,,,,,Denmark,2; Rolighedsvej; Vesterby; Skagen; Frederikshavn Municipality; North Denmark Region; 9990; Denmark,hotel,cameraforensics
https://live.staticflickr.com/5613/15479388027_a3f9afbd05_o.jpg,57.723372222222224,10.55665833333333,,,,,,Denmark,Color Hotel Skagen A/S; Grårisvej; Vesterby; Skagen; Frederikshavn Municipality; North Denmark Region; 9990; Denmark,hotel,cameraforensics
https://66.media.tumblr.com/9396c8ba480ea85f00a46e27863fbdab/tumblr_o97nnu3OQi1vwutqco1_1280.jpg,57.72635699999999,10.563392,,,,,,Denmark,Rema 1000; Kattegatvej; Vesterby; Skagen; Frederikshavn Municipality; North Denmark Region; 9990; Denmark,hotel,cameraforensics
https://r-cf.bstatic.com/images/hotel/max1280x900/191/191468265.jpg,57.72941170000001,10.5605031,,,,,,Denmark,33; Koralbanke; Vesterby; Skagen; Frederikshavn Municipality; North Denmark Region; 9990; Denmark,hotel,cameraforensics
https://q-cf.bstatic.com/images/hotel/max1280x900/115/115160537.jpg,57.72331248,10.55702046,,,,,,Denmark,Color Hotel Skagen A/S; Grårisvej; Vesterby; Skagen; Frederikshavn Municipality; North Denmark Region; 9990; Denmark,hotel,cameraforensics
https://r-cf.bstatic.com/images/hotel/max1280x900/115/115158925.jpg,57.72331248,10.55702046,,,,,,Denmark,Color Hotel Skagen A/S; Grårisvej; Vesterby; Skagen; Frederikshavn Municipality; North Denmark Region; 9990; Denmark,hotel,cameraforensics
https://q-cf.bstatic.com/images/hotel/max1280x900/182/182714413.jpg,57.72941170000001,10.5605031,,,,,,Denmark,33; Koralbanke; Vesterby; Skagen; Frederikshavn Municipality; North Denmark Region; 9990; Denmark,hotel,cameraforensics
https://r-cf.bstatic.com/images/hotel/max1280x900/217/217733835.jpg,57.724563,10.56545158,,,,,,Denmark,51; Hedevej; Vesterby; Skagen; Frederikshavn Municipality; North Denmark Region; 9990; Denmark,hotel,cameraforensics
https://r-cf.bstatic.com/images/hotel/max1280x900/162/162915257.jpg,57.7305,10.5549,,,,,,Denmark,97D; Lingbanke; Skagen; Frederikshavn Municipality; North Denmark Region; 9990; Denmark,hotel,cameraforensics
https://r-cf.bstatic.com/images/hotel/max1280x900/197/197461128.jpg,57.72874229999999,10.5620657,,,,,,Denmark,30; Fænøvej; Vesterby; Skagen; Frederikshavn Municipality; North Denmark Region; 9990; Denmark,hotel,cameraforensics
https://live.staticflickr.com/8501/28444124854_7f0d1cfaee_o.jpg,55.86006500000001,9.85507,,,,,,Denmark,Høegh Guldbergs Gade; Horsens; Horsens Municipality; 8700; Denmark,hotel,cameraforensics
https://live.staticflickr.com/584/32236918990_c56cafd74a_o.jpg,55.85830138888889,9.83981972222222,,,,,,Denmark,Sønderbro Kirke; Bygholm Parkvej; Horsens; Horsens Municipality; 8700; Denmark,hotel,cameraforensics
http://static.panoramio.com/photos/original/126748488.jpg,55.86192,9.846658,,,,,,Denmark,Kuben; Søndergade; Horsens; Horsens Municipality; 8700; Denmark,hotel,cameraforensics
https://live.staticflickr.com/7194/6776618388_b4fcbb766b_o.jpg,55.85666666666667,9.84283333333333,,,,,,Denmark,16; Jyllandsgade; Horsens; Horsens Municipality; 8700; Denmark,hotel,cameraforensics
https://live.staticflickr.com/1757/42813303341_647eb5a16b_o.jpg,55.861944444444454,9.8475,,,,,,Denmark,17; Søndergade; Horsens; Horsens Municipality; 8700; Denmark,hotel,cameraforensics
https://live.staticflickr.com/971/27348749747_5ab3b9df1b_o.jpg,55.86281333333334,9.847348333333333,,,,,,Denmark,Kulisselageret; Teatertorvet; Horsens; Horsens Municipality; Central Denmark Region; 8700; Denmark,hotel,cameraforensics
https://live.staticflickr.com/7032/6843065353_5aef140e64_o.jpg,55.85683333333333,9.843,,,,,,Denmark,16; Jyllandsgade; Horsens; Horsens Municipality; 8700; Denmark,hotel,cameraforensics
https://live.staticflickr.com/7856/40456535513_79d0153f43_o.jpg,55.85942305555553,9.84987305555556,,,,,,Denmark,Ribersgade; Horsens; Horsens Municipality; Central Denmark Region; 8700; Denmark,hotel,cameraforensics
http://static.panoramio.com/photos/original/81248552.jpg,55.86205166666667,9.84750666666667,,,,,,Denmark,17; Søndergade; Horsens; Horsens Municipality; 8700; Denmark,hotel,cameraforensics
https://live.staticflickr.com/5595/30346231150_9cbe23a904_o.jpg,55.85807305555557,9.846178055555551,,,,,,Denmark,1; Buchwalds Bro; Horsens; Horsens Municipality; 8700; Denmark,hotel,cameraforensics
https://live.staticflickr.com/757/22651553319_7d437e11bd_o.jpg,55.67583333333333,12.54916666666667,,,,,,Denmark,9A; Forhåbningsholms Alle; Frederiksberg; Frederiksberg Municipality; Capital Region of Denmark; 1904; Denmark,hotel,cameraforensics
https://live.staticflickr.com/600/22626911698_fe01ab72d9_o.jpg,55.676111111111105,12.54972222222222,,,,,,Denmark,17D; Forhåbningsholms Alle; Frederiksberg; Frederiksberg Municipality; Capital Region of Denmark; 1904; Denmark,hotel,cameraforensics
https://live.staticflickr.com/4335/36815620952_f10c9f70e8_o.jpg,55.48786166666667,9.47385666666667,,,,,,Denmark,Føtex P-hus; Brostræde; Søndervang; Kolding; Kolding Municipality; Region of Southern Denmark; 6000; Denmark,hotel,cameraforensics
https://live.staticflickr.com/4220/34809472486_8bcb7d8023_o.jpg,55.4897013888889,9.481848055555561,,,,,,Denmark,Havnen II; Toldbodgade; Søndervang; Kolding; Kolding Municipality; Region of Southern Denmark; 6000; Denmark,hotel,cameraforensics
https://live.staticflickr.com/7840/46553977994_12f68a281b_o.jpg,55.491252777777774,9.470852777777779,,,,,,Denmark,2B; Skolegade; Søndervang; Kolding; Kolding Municipality; Region of Southern Denmark; 6000; Denmark,hotel,cameraforensics
https://live.staticflickr.com/1964/30139427397_06d11c8c8a_o.jpg,55.49527777777778,9.47916666666667,,,,,,Denmark,Byparken; Grønningen; Kolding; Kolding Municipality; Region of Southern Denmark; 6000; Denmark,hotel,cameraforensics
https://live.staticflickr.com/7382/9028241094_4daeac010f_o.jpg,55.491859416666664,9.47438330555556,,,,,,Denmark,Koldinghus; Søndervang; Kolding; Kolding Municipality; Region of Southern Denmark; 6000; Denmark,hotel,cameraforensics
https://live.staticflickr.com/65535/48006231718_9a2e55d04d_o.jpg,55.49131666666667,9.47111388888889,,,,,,Denmark,3; Skolegade; Søndervang; Kolding; Kolding Municipality; Region of Southern Denmark; 6000; Denmark,hotel,cameraforensics
https://live.staticflickr.com/3557/3605022397_6692ce5e11_o.jpg,55.49481060998333,9.47190464,,,,,,Denmark,Siddende pige; Kærlighedsstien; Kolding; Kolding Municipality; Region of Southern Denmark; 6000; Denmark,hotel,cameraforensics
https://live.staticflickr.com/65535/48006308037_23dedb883e_o.jpg,55.49131666666667,9.47111666666667,,,,,,Denmark,3; Skolegade; Søndervang; Kolding; Kolding Municipality; Region of Southern Denmark; 6000; Denmark,hotel,cameraforensics
https://live.staticflickr.com/65535/48006309252_72f73c1c4c_o.jpg,55.49131666666667,9.47111388888889,,,,,,Denmark,3; Skolegade; Søndervang; Kolding; Kolding Municipality; Region of Southern Denmark; 6000; Denmark,hotel,cameraforensics
https://live.staticflickr.com/5342/7099381367_616892b3ba_o.jpg,55.49100000000001,9.47933333333333,,,,,,Denmark,7; Slotsalle; Søndervang; Kolding; Kolding Municipality; Region of Southern Denmark; 6000; Denmark,hotel,cameraforensics
https://live.staticflickr.com/1499/26453184650_1222dc7c96_o.jpg,57.04379666666667,9.90328833333333,,,,,,Denmark,25; Duebrødrevej; Hasseris; Aalborg; Aalborg Municipality; North Denmark Region; 9000; Denmark,hotel,cameraforensics
https://live.staticflickr.com/1500/26699865706_8c6e8460f5_o.jpg,57.04379666666667,9.90328833333333,,,,,,Denmark,25; Duebrødrevej; Hasseris; Aalborg; Aalborg Municipality; North Denmark Region; 9000; Denmark,hotel,cameraforensics
https://live.staticflickr.com/1654/26453199670_b419af46c7_o.jpg,57.04379666666667,9.90328833333333,,,,,,Denmark,25; Duebrødrevej; Hasseris; Aalborg; Aalborg Municipality; North Denmark Region; 9000; Denmark,hotel,cameraforensics
https://live.staticflickr.com/7751/27226039075_00426610f8_o.jpg,57.047377777777776,9.919052777777779,,,,,,Denmark,4; Budolfi Plads; Eternitten; Aalborg; Aalborg Municipality; North Denmark Region; 9000; Denmark,hotel,cameraforensics
https://live.staticflickr.com/7329/11844534463_a279f75dff_o.jpg,57.04366666666667,9.91833333333333,,,,,,Denmark,Asian Super Mark; Boulevarden; Eternitten; Aalborg; Aalborg Municipality; North Denmark Region; 9000; Denmark,hotel,cameraforensics
https://drscdn.500px.org/photo/229387189/m%3D2048_k%3D1_a%3D1/v2?client_application_id=36673&webp=true&sig=1288f370268e839bf2aefae9f1a0f63b1e22e8941334a085bb2d9d548355b341,57.04369166666667,9.91203888888889,,,,,,Denmark,Europahallen; Europa Plads; Eternitten; Aalborg; Aalborg Municipality; North Denmark Region; Denmark,hotel,cameraforensics
https://live.staticflickr.com/8863/17116461077_371b1281f4_o.jpg,57.04904666666667,9.90743,,,,,,Denmark,1; Dronning Christines Vej; Hasseris; Aalborg; Aalborg Municipality; North Denmark Region; 9000; Denmark,hotel,cameraforensics
https://live.staticflickr.com/7449/27531144076_81a5614d4c_o.jpg,55.67423333333333,12.55662222222222,,,,,,Denmark,Cafe Altanen; Gammel Kongevej; Meatpacking District; Vesterbro; Copenhagen; Copenhagen Municipality; Capital Region of Denmark; 1615; Denmark,hotel,cameraforensics
https://live.staticflickr.com/7745/27133903496_de25eba56f_o.jpg,55.676066666666664,12.56934166666667,,,,,,Denmark,Vesterbro; Copenhagen; Copenhagen Municipality; Capital Region of Denmark; 1550; Denmark,hotel,cameraforensics
https://live.staticflickr.com/2815/33460974614_f62cf6d368_o.jpg,55.66618611111111,12.54743333333333,,,,,,Denmark,32; Flensborggade; Humleby; Frederiks Brygge; Copenhagen; Copenhagen Municipality; Capital Region of Denmark; 1669; Denmark,hotel,cameraforensics
https://s-media-cache-ak0.pinimg.com/originals/99/9c/a5/999ca54dbb2830d5ceb86262f583153b.jpg,55.66816666666666,12.548,,,,,,Denmark,22; Mysundegade; Sorte Hest; Vesterbro; Copenhagen; Copenhagen Municipality; Capital Region of Denmark; 1668; Denmark,hotel,cameraforensics
https://live.staticflickr.com/6186/6063585797_f4d6578752_o.jpg,55.6705,12.539666666666667,,,,,,Denmark,31; Platanvej; Frederiksberg; Frederiksberg Municipality; Capital Region of Denmark; 1810; Denmark,hotel,cameraforensics
https://live.staticflickr.com/7791/26834810384_1128e2ba71_o.jpg,55.67330833333333,12.54655555555556,,,,,,Denmark,3; Frederiksberg Alle; Frederiksberg; Frederiksberg Municipality; Capital Region of Denmark; 1820; Denmark,hotel,cameraforensics
https://live.staticflickr.com/1640/26204678215_3da31f347d_o.jpg,55.666844444444436,12.54709166666667,,,,,,Denmark,Mercato di Osteria 16; Enghave Plads; Sorte Hest; Vesterbro; Copenhagen; Copenhagen Municipality; Capital Region of Denmark; 1670; Denmark,hotel,cameraforensics
https://live.staticflickr.com/7415/27345056432_1e3e38d7fd_o.jpg,55.67403333333333,12.54296666666667,,,,,,Denmark,2; Mynstersvej; Frederiksberg; Frederiksberg Municipality; Capital Region of Denmark; 1827; Denmark,hotel,cameraforensics
https://live.staticflickr.com/8226/8559526662_e93f33651c_o.jpg,55.6825,12.5735,,,,,,Denmark,15; Kultorvet; Christianshavn; Copenhagen; Copenhagen Municipality; Capital Region of Denmark; 1175; Denmark,hotel,cameraforensics
https://live.staticflickr.com/7354/27822216575_1d34a9e25a_o.jpg,55.687377777777776,12.57309166666667,,,,,,Denmark,Botanical Garden; Øster Farimagsgade; Frederiksstaden; Copenhagen; Copenhagen Municipality; Capital Region of Denmark; 1353; Denmark,hotel,cameraforensics
https://live.staticflickr.com/5601/15394985460_184fb593d3_o.jpg,55.67480833333333,12.579725,,,,,,Denmark,Slotsholmen; Christians Brygge; Christianshavn; Copenhagen; Copenhagen Municipality; Capital Region of Denmark; 1409; Denmark,hotel,cameraforensics
http://live.staticflickr.com/7354/9734529746_262ee25e12_o.jpg,55.873847999999995,9.837363,,,,,,Denmark,Hede Nielsens Vej; Horsens; Horsens Municipality; Central Denmark Region; 8700; Denmark,hotel,cameraforensics
https://live.staticflickr.com/2892/34116674921_2e6f85ed56_o.jpg,55.882175,9.84400833333333,,,,,,Denmark,10B; Egebjergvej; Hammersholm; Horsens; Horsens Municipality; Central Denmark Region; 8700; Denmark,hotel,cameraforensics
https://live.staticflickr.com/3825/12394227414_a34d81d67c_o.jpg,55.873564439947216,9.83455311000361,,,,,,Denmark,Vesthallen; Fussingsvej; Horsens; Horsens Municipality; Central Denmark Region; 8700; Denmark,hotel,cameraforensics
https://live.staticflickr.com/7475/27191122243_67df2775a9_o.jpg,55.87646944444445,9.83140555555556,,,,,,Denmark,23A; Viborgvej; Horsens; Horsens Municipality; Central Denmark Region; 8700; Denmark,hotel,cameraforensics
https://live.staticflickr.com/1617/25092431973_603bc0aa9c_o.jpg,55.87872138888889,9.847014999999999,,,,,,Denmark,23; Åvej; Hammersholm; Horsens; Horsens Municipality; Central Denmark Region; 8700; Denmark,hotel,cameraforensics
https://live.staticflickr.com/1564/24644037930_94245bcb70_o.jpg,55.87006138888889,9.83933805555556,,,,,,Denmark,27; Tordenskjoldsgade; Horsens; Horsens Municipality; Central Denmark Region; 8700; Denmark,hotel,cameraforensics
http://static.panoramio.com/photos/original/73352236.jpg,55.879861,9.846182,,,,,,Denmark,Nordre Strandvej; Hammersholm; Horsens; Horsens Municipality; Central Denmark Region; 8700; Denmark,hotel,cameraforensics
https://live.staticflickr.com/432/19024635690_580ccedf77_o.jpg,55.882047222222226,9.84350833333333,,,,,,Denmark,10A; Egebjergvej; Hammersholm; Horsens; Horsens Municipality; Central Denmark Region; 8700; Denmark,hotel,cameraforensics
https://live.staticflickr.com/1848/44412682481_f3f8146cfa_o.jpg,55.87294833333333,9.841326666666667,,,,,,Denmark,9; Hede Nielsens Vej; Horsens; Horsens Municipality; Central Denmark Region; 8700; Denmark,hotel,cameraforensics
https://live.staticflickr.com/3807/10922919916_04e6e4e5de_o.jpg,55.8722,9.844,,,,,,Denmark,60; Nørrebrogade; Horsens; Horsens Municipality; Central Denmark Region; 8700; Denmark,hotel,cameraforensics
https://live.staticflickr.com/2806/33603128342_e6624e2a3c_o.jpg,55.49518611111111,9.48015555555556,,,,,,Denmark,Byparken; Grønningen; Kolding; Kolding Municipality; Region of Southern Denmark; 6000; Denmark,hotel,cameraforensics
https://live.staticflickr.com/7812/46325024815_1d90abc7de_o.jpg,55.50305555555556,9.485,,,,,,Denmark,Kolding Sygehus; Sygehusvej; Kolding; Kolding Municipality; Region of Southern Denmark; 6000; Denmark,hotel,cameraforensics
https://live.staticflickr.com/7011/6512366361_e0e9846911_o.jpg,55.499472222222224,9.494475,,,,,,Denmark,6; Odinsvej; Kolding; Kolding Municipality; Region of Southern Denmark; 6000; Denmark,hotel,cameraforensics
https://live.staticflickr.com/1694/26192577346_6f02124828_o.jpg,55.49664666666666,9.492245,,,,,,Denmark,1; Gammel Kongevej; Kolding; Kolding Municipality; Region of Southern Denmark; 6000; Denmark,hotel,cameraforensics
https://q-cf.bstatic.com/images/hotel/max1280x900/143/143097606.jpg,55.49483188,9.48162496,,,,,,Denmark,Byparken; Grønningen; Kolding; Kolding Municipality; Region of Southern Denmark; 6000; Denmark,hotel,cameraforensics
https://live.staticflickr.com/3952/33759437335_c8ea2fdf11_o.jpg,55.49561388888889,9.47957222222222,,,,,,Denmark,Byparken; Grønningen; Kolding; Kolding Municipality; Region of Southern Denmark; 6000; Denmark,hotel,cameraforensics
https://live.staticflickr.com/5516/11110786206_861b916f79_o.jpg,55.50116666666667,9.487,,,,,,Denmark,Kolding Sygehus; Sygehusvej; Kolding; Kolding Municipality; Region of Southern Denmark; 6000; Denmark,hotel,cameraforensics
https://live.staticflickr.com/4288/34980351841_24ffd08bb4_o.jpg,55.4931913888889,9.47808305555556,,,,,,Denmark,8; Slotssøvejen; Kolding; Kolding Municipality; Region of Southern Denmark; 6000; Denmark,hotel,cameraforensics
https://live.staticflickr.com/5531/11110768714_7f9f7e35f1_o.jpg,55.50133333333333,9.48733333333333,,,,,,Denmark,Kolding Sygehus; Sygehusvej; Kolding; Kolding Municipality; Region of Southern Denmark; 6000; Denmark,hotel,cameraforensics
https://drscdn.500px.org/photo/238400637/m%3D2048_k%3D1_a%3D1/v2?client_application_id=36673&webp=true&sig=83f9291463a1206254a13b2cf1c9cfba91b266ec1a7ae9a02dc844fe33610b67,55.538441666666664,9.60586388888889,,,,,,Denmark,14; Bærhaven; Holme Mark; Taulov; Fredericia Municipality; Region of Southern Denmark; 7000; Denmark,hotel,cameraforensics
https://q-cf.bstatic.com/images/hotel/max1280x900/913/91316538.jpg,55.533523100000004,9.59896892,,,,,,Denmark,160; Kolding Landevej; Oddersted; Taulov; Fredericia Municipality; Region of Southern Denmark; 7000; Denmark,hotel,cameraforensics
https://q-cf.bstatic.com/images/hotel/max1280x900/157/157661887.jpg,55.533523100000004,9.59896892,,,,,,Denmark,160; Kolding Landevej; Oddersted; Taulov; Fredericia Municipality; Region of Southern Denmark; 7000; Denmark,hotel,cameraforensics
https://r-cf.bstatic.com/images/hotel/max1280x900/913/91331342.jpg,55.533523100000004,9.59896892,,,,,,Denmark,160; Kolding Landevej; Oddersted; Taulov; Fredericia Municipality; Region of Southern Denmark; 7000; Denmark,hotel,cameraforensics
https://r-cf.bstatic.com/images/hotel/max1280x900/143/143317128.jpg,55.533523100000004,9.59896892,,,,,,Denmark,160; Kolding Landevej; Oddersted; Taulov; Fredericia Municipality; Region of Southern Denmark; 7000; Denmark,hotel,cameraforensics
https://r-cf.bstatic.com/images/hotel/max1280x900/915/91552907.jpg,55.533523100000004,9.59896892,,,,,,Denmark,160; Kolding Landevej; Oddersted; Taulov; Fredericia Municipality; Region of Southern Denmark; 7000; Denmark,hotel,cameraforensics
https://r-cf.bstatic.com/images/hotel/max1280x900/913/91316480.jpg,55.533523100000004,9.59896892,,,,,,Denmark,160; Kolding Landevej; Oddersted; Taulov; Fredericia Municipality; Region of Southern Denmark; 7000; Denmark,hotel,cameraforensics
https://r-cf.bstatic.com/images/hotel/max1280x900/913/91331371.jpg,55.533523100000004,9.59896892,,,,,,Denmark,160; Kolding Landevej; Oddersted; Taulov; Fredericia Municipality; Region of Southern Denmark; 7000; Denmark,hotel,cameraforensics
https://q-cf.bstatic.com/images/hotel/max1280x900/913/91316581.jpg,55.533523100000004,9.59896892,,,,,,Denmark,160; Kolding Landevej; Oddersted; Taulov; Fredericia Municipality; Region of Southern Denmark; 7000; Denmark,hotel,cameraforensics
https://q-cf.bstatic.com/images/hotel/max1280x900/157/157864353.jpg,55.533523100000004,9.59896892,,,,,,Denmark,160; Kolding Landevej; Oddersted; Taulov; Fredericia Municipality; Region of Southern Denmark; 7000; Denmark,hotel,cameraforensics
https://r-cf.bstatic.com/images/hotel/max1280x900/287/28716909.jpg,55.7527705,8.95797044,,,,,,Denmark,Svanen Grindsted; Hedemarken; Billund Municipality; Region of Southern Denmark; 7200; Denmark,hotel,cameraforensics
https://live.staticflickr.com/8487/8220993901_2f524da69b_o.jpg,55.756,8.949,,,,,,Denmark,32; Dalsøvej; Grindsted; Billund Municipality; Region of Southern Denmark; 7200; Denmark,hotel,cameraforensics
https://live.staticflickr.com/8065/8222071466_0139fcfc57_o.jpg,55.756,8.949,,,,,,Denmark,32; Dalsøvej; Grindsted; Billund Municipality; Region of Southern Denmark; 7200; Denmark,hotel,cameraforensics
https://q-cf.bstatic.com/images/hotel/max1280x900/287/28716921.jpg,55.7527705,8.95797044,,,,,,Denmark,Svanen Grindsted; Hedemarken; Billund Municipality; Region of Southern Denmark; 7200; Denmark,hotel,cameraforensics
https://r-cf.bstatic.com/images/hotel/max1280x900/287/28783086.jpg,55.7527705,8.95797044,,,,,,Denmark,Svanen Grindsted; Hedemarken; Billund Municipality; Region of Southern Denmark; 7200; Denmark,hotel,cameraforensics
https://r-cf.bstatic.com/images/hotel/max1280x900/273/27396842.jpg,55.7527705,8.95797044,,,,,,Denmark,Svanen Grindsted; Hedemarken; Billund Municipality; Region of Southern Denmark; 7200; Denmark,hotel,cameraforensics
https://r-cf.bstatic.com/images/hotel/max1280x900/273/27396888.jpg,55.7527705,8.95797044,,,,,,Denmark,Svanen Grindsted; Hedemarken; Billund Municipality; Region of Southern Denmark; 7200; Denmark,hotel,cameraforensics
https://q-cf.bstatic.com/images/hotel/max1280x900/287/28716899.jpg,55.7527705,8.95797044,,,,,,Denmark,Svanen Grindsted; Hedemarken; Billund Municipality; Region of Southern Denmark; 7200; Denmark,hotel,cameraforensics
https://live.staticflickr.com/8340/8220989327_0b26fec5fe_o.jpg,55.756,8.94916666666667,,,,,,Denmark,32; Dalsøvej; Grindsted; Billund Municipality; Region of Southern Denmark; 7200; Denmark,hotel,cameraforensics
https://live.staticflickr.com/8057/8220991405_3c477d5c3d_o.jpg,55.756,8.949,,,,,,Denmark,32; Dalsøvej; Grindsted; Billund Municipality; Region of Southern Denmark; 7200; Denmark,hotel,cameraforensics
https://live.staticflickr.com/7136/27139817374_0e73c7ac19_o.jpg,55.63126111111111,12.57324444444444,,,,,,Denmark,Cabinn Metro; Arne Jacobsens Allé; Copenhagen; Copenhagen Municipality; Capital Region of Denmark; 2770; Denmark,hotel,cameraforensics
https://live.staticflickr.com/3953/15045865344_eaaf7c4c7c_o.jpg,55.637347222222225,12.578402777777779,,,,,,Denmark,Bella Center; Ørestads Boulevard; Copenhagen; Copenhagen Municipality; Capital Region of Denmark; 2300; Denmark,hotel,cameraforensics
https://live.staticflickr.com/8119/8685158607_47f54971c3_o.jpg,55.6375,12.57833333333333,,,,,,Denmark,Bella Center; Ørestads Boulevard; Copenhagen; Copenhagen Municipality; Capital Region of Denmark; 2300; Denmark,hotel,cameraforensics
https://live.staticflickr.com/5498/11546509824_c43fa11b15_o.jpg,55.636,12.57616666666667,,,,,,Denmark,P-hus 2; Nadine Gordimers Vej; Copenhagen; Copenhagen Municipality; Capital Region of Denmark; 1561; Denmark,hotel,cameraforensics
https://live.staticflickr.com/7459/27084085961_880bbcab24_o.jpg,55.637477777777775,12.578280555555553,,,,,,Denmark,Bella Center; Ørestads Boulevard; Copenhagen; Copenhagen Municipality; Capital Region of Denmark; 2300; Denmark,hotel,cameraforensics
https://live.staticflickr.com/7350/27796138592_c360486b25_o.jpg,55.63149166666667,12.580752777777779,,,,,,Denmark,Copenhagen; Copenhagen Municipality; Capital Region of Denmark; 2300; Denmark,hotel,cameraforensics
https://r-cf.bstatic.com/images/hotel/max1280x900/202/202437009.jpg,55.6297387,12.584540400000002,,,,,,Denmark,49; Slusevej; Våren; Copenhagen; Copenhagen Municipality; Capital Region of Denmark; 2300; Denmark,hotel,cameraforensics
https://live.staticflickr.com/7592/16742381456_ca7c776366_o.jpg,55.62683055555557,12.57736111111111,,,,,,Denmark,Crowne Plaza Copenhagen Towers; Hannemanns Allé; Copenhagen; Copenhagen Municipality; Capital Region of Denmark; 2770; Denmark,hotel,cameraforensics
https://live.staticflickr.com/5755/30381122161_4ce637eaa4_o.jpg,55.62893666666667,12.57912833333333,,,,,,Denmark,Papuga; Ørestads Boulevard; Copenhagen; Copenhagen Municipality; Capital Region of Denmark; 2770; Denmark,hotel,cameraforensics
https://live.staticflickr.com/8110/8584219148_4399ebf71e_o.jpg,55.634743245305565,12.577407388,,,,,,Denmark,Det Flexible Hus; C.F. Møllers Allé; Copenhagen; Copenhagen Municipality; Capital Region of Denmark; 1561; Denmark,hotel,cameraforensics
https://live.staticflickr.com/8680/28410497261_06d5062c3b_o.jpg,55.661244444444435,12.58605833333333,,,,,,Denmark,36; Tom Kristensens Vej; Christianshavn; Copenhagen; Copenhagen Municipality; Capital Region of Denmark; 2300; Denmark,hotel,cameraforensics
https://live.staticflickr.com/2873/33675284253_dcce091262_o.jpg,55.67329444444444,12.59020555555556,,,,,,Denmark,31; Wildersgade; Christianshavn; Copenhagen; Copenhagen Municipality; Capital Region of Denmark; 1408; Denmark,hotel,cameraforensics
https://live.staticflickr.com/431/32326689862_7e2811170b_o.jpg,55.66545833333333,12.59725833333333,,,,,,Denmark,6; Kongedybet; Christianshavn; Copenhagen; Copenhagen Municipality; Capital Region of Denmark; 2300; Denmark,hotel,cameraforensics
https://live.staticflickr.com/697/32355374882_32930267c6_o.jpg,55.665477777777774,12.597263888888893,,,,,,Denmark,4; Kongedybet; Christianshavn; Copenhagen; Copenhagen Municipality; Capital Region of Denmark; 2300; Denmark,hotel,cameraforensics
https://live.staticflickr.com/742/32117323681_0d12151691_o.jpg,55.66546666666667,12.59726666666667,,,,,,Denmark,4; Kongedybet; Christianshavn; Copenhagen; Copenhagen Municipality; Capital Region of Denmark; 2300; Denmark,hotel,cameraforensics
https://live.staticflickr.com/2428/3750080892_e414a1f637_o.jpg,55.67364166666667,12.582831666666667,,,,,,Denmark,Den Sorte Diamant; Christians Brygge; Christianshavn; Copenhagen; Copenhagen Municipality; Capital Region of Denmark; 1221; Denmark,hotel,cameraforensics
https://live.staticflickr.com/8509/8552407744_0f4e2c9719_o.jpg,55.663492670277776,12.59350810197222,,,,,,Denmark,Bryggehusene; Amagerfælledvej; Christianshavn; Copenhagen; Copenhagen Municipality; Capital Region of Denmark; 1423; Denmark,hotel,cameraforensics
https://live.staticflickr.com/4186/33783323604_7621896dc8_o.jpg,55.672486111111105,12.59365833333333,,,,,,Denmark,34; Sankt Annæ Gade; Christianshavn; Copenhagen; Copenhagen Municipality; Capital Region of Denmark; 1416; Denmark,hotel,cameraforensics
https://live.staticflickr.com/5662/29969521234_41a0616d60_o.jpg,55.6288888888889,12.07583333333333,,,,,,Denmark,Uddannelsescenteret i Roskilde; Maglegårdsvej; Musicon; Roskilde Syd; Roskilde; Roskilde Municipality; Region Zealand; 4000; Denmark,hotel,cameraforensics
https://live.staticflickr.com/5583/14633053455_af957a2331_o.jpg,55.62683333333333,12.08266666666667,,,,,,Denmark,Hal 11; Pulsen; Musicon; Roskilde Syd; Roskilde; Roskilde Municipality; Region Zealand; 4000; Denmark,hotel,cameraforensics
https://live.staticflickr.com/5606/15648080340_25d988cb9e_o.jpg,55.62888611111111,12.08541388888889,,,,,,Denmark,2D; Rampelyset; Musicon; Roskilde Syd; Roskilde; Roskilde Municipality; Region Zealand; 4000; Denmark,hotel,cameraforensics
https://live.staticflickr.com/2940/14593900604_aa1332e577_o.jpg,55.62521361111111,12.083209027777775,,,,,,Denmark,HTX Roskilde; Pulsen; Musicon; Roskilde Syd; Roskilde; Roskilde Municipality; Region Zealand; 4000; Denmark,hotel,cameraforensics
https://live.staticflickr.com/3841/14632589102_5051fbdb10_o.jpg,55.62816666666667,12.082,,,,,,Denmark,Hal 9; Lydmuren; Musicon; Roskilde Syd; Roskilde; Roskilde Municipality; Region Zealand; 4000; Denmark,hotel,cameraforensics
https://live.staticflickr.com/2912/14652959463_af05c02d91_o.jpg,55.62816666666667,12.08283333333333,,,,,,Denmark,Ragnarock; Lydmuren; Musicon; Roskilde Syd; Roskilde; Roskilde Municipality; Region Zealand; 4000; Denmark,hotel,cameraforensics
https://live.staticflickr.com/4144/5211609862_dc3b431c7f_o.jpg,55.62835666666667,12.08185,,,,,,Denmark,Hal 9; Lydmuren; Musicon; Roskilde Syd; Roskilde; Roskilde Municipality; Region Zealand; 4000; Denmark,hotel,cameraforensics
https://live.staticflickr.com/6107/6859622258_72841483fc_o.jpg,55.62883333333333,12.08466666666667,,,,,,Denmark,1; Rabalderstræde; Musicon; Roskilde Syd; Roskilde; Roskilde Municipality; Region Zealand; 4000; Denmark,hotel,cameraforensics
https://live.staticflickr.com/5327/9502436294_6ca98421eb_o.jpg,55.62783333333334,12.08133333333333,,,,,,Denmark,Smedjen; Bagtæppet; Musicon; Roskilde Syd; Roskilde; Roskilde Municipality; Region Zealand; 4000; Denmark,hotel,cameraforensics
https://live.staticflickr.com/5079/7220255222_d87cba76c4_o.jpg,55.62816666666667,12.082,,,,,,Denmark,Hal 9; Lydmuren; Musicon; Roskilde Syd; Roskilde; Roskilde Municipality; Region Zealand; 4000; Denmark,hotel,cameraforensics
https://live.staticflickr.com/7779/18262566372_9580fb5e23_o.jpg,56.15874444444444,10.204852777777779,,,,,,Denmark,58; Klostergade; Aarhus; Aarhus Municipality; Central Denmark Region; 8000; Denmark,hotel,cameraforensics
https://live.staticflickr.com/4639/27334063959_201f9265c1_o.jpg,55.66983333333334,12.40966666666667,,,,,,Denmark,Byparkvej; Glostrup; Hvissinge; Glostrup Municipality; Capital Region of Denmark; 2600; Denmark,hotel,cameraforensics
https://r-cf.bstatic.com/images/hotel/max1280x900/149/149408090.jpg,55.66676651,12.4140358,,,,,,Denmark,7; Evas Alle; Glostrup; Glostrup Municipality; Capital Region of Denmark; 2600; Denmark,hotel,cameraforensics
https://live.staticflickr.com/1744/41691570645_106c67b3d5_o.jpg,55.67116305555553,12.41740305555556,,,,,,Denmark,17; Paul Bergsøes Vej; Glostrup; Hvissinge; Glostrup Municipality; Capital Region of Denmark; 2600; Denmark,hotel,cameraforensics
https://r-cf.bstatic.com/images/hotel/max1280x900/351/35117585.jpg,55.66818244,12.41951555,,,,,,Denmark,Scandic Glostrup; Paul Bergsøes Vej; Glostrup; Hvissinge; Glostrup Municipality; Capital Region of Denmark; 2605; Denmark,hotel,cameraforensics
https://live.staticflickr.com/3303/3515670261_1423d3de28_o.jpg,55.6655,12.419,,,,,,Denmark,20; Vibeholms Allé; Vibeholms Erhvervsområde; Brøndby Municipality; Hvissinge; Capital Region of Denmark; 2605; Denmark,hotel,cameraforensics
https://q-cf.bstatic.com/images/hotel/max1280x900/168/16801540.jpg,55.66676651,12.4140358,,,,,,Denmark,7; Evas Alle; Glostrup; Glostrup Municipality; Capital Region of Denmark; 2600; Denmark,hotel,cameraforensics
https://live.staticflickr.com/7836/46679817985_ab61d363cb_o.jpg,55.66388888888889,12.416388888888893,,,,,,Denmark,233; Priorparken; Priorparken Erhvervsområde; Brøndby Municipality; Copenhagen; Capital Region of Denmark; 2605; Denmark,hotel,cameraforensics
https://live.staticflickr.com/1305/5188676147_8929a43392_o.jpg,55.669,12.42583333333333,,,,,,Denmark,514; Roskildevej; Brøndbyøster; Brøndby Municipality; Hvissinge; Capital Region of Denmark; 2605; Denmark,hotel,cameraforensics
https://live.staticflickr.com/3179/3443219513_c79302d339_o.jpg,55.66305555555557,12.413888888888893,,,,,,Denmark,33; Søndervangsvej; Glostrup; Glostrup Municipality; Capital Region of Denmark; 2600; Denmark,hotel,cameraforensics
https://q-cf.bstatic.com/images/hotel/max1280x900/107/107169513.jpg,55.66553091,12.42043242,,,,,,Denmark,A Hotels; Vibeholms Allé; Vibeholms Erhvervsområde; Brøndby Municipality; Copenhagen; Capital Region of Denmark; 2605; Denmark,hotel,cameraforensics
https://live.staticflickr.com/5741/29837550783_5c8be3cc4f_o.jpg,55.68221666666667,12.56816111111111,,,,,,Denmark,1; Israels Plads; Christianshavn; Copenhagen; Copenhagen Municipality; Capital Region of Denmark; 1361; Denmark,hotel,cameraforensics
https://live.staticflickr.com/546/19982363156_c02bc29569_o.jpg,55.676747222222225,12.565047222222221,,,,,,Denmark,65; Studiestræde; Vesterbro; Copenhagen; Copenhagen Municipality; Capital Region of Denmark; 1554; Denmark,hotel,cameraforensics
https://live.staticflickr.com/2535/4004755706_01ef6cd54b_o.jpg,55.68466666666666,12.5665,,,,,,Denmark,67; Nansensgade; Nørrebro; Copenhagen; Copenhagen Municipality; Capital Region of Denmark; 1366; Denmark,hotel,cameraforensics
https://live.staticflickr.com/5711/23511302331_d416264640_o.jpg,55.67842777777778,12.58035555555556,,,,,,Denmark,8; Lille Kirkestræde; Christianshavn; Copenhagen; Copenhagen Municipality; Capital Region of Denmark; 1072; Denmark,hotel,cameraforensics
https://live.staticflickr.com/7372/13998970920_c3cdaaaab2_o.jpg,55.6394,12.577828333333333,,,,,,Denmark,AC Hotel Bella Sky Copenhagen; Martha Christensens Vej; Copenhagen; Copenhagen Municipality; Capital Region of Denmark; 1561; Denmark,hotel,cameraforensics
https://live.staticflickr.com/5471/10901648735_25655d6ed8_o.jpg,55.6384,12.5768,,,,,,Denmark,Bella Center; Ørestads Boulevard; Copenhagen; Copenhagen Municipality; Capital Region of Denmark; 2300; Denmark,hotel,cameraforensics
https://live.staticflickr.com/3792/32960743956_a557a3beec_o.jpg,55.63839444444444,12.57997777777778,,,,,,Denmark,Bella Center; Ørestads Boulevard; Copenhagen; Copenhagen Municipality; Capital Region of Denmark; 2300; Denmark,hotel,cameraforensics
https://live.staticflickr.com/4630/40438803902_70a914b60a_o.jpg,55.63843055555557,12.580088888888893,,,,,,Denmark,Bella Center; Ørestads Boulevard; Copenhagen; Copenhagen Municipality; Capital Region of Denmark; 2300; Denmark,hotel,cameraforensics
https://q-cf.bstatic.com/images/hotel/max1280x900/591/59173308.jpg,55.64222153,12.57430851,,,,,,Denmark,Danhostel Copenhagen Amager; Vejlands Allé; Teglholmen; Copenhagen; Copenhagen Municipality; Capital Region of Denmark; 1561; Denmark,hotel,cameraforensics
https://live.staticflickr.com/8105/8565281171_2775c50913_o.jpg,55.66958616666667,12.5644245,,,,,,Denmark,DGI Byen; Ingerslevsgade; Meatpacking District; Vesterbro; Copenhagen; Copenhagen Municipality; Capital Region of Denmark; 1699; Denmark,hotel,cameraforensics
https://live.staticflickr.com/4102/4823159137_cf1ac03534_o.jpg,55.66560083333334,12.55745583333333,,,,,,Denmark,Golden camel; Dybbølsgade; Meatpacking District; Vesterbro; Copenhagen; Copenhagen Municipality; Capital Region of Denmark; 1719; Denmark,hotel,cameraforensics
https://live.staticflickr.com/702/31773607151_f85d500286_o.jpg,55.67056833333334,12.56521166666667,,,,,,Denmark,Tietgensgade; Meatpacking District; Vesterbro; Copenhagen; Copenhagen Municipality; Capital Region of Denmark; 1702; Denmark,hotel,cameraforensics
https://live.staticflickr.com/375/19493995790_4247a2346c_o.jpg,55.6725486111111,12.56393194444444,,,,,,Denmark,Copenhagen Central Station; Bernstorffsgade; Meatpacking District; Vesterbro; Copenhagen; Copenhagen Municipality; Capital Region of Denmark; 1570; Denmark,hotel,cameraforensics
https://live.staticflickr.com/8518/8534669312_3e10703c65_o.jpg,55.66133333333333,12.57233333333333,,,,,,Denmark,10; Erik Eriksens Gade; Vesterbro; Copenhagen; Copenhagen Municipality; Capital Region of Denmark; 2300; Denmark,hotel,cameraforensics
https://live.staticflickr.com/280/19240338610_a9e50c2100_o.jpg,55.6609888888889,12.57252222222222,,,,,,Denmark,5B; J.C. Christensens Gade; Enghave Brygge; Copenhagen; Copenhagen Municipality; Capital Region of Denmark; 2300; Denmark,hotel,cameraforensics
https://live.staticflickr.com/1466/26629552332_0860d78f21_o.jpg,55.6676138888889,12.57796111111111,,,,,,Denmark,Haraldsborg; Islands Brygge; Christianshavn; Copenhagen; Copenhagen Municipality; Capital Region of Denmark; 1559; Denmark,hotel,cameraforensics
https://live.staticflickr.com/7626/16304845243_af8dbc24b9_o.jpg,55.67078333333333,12.55798611111111,,,,,,Denmark,22D; Viktoriagade; Meatpacking District; Vesterbro; Copenhagen; Copenhagen Municipality; Capital Region of Denmark; 1655; Denmark,hotel,cameraforensics
https://live.staticflickr.com/4162/34565754526_ca94e5fcb1_o.jpg,55.66868611111111,12.55691111111111,,,,,,Denmark,48; Halmtorvet; Meatpacking District; Vesterbro; Copenhagen; Copenhagen Municipality; Capital Region of Denmark; 1700; Denmark,hotel,cameraforensics
https://farm1.staticflickr.com/182/378686682_cb0165704a_b.jpg,55.67883000000001,12.567077000000001,2007-01-28 10:05:36,,,photo,0.0,Denmark,Väkst; Sankt Peders Stræde; Vesterbro; Copenhagen; Copenhagen Municipality; Capital Region of Denmark; 1453; Denmark,homestay room,flickr
https://farm5.staticflickr.com/4054/4507749247_e0d71230c2_b.jpg,55.681649,12.593743,2010-03-14 11:04:42,,,photo,0.0,Denmark,Admiral; Larsens Plads; Frederiksstaden; Copenhagen; Copenhagen Municipality; Capital Region of Denmark; 1253; Denmark,hotel room,flickr
https://farm9.staticflickr.com/8462/7954163446_ab71ded045_b.jpg,55.675309,12.559647,2012-09-05 21:25:25,,,photo,0.0,Denmark,Scandic Copenhagen; Gammel Kongevej; Vesterbro; Copenhagen; Copenhagen Municipality; Capital Region of Denmark; 1614; Denmark,hotel room,flickr
https://live.staticflickr.com/4113/5178726390_164d3e3908_o.jpg,55.678782,12.566417,2010-11-07 18:11:37,3744.0,5616.0,photo,3.0,Denmark,3; Jarmers Plads; Vesterbro; Copenhagen; Copenhagen Municipality; Capital Region of Denmark; 1551; Denmark,hotel room,flickr
https://live.staticflickr.com/2186/1508972791_3bc59f67bd_o.jpg,55.677003000000006,12.576341000000001,2006-10-19 03:59:58,851.0,1280.0,photo,0.0,Denmark,12; Snaregade; Christianshavn; Copenhagen; Copenhagen Municipality; Capital Region of Denmark; 1205; Denmark,hotel room,flickr
https://farm3.staticflickr.com/2305/1554413109_9be3b371a6_b.jpg,55.67624100000001,12.570108,2006-12-09 22:34:43,,,photo,0.0,Denmark,City Hall Square; H.C. Andersens Boulevard; Vesterbro; Copenhagen; Copenhagen Municipality; Capital Region of Denmark; 1608; Denmark,hotel room,flickr
https://farm4.staticflickr.com/3066/3010677193_084217f2fd_b.jpg,55.676359,12.5669,2008-11-03 12:49:14,,,photo,0.0,Denmark,City Hall Square; H.C. Andersens Boulevard; Vesterbro; Copenhagen; Copenhagen Municipality; Capital Region of Denmark; 1608; Denmark,hotel room,flickr
https://live.staticflickr.com/153/429273604_8b02751feb_o.jpg,56.29215600000001,8.876953,2007-02-21 02:52:03,425.0,283.0,photo,0.0,Denmark,Hallundbækvej; Herning Municipality; Denmark,hotel room,flickr
https://farm4.staticflickr.com/3053/3011514296_38c024c18e_b.jpg,55.67599300000001,12.568895,2008-11-03 12:48:06,,,photo,0.0,Denmark,Vesterbro; Copenhagen; Copenhagen Municipality; Capital Region of Denmark; 1550; Denmark,hotel room,flickr
https://farm5.staticflickr.com/4158/34548773196_25f7854aa0_b.jpg,55.66698,12.56605,2017-05-02 18:22:11,,,photo,0.0,Denmark,Wakeup Copenhagen; Kristian Erslevs Gade; Meatpacking District; Vesterbro; Copenhagen; Copenhagen Municipality; Capital Region of Denmark; 1560; Denmark,hotel room,flickr
https://live.staticflickr.com/7553/15987209790_24d1a6a44d_o.jpg,55.675624,12.569475,2014-12-16 14:19:01,1157.0,941.0,photo,1.0,Denmark,Vesterbro; Copenhagen; Copenhagen Municipality; Capital Region of Denmark; 1550; Denmark,hotel room,flickr
https://live.staticflickr.com/3033/2927468468_b5a50007b0_o.jpg,55.67661,12.569174,2008-10-09 11:12:14,2848.0,2136.0,photo,1.0,Denmark,City Hall Square; H.C. Andersens Boulevard; Vesterbro; Copenhagen; Copenhagen Municipality; Capital Region of Denmark; 1608; Denmark,hotel room,flickr
https://farm3.staticflickr.com/2372/4508388922_9a48c7d408_b.jpg,55.68141899999999,12.600394999999999,2010-03-14 11:05:41,,,photo,0.0,Denmark,Copenhagen Opera House; Ekvipagemestervej; Frederiksstaden; Copenhagen; Copenhagen Municipality; Capital Region of Denmark; 1438; Denmark,hotel room,flickr
https://live.staticflickr.com/4748/39652668392_7c76674d4c_o.jpg,55.235955000000004,14.800426999999999,2017-09-07 15:19:48,1152.0,2048.0,photo,0.0,Denmark,Sankt Ols Kirke; Lindesgårdsvej; Bornholms Regionskommune; Capital Region of Denmark; 3770; Denmark,inn room,flickr
https://farm6.staticflickr.com/5673/22105312062_d034ecf661_b.jpg,56.485144999999996,8.873519,2015-10-03 15:14:00,,,photo,0.0,Denmark,Hjerl Hede; Hjerl Hedevej; Holstebro Municipality; Denmark,inn room,flickr
https://farm3.staticflickr.com/2695/4443881286_5797c2b129_b.jpg,55.67105,12.544755,2009-10-06 12:32:58,,,photo,0.0,Denmark,Salon Bagdad; Vesterbrogade; Sorte Hest; Vesterbro; Copenhagen; Copenhagen Municipality; Capital Region of Denmark; 1623; Denmark,hotel bathroom,flickr
https://live.staticflickr.com/8434/7851099808_576c9feba6_o.jpg,55.672225,12.562186,2012-06-20 22:57:49,520.0,390.0,photo,0.0,Denmark,11; Colbjørnsensgade; Meatpacking District; Vesterbro; Copenhagen; Copenhagen Municipality; Capital Region of Denmark; 1652; Denmark,hotel bathroom,flickr
https://live.staticflickr.com/7156/6692830929_3f41421aea_o.jpg,55.672865,12.561864,2005-06-30 01:22:22,450.0,337.0,photo,0.0,Denmark,5; Colbjørnsensgade; Meatpacking District; Vesterbro; Copenhagen; Copenhagen Municipality; Capital Region of Denmark; 1652; Denmark,hotel bathroom,flickr
https://farm5.staticflickr.com/4046/4441315084_a97542b781_b.jpg,55.66977900000001,12.562222,2010-03-17 12:45:29,,,photo,0.0,Denmark,Øksnehallen; Halmtorvet; Meatpacking District; Vesterbro; Copenhagen; Copenhagen Municipality; Capital Region of Denmark; 1710; Denmark,hotel bathroom,flickr
https://farm9.staticflickr.com/8234/8459015319_f548d6afaf_b.jpg,55.630612,12.650928,2012-08-25 22:55:03,,,photo,0.0,Denmark,Clarion Hotel Copenhagen Airport; Hotelvej; Kastrup; Tårnby Kommune; Capital Region of Denmark; 2791; Denmark,hotel bathroom,flickr
https://live.staticflickr.com/4010/4644190620_709f92a2e1_o.jpg,55.673801,12.550169,2010-05-27 07:50:27,1536.0,2048.0,photo,0.0,Denmark,12A; Værnedamsvej; Frederiksberg; Frederiksberg Municipality; Capital Region of Denmark; 1619; Denmark,hotel bathroom,flickr
https://live.staticflickr.com/3366/4644198310_19fa150c75_o.jpg,55.673801,12.550169,2010-05-27 07:55:06,1536.0,2048.0,photo,0.0,Denmark,12A; Værnedamsvej; Frederiksberg; Frederiksberg Municipality; Capital Region of Denmark; 1619; Denmark,hotel bathroom,flickr
https://live.staticflickr.com/137/319981260_cecd5c0b88_o.jpg,55.67724499999999,12.570075,2006-12-07 16:36:54,2112.0,2816.0,photo,0.0,Denmark,28B; Frederiksberggade; Vesterbro; Copenhagen; Copenhagen Municipality; Capital Region of Denmark; 1459; Denmark,hotel bathroom,flickr
https://live.staticflickr.com/7/18082875_2db8dbbbbf_o.jpg,55.681262,12.574882,2005-05-13 22:38:15,1536.0,2048.0,photo,5.0,Denmark,Regensen; Købmagergade; Christianshavn; Copenhagen; Copenhagen Municipality; Capital Region of Denmark; 1126; Denmark,hotel bathroom,flickr
https://farm9.staticflickr.com/8581/28332911925_fae5612721_b.jpg,55.62835,12.574991,2016-07-02 00:53:13,,,photo,0.0,Denmark,Ove Arups Vej; Copenhagen; Copenhagen Municipality; Capital Region of Denmark; 2770; Denmark,hotel bathroom,flickr
https://live.staticflickr.com/7246/7851099936_6cd9199004_o.jpg,55.672225,12.562186,2012-06-20 22:57:34,520.0,390.0,photo,0.0,Denmark,11; Colbjørnsensgade; Meatpacking District; Vesterbro; Copenhagen; Copenhagen Municipality; Capital Region of Denmark; 1652; Denmark,hotel bathroom,flickr
https://live.staticflickr.com/2846/11592344754_e05faa9260_o.jpg,55.672363,12.56278,2013-09-01 15:19:54,1024.0,768.0,photo,3.0,Denmark,Missionshotellet Nebo; Istedgade; Meatpacking District; Vesterbro; Copenhagen; Copenhagen Municipality; Capital Region of Denmark; 1652; Denmark,hotel bathroom,flickr
https://farm4.staticflickr.com/3059/3011514732_7135314023_b.jpg,55.676359,12.5669,2008-11-03 12:49:56,,,photo,0.0,Denmark,City Hall Square; H.C. Andersens Boulevard; Vesterbro; Copenhagen; Copenhagen Municipality; Capital Region of Denmark; 1608; Denmark,hotel bathroom,flickr
https://live.staticflickr.com/5783/22067502101_599df73ccf_o.jpg,55.328438,8.76233,2015-09-27 16:01:13,3718.0,5592.0,photo,0.0,Denmark,Weis Stue; Torvet; Ribe; Esbjerg Municipality; Region of Southern Denmark; 6760; Denmark,hotel bathroom,flickr
https://live.staticflickr.com/8666/16371359881_8f052e6d55_o.jpg,55.398756999999996,10.392605,2013-03-25 11:25:56,5523.0,3682.0,photo,0.0,Denmark,Radisson Blu H.C. Andersen Hotel; Sortebrødre Stræde; Odense; Odense Kommune; Region of Southern Denmark; 5000; Denmark,hotel bathroom,flickr
https://live.staticflickr.com/8582/16186858549_431683e94d_o.jpg,55.398756999999996,10.392605,2013-03-25 11:29:03,5631.0,3753.0,photo,0.0,Denmark,Radisson Blu H.C. Andersen Hotel; Sortebrødre Stræde; Odense; Odense Kommune; Region of Southern Denmark; 5000; Denmark,hotel bathroom,flickr
https://farm2.staticflickr.com/1973/44684205435_559ee41cc9_b.jpg,55.674705,12.563666,2018-06-26 18:42:59,,,photo,0.0,Denmark,Radisson SAS Royal; Vesterbrogade; Vesterbro; Copenhagen; Copenhagen Municipality; Capital Region of Denmark; 1570; Denmark,hotel suite,flickr
https://live.staticflickr.com/4021/4241417243_5265968fe0_o.jpg,55.68962,12.560374,2009-12-04 02:29:43,2328.0,3491.0,photo,6.0,Denmark,16; Fælledvej; Nørrebro; Copenhagen; Copenhagen Municipality; Capital Region of Denmark; 2200; Denmark,vacation bedroom,flickr
https://farm3.staticflickr.com/2453/3629357861_25737ff50b_b.jpg,55.678833,12.578833,2009-06-06 03:02:10,,,photo,0.0,Denmark,Amagertorv; Højbro Plads; Christianshavn; Copenhagen; Copenhagen Municipality; Capital Region of Denmark; 1200; Denmark,room decor,flickr
https://farm9.staticflickr.com/8470/8101144099_b1ee4f978f_b.jpg,55.675854,12.577232,2012-08-27 07:36:24,,,photo,0.0,Denmark,Christiansborg Palace; Nybrogade; Christianshavn; Copenhagen; Copenhagen Municipality; Capital Region of Denmark; 1203; Denmark,room decor,flickr
https://farm8.staticflickr.com/7374/14036763651_3d8c01f9e7_b.jpg,55.701005,12.54025,2014-04-19 22:47:44,,,photo,0.0,Denmark,111; Mimersgade; Nørrebro; Copenhagen; Copenhagen Municipality; Capital Region of Denmark; 2200; Denmark,rental room,flickr
https://farm9.staticflickr.com/8315/8036619426_57a02d2cf3_b.jpg,55.64246,12.081193,2012-09-19 12:37:59,,,photo,0.0,Denmark,Museet for Samtidskunst; Domkirkestræde; Sankt Jørgensbjerg; Roskilde centrum; Roskilde; Roskilde Municipality; Region Zealand; 4000; Denmark,booking.com,flickr
https://live.staticflickr.com/7021/6695925671_c58f1b1e0d_o.jpg,55.653751,12.300385,2012-01-14 11:10:53,2696.0,3948.0,photo,5.0,Denmark,Taastrup Park Hotel; Kirkevej; Taastrup; Høje-Taastrup Municipality; Capital Region of Denmark; 2630; Denmark,booking.com,flickr
https://live.staticflickr.com/65535/48036896621_fde455dc5a_o.jpg,55.53400799999999,9.599033,2019-06-05 00:00:10,2448.0,3264.0,photo,0.0,Denmark,Kryb i Ly; Kolding Landevej; Oddersted; Taulov; Fredericia Municipality; Region of Southern Denmark; Denmark,booking.com,flickr
https://live.staticflickr.com/113/294126869_00a6c7f61b_o.jpg,55.614068,12.341637,2006-11-10 14:14:57,480.0,640.0,photo,0.0,Denmark,72; Skrædderpladsen; Gadekæret; Ishøj; Ishøj Municipality; Capital Region of Denmark; 2635; Denmark,bedroom,flickr
https://live.staticflickr.com/7034/6807077701_26c841b142_o.jpg,55.69239,12.537031,2012-02-01 14:24:37,3456.0,5184.0,photo,0.0,Denmark,43; Borups Allé; Nørrebro; Copenhagen; Copenhagen Municipality; Capital Region of Denmark; 2200; Denmark,bedroom,flickr
https://live.staticflickr.com/3535/3973987431_1a0765df1a_o.jpg,55.152847,10.148477,2009-10-01 11:31:46,624.0,468.0,photo,0.0,Denmark,513; Assensvej; Millinge; Faaborg-Midtfyn Municipality; Region of Southern Denmark; 5642; Denmark,bedroom,flickr
https://live.staticflickr.com/3894/14881986626_590879a7f3_o.jpg,56.038911,12.621574,2013-07-06 07:55:04,3456.0,4608.0,photo,0.0,Denmark,Kronborg Castle; Kronborg; Elsinore; Helsingør Municipality; Capital Region of Denmark; 3000; Denmark,bedroom,flickr
https://live.staticflickr.com/139/371672297_69ea53e8aa_o.jpg,56.011973,12.592906,1999-04-23 12:33:42,512.0,768.0,photo,0.0,Denmark,35; Nørrevej; Skotterup; Snekkersten; Helsingør Municipality; Capital Region of Denmark; 3070; Denmark,bedroom,flickr
https://live.staticflickr.com/8204/8181457709_fb4831b5c2_o.jpg,55.860339,9.86127,2011-04-17 12:42:43,2304.0,3456.0,photo,0.0,Denmark,Danmarks Industrimuseum; Villavej; Horsens; Horsens Municipality; 8700; Denmark,bedroom,flickr
https://farm9.staticflickr.com/8430/27809217883_6646601307_b.jpg,55.681371,12.575783,2016-04-17 16:53:12,,,photo,0.0,Denmark,Round Tower; Købmagergade; Christianshavn; Copenhagen; Copenhagen Municipality; Capital Region of Denmark; 1126; Denmark,habitacion,flickr
https://farm7.staticflickr.com/6046/6244142974_f6237dbe90_b.jpg,56.14736600000001,10.203552,2011-10-14 18:44:15,,,photo,0.0,Denmark,Paradis; M.P. Bruuns Gade; Frederiksbjerg; Aarhus; Aarhus Municipality; Central Denmark Region; 8000; Denmark,habitacion,flickr
https://live.staticflickr.com/4125/5166980346_0ba2ebb7dc_o.jpg,55.706363,9.518816000000001,2010-11-11 17:05:04,2592.0,3872.0,photo,5.0,Denmark,5D; Willy Sørensens Plads; Vejle Enge; Vejle; Vejle Municipality; Region of Southern Denmark; 7100; Denmark,hotelværelse,flickr
https://live.staticflickr.com/65535/48763645041_6a74fb8874_o.jpg,56.685572,8.237105,2019-07-08 00:00:34,2448.0,3264.0,photo,0.0,Denmark,Thyborøn; Lemvig Municipality; 7680; Denmark,hotelværelse,flickr
https://live.staticflickr.com/1235/961757754_b462097943_o.jpg,55.399549,10.381672,2007-07-31 10:23:55,1944.0,2592.0,photo,0.0,Denmark,Hotel Ansgar; Hans Tausens Gade; Odense; Odense Kommune; Region of Southern Denmark; 5000; Denmark,hotelværelse,flickr
https://live.staticflickr.com/1228/977175186_0af8e5c32f_o.jpg,55.476397,8.437285000000001,2007-07-11 21:18:57,2142.0,3465.0,photo,3.0,Denmark,28; Gammel Vardevej; Strandby; Esbjerg; Esbjerg Municipality; Region of Southern Denmark; 6700; Denmark,holiday room,flickr
https://farm8.staticflickr.com/7038/6919633092_d70bf3f6ba_b.jpg,55.688617,12.577693,2012-02-26 15:25:51,,,photo,0.0,Denmark,National Gallery of Art; Sølvgade; Frederiksstaden; Copenhagen; Copenhagen Municipality; Capital Region of Denmark; 1307; Denmark,holiday room,flickr
https://live.staticflickr.com/3645/3692902401_290612178d_o.jpg,57.72492,10.597171000000001,2009-07-06 04:52:20,1664.0,2496.0,photo,0.0,Denmark,1; Brøndumsvej; Østerby; Skagen; Frederikshavn Municipality; North Denmark Region; 9990; Denmark,holiday room,flickr
https://farm8.staticflickr.com/7654/16728940528_00386f1511_b.jpg,56.151011,10.202736,2015-03-24 14:21:55,,,photo,0.0,Denmark,14; Banegårdspladsen; Aarhus; Aarhus Municipality; Central Denmark Region; 8000; Denmark,best western room,flickr
https://farm9.staticflickr.com/8718/16728930918_b6bcd3589d_b.jpg,56.151011,10.202736,2015-03-24 14:24:06,,,photo,0.0,Denmark,14; Banegårdspladsen; Aarhus; Aarhus Municipality; Central Denmark Region; 8000; Denmark,best western room,flickr
https://live.staticflickr.com/3917/14664718136_3d3744e718_o.jpg,55.70838199999999,12.534272999999999,2011-11-15 14:24:57,4376.0,3921.0,photo,2.0,Denmark,Tagensbo Kirke; Landsdommervej; Utterslev; Bispebjerg; Copenhagen Municipality; Capital Region of Denmark; 2400; Denmark,best western room,flickr
https://live.staticflickr.com/4386/35504861474_1be1edea6d_o.jpg,56.123978,10.168747,2014-02-12 16:12:48,2845.0,4281.0,photo,9.0,Denmark,81; Engtoften; Lundshøj; Aarhus; Aarhus Municipality; Central Denmark Region; 8260; Denmark,best western room,flickr
https://live.staticflickr.com/6157/6180995580_8be14ef434_o.jpg,55.80641800000001,9.993481,2011-09-24 12:58:17,2592.0,3888.0,photo,0.0,Denmark,Glud Museum; Museumsvej; Glud; Hedensted Municipality; Denmark,best western room,flickr
https://live.staticflickr.com/4361/35504862884_c797010756_o.jpg,56.124152,10.168876,2014-02-12 16:13:31,2849.0,4275.0,photo,9.0,Denmark,90; Engtoften; Lundshøj; Aarhus; Aarhus Municipality; Central Denmark Region; 8260; Denmark,best western room,flickr
https://live.staticflickr.com/4353/36296226976_bfc3a99f3c_o.jpg,56.124152,10.168876,2014-02-12 16:13:11,2857.0,4297.0,photo,9.0,Denmark,90; Engtoften; Lundshøj; Aarhus; Aarhus Municipality; Central Denmark Region; 8260; Denmark,best western room,flickr
https://live.staticflickr.com/1423/1232614890_f2baa91695_o.jpg,55.691616,12.586083,2006-12-01 08:37:09,768.0,1024.0,photo,0.0,Denmark,Østerport; Oslo Plads; Nyboder; Frederiksstaden; Copenhagen; Copenhagen Municipality; Capital Region of Denmark; 1327; Denmark,comfort room,flickr
https://farm5.staticflickr.com/4777/25816364427_fdb41e705d_b.jpg,55.682369,12.599666,2016-07-12 09:11:16,,,photo,0.0,Denmark,Kost & Mask; Orlogsværftsvej; Frederiksstaden; Copenhagen; Copenhagen Municipality; Capital Region of Denmark; 1438; Denmark,comfort room,flickr
https://farm2.staticflickr.com/1733/41857188974_f8c5e81a84_b.jpg,55.68190300000001,12.599666,2016-07-11 09:17:06,,,photo,0.0,Denmark,Kost & Mask; Orlogsværftsvej; Frederiksstaden; Copenhagen; Copenhagen Municipality; Capital Region of Denmark; 1438; Denmark,comfort room,flickr
https://farm2.staticflickr.com/1747/40768807670_f1d1ec9402_b.jpg,55.682762,12.599762,2016-07-12 09:19:54,,,photo,0.0,Denmark,Kost & Mask; Orlogsværftsvej; Frederiksstaden; Copenhagen; Copenhagen Municipality; Capital Region of Denmark; 1438; Denmark,comfort room,flickr
https://live.staticflickr.com/8451/28132542034_e4675190ea_o.jpg,55.673083,12.563982,2016-07-17 08:43:52,3000.0,4000.0,photo,0.0,Denmark,Western Union; Banegårdspladsen; Meatpacking District; Vesterbro; Copenhagen; Copenhagen Municipality; Capital Region of Denmark; 1570; Denmark,comfort room,flickr
https://live.staticflickr.com/3457/3193840687_357065f46e_o.jpg,55.812471,12.319536,2009-01-07 15:28:47,955.0,1200.0,photo,0.0,Denmark,Kalkgården; Farumvej; Gedevase; Egedal Municipality; Capital Region of Denmark; 3520; Denmark,comfort room,flickr
https://farm2.staticflickr.com/1730/40960587980_2fa1ba5805_b.jpg,55.675642,12.584366,2016-07-10 17:48:10,,,photo,0.0,Denmark,Slotsholmen; Christians Brygge; Christianshavn; Copenhagen; Copenhagen Municipality; Capital Region of Denmark; 1409; Denmark,twin room,flickr
https://farm2.staticflickr.com/1732/42052337154_26bf23c2bf_b.jpg,55.67558100000001,12.58472,2016-07-10 17:51:42,,,photo,0.0,Denmark,Slotsholmen; Christians Brygge; Christianshavn; Copenhagen; Copenhagen Municipality; Capital Region of Denmark; 1409; Denmark,twin room,flickr
https://farm5.staticflickr.com/4798/40783518151_81c18a9536_b.jpg,55.675787,12.58428,2016-07-11 10:48:32,,,photo,0.0,Denmark,Slotsholmen; Christians Brygge; Christianshavn; Copenhagen; Copenhagen Municipality; Capital Region of Denmark; 1409; Denmark,twin room,flickr
https://farm5.staticflickr.com/4798/40742675252_a7e2e21446_b.jpg,55.675842,12.584259,2016-07-10 17:53:32,,,photo,0.0,Denmark,Slotsholmen; Christians Brygge; Christianshavn; Copenhagen; Copenhagen Municipality; Capital Region of Denmark; 1409; Denmark,twin room,flickr
https://farm8.staticflickr.com/7384/14125208925_c9d55fec89_b.jpg,55.675569,12.584023,2014-05-06 21:26:44,,,photo,0.0,Denmark,Slotsholmen; Christians Brygge; Christianshavn; Copenhagen; Copenhagen Municipality; Capital Region of Denmark; 1409; Denmark,twin room,flickr
https://farm7.staticflickr.com/6082/6153905901_c907fb2a9e_b.jpg,55.642493,12.079911,2011-09-17 02:22:32,,,photo,0.0,Denmark,Roskilde Cathedral; Domkirkepladsen; Sankt Jørgensbjerg; Roskilde centrum; Roskilde; Roskilde Municipality; Region Zealand; 4000; Denmark,twin room,flickr
https://live.staticflickr.com/7110/7641733732_6f9ae0d596_o.jpg,55.6725,12.559167,2012-07-25 08:50:11,1884.0,1884.0,photo,0.0,Denmark,29A; Vesterbrogade; Meatpacking District; Vesterbro; Copenhagen; Copenhagen Municipality; Capital Region of Denmark; 1620; Denmark,superior double room,flickr
https://live.staticflickr.com/7272/7641734826_4d6ee6c010_o.jpg,55.672333,12.559000000000001,2012-07-25 08:50:28,1920.0,1920.0,photo,0.0,Denmark,29A; Vesterbrogade; Meatpacking District; Vesterbro; Copenhagen; Copenhagen Municipality; Capital Region of Denmark; 1620; Denmark,superior double room,flickr
https://live.staticflickr.com/8141/7641735608_be46d3d559_o.jpg,55.6725,12.559167,2012-07-25 08:50:41,1920.0,1920.0,photo,0.0,Denmark,29A; Vesterbrogade; Meatpacking District; Vesterbro; Copenhagen; Copenhagen Municipality; Capital Region of Denmark; 1620; Denmark,superior double room,flickr
https://live.staticflickr.com/8677/16185442778_12f964aabd_o.jpg,55.398757,10.392605,2013-03-25 11:41:14,3787.0,5681.0,photo,0.0,Denmark,Radisson Blu H.C. Andersen Hotel; Sortebrødre Stræde; Odense; Odense Kommune; Region of Southern Denmark; 5000; Denmark,standard suite room,flickr
https://live.staticflickr.com/678/20995712972_b9623128b4_o.jpg,55.681365,12.585021,2015-06-21 10:34:35,2716.0,4074.0,photo,0.0,Denmark,26; Kongens Nytorv; Frederiksstaden; Copenhagen; Copenhagen Municipality; Capital Region of Denmark; 1050; Denmark,standard suite room,flickr
https://farm2.staticflickr.com/1667/24945467205_00be8f3ebf_b.jpg,55.67634399999999,12.5806,2016-02-08 19:09:33,,,photo,0.0,Denmark,Slotsholmen; Christians Brygge; Christianshavn; Copenhagen; Copenhagen Municipality; Capital Region of Denmark; 1409; Denmark,queen room,flickr
https://live.staticflickr.com/3835/14923675927_907e84d2ee_o.jpg,55.327225,11.032716,2014-08-12 16:59:46,2448.0,3264.0,photo,0.0,Denmark,Denmark,queen room,flickr
https://live.staticflickr.com/3943/15125635513_999cae30d0_o.jpg,55.902386,12.518105,2014-09-20 23:33:26,531.0,800.0,photo,1.0,Denmark,7; Kokkedal Alle; Hørsholm; Hørsholm Municipality; Capital Region of Denmark; 2970; Denmark,queen room,flickr
https://live.staticflickr.com/4743/39577419704_21c0176a58_o.jpg,55.67627,12.580504,2017-08-16 12:38:32,3919.0,5879.0,photo,0.0,Denmark,Christiansborg Palace; Proviantpassagen; Christianshavn; Copenhagen; Copenhagen Municipality; Capital Region of Denmark; 1221; Denmark,queen room,flickr
https://farm4.staticflickr.com/3829/13892447363_98b83878d0_b.jpg,55.676306,12.580461,2014-03-05 14:55:55,,,photo,0.0,Denmark,Christiansborg Palace; Proviantpassagen; Christianshavn; Copenhagen; Copenhagen Municipality; Capital Region of Denmark; 1221; Denmark,queen room,flickr
