url,latitude,longitude,date,height,width,media,copyRight,country,address,keyword,source
https://live.staticflickr.com/620/22417913999_3ef6f61955_o.jpg,53.34229166666667,-6.2469800000000015,,,,,,Ireland,11; Boyne Street; Mansion House A ED; Dublin; County Dublin; Leinster; D02 AX07; Ireland,hotel,cameraforensics
http://orig05.deviantart.net/14f6/f/2011/296/2/e/lucario_by_chelseabarry-d4dqrha.jpg,53.34083333333334,-6.24233333333333,,,,,,Ireland,Carlingford Parade; Dublin; Dublin 2; Leinster; D02 HD59; Ireland,hotel,cameraforensics
https://live.staticflickr.com/7306/16392239045_a0433f627d_o.jpg,53.34699166666667,-6.240280555555558,,,,,,Ireland,Scherzer Lifting Bridge; North Wall Quay; North Dock C ED; North Dock; Dublin; County Dublin; Leinster; D01 E4X0; Ireland,hotel,cameraforensics
https://live.staticflickr.com/4370/36478690221_d4aef533f7_o.jpg,53.34693305555553,-6.23144136111111,,,,,,Ireland,The Point; North Wall Quay; North Dock B ED; North Dock; Dublin; County Dublin; Leinster; D01 Y161; Ireland,hotel,cameraforensics
https://live.staticflickr.com/4327/35994221381_18b15d8f36_o.jpg,53.3513,-6.23446111111111,,,,,,Ireland,Irvine Terrace; North Dock B ED; East Wall; Dublin; Dublin 3; Leinster; D01 Y161; Ireland,hotel,cameraforensics
https://live.staticflickr.com/1504/24536105762_b18a81d5be_o.jpg,53.34739166666667,-6.251280555555558,,,,,,Ireland,St Mary's Preschool; City Quay; Mansion House A ED; Dublin; County Dublin; Leinster; D02 ED70; Ireland,hotel,cameraforensics
https://live.staticflickr.com/7424/11409393053_8e3c5b6e90_o.jpg,53.34177777777778,-6.25008333333333,,,,,,Ireland,Davenport Hotel; 8-10; Merrion Street Lower; Mansion House A ED; Dublin; Dublin 2; Leinster; D02 TX65; Ireland,hotel,cameraforensics
https://live.staticflickr.com/4491/37629810632_b9d5515ca3_o.jpg,53.34015555555553,-6.236061111111113,,,,,,Ireland,Google Ireland Ltd; Barrow Street; Pembroke West A ED; Dublin; Dublin 4; Leinster; D04 TR29; Ireland,hotel,cameraforensics
https://live.staticflickr.com/8252/8560438343_2ca51b60e8_o.jpg,53.34751944444444,-6.2479361111111125,,,,,,Ireland,Sean O'Casey Bridge; North Dock C ED; North Dock; Dublin; County Dublin; Leinster; D01 KF84; Ireland,hotel,cameraforensics
https://live.staticflickr.com/648/31214117094_bf78527c22_o.jpg,53.34752305555556,-6.23816638888889,,,,,,Ireland,PricewaterhouseCoopers; Park Lane; North Dock B ED; North Dock; Dublin; County Dublin; Leinster; D01 T1W6; Ireland,hotel,cameraforensics
https://live.staticflickr.com/8115/8658394957_fbd0fd7eac_o.jpg,52.043611111111105,-9.49777777777778,,,,,,Ireland,Flesk Camping; Muckross Road; Killarney Rural; Killarney Municipal District; County Kerry; Munster; V93 V6WF; Ireland,hotel,cameraforensics
https://live.staticflickr.com/3674/9160268211_f496a872d5_o.jpg,52.04818055555555,-9.50650277777778,,,,,,Ireland,Muckross Road; Killarney Urban; Killarney Municipal District; County Kerry; Munster; V93 RT22; Ireland,hotel,cameraforensics
https://r-cf.bstatic.com/images/hotel/max1280x900/182/182163032.jpg,52.04362904,-9.50140357,,,,,,Ireland,The Gleneagle Hotel; Muckross Road; Killarney Rural; Killarney Municipal District; County Kerry; Munster; V93 V6WF; Ireland,hotel,cameraforensics
https://r-cf.bstatic.com/images/hotel/max1280x900/166/166141121.jpg,52.052309,-9.506822,,,,,,Ireland,Harmony Inn; Muckross Road; Killarney Urban; Killarney Municipal District; County Kerry; Munster; V93 FY7A; Ireland,hotel,cameraforensics
https://live.staticflickr.com/4464/38008254906_168f3caa2d_o.jpg,52.04574166666666,-9.50506944444444,,,,,,Ireland,Brehon Car Park; N71 Muckross Road; Killarney Rural; Killarney Municipal District; County Kerry; Munster; V93 RT22; Ireland,hotel,cameraforensics
https://live.staticflickr.com/7347/10317715275_acde4cf6c6_o.jpg,52.0445,-9.503,,,,,,Ireland,Mill Road; Killarney Rural; Killarney Municipal District; County Kerry; Munster; V93 V6WF; Ireland,hotel,cameraforensics
https://r-cf.bstatic.com/images/hotel/max1280x900/211/21178474.jpg,52.05073713,-9.50684041,,,,,,Ireland,Fuchsia House; Muckross Road; Killarney Urban; Killarney Municipal District; County Kerry; Munster; V93 RT22; Ireland,hotel,cameraforensics
https://r-cf.bstatic.com/images/hotel/max1280x900/201/201087885.jpg,52.049285,-9.510889,,,,,,Ireland,Killarney Urban; Killarney Municipal District; County Kerry; Munster; V93 RT22; Ireland,hotel,cameraforensics
https://q-cf.bstatic.com/images/hotel/max1280x900/223/223107464.jpg,52.051831,-9.505785000000001,,,,,,Ireland,Robeen House B&B; Woodlawn Road; Killarney Urban; Killarney Municipal District; County Kerry; Munster; V93 RT22; Ireland,hotel,cameraforensics
https://live.staticflickr.com/1680/24764596439_9e5839ca35_o.jpg,52.04667166666667,-9.50279666666667,,,,,,Ireland,Brehon Car Park; N71 Muckross Road; Killarney Rural; Killarney Municipal District; County Kerry; Munster; V93 RT22; Ireland,hotel,cameraforensics
https://live.staticflickr.com/65535/48098832086_56f55e507a_o.jpg,51.87360833333334,-9.5675,,,,,,Ireland,famine Grave; L11770; Kenmare; Kenmare Municipal District; County Kerry; Munster; V93 WF67; Ireland,hotel,cameraforensics
https://live.staticflickr.com/1451/26484882110_bb93dc805b_o.jpg,51.87431666666667,-9.56337222222222,,,,,,Ireland,Kenmare; Kenmare Municipal District; County Kerry; Munster; V93 X3XY; Ireland,hotel,cameraforensics
https://live.staticflickr.com/3686/9585309956_616d47014a_o.jpg,51.87478694444444,-9.56633083333333,,,,,,Ireland,famine Grave; L11770; Kenmare; Kenmare Municipal District; County Kerry; Munster; V93 WF67; Ireland,hotel,cameraforensics
https://live.staticflickr.com/4272/34802796461_b31ded4079_o.jpg,51.87423055555556,-9.56286666666667,,,,,,Ireland,Cappagh; Kenmare Municipal District; County Kerry; Munster; V93 WF67; Ireland,hotel,cameraforensics
https://live.staticflickr.com/7635/28681664972_7e5d5b444f_o.jpg,51.873908972222225,-9.563344944444447,,,,,,Ireland,Kenmare; Kenmare Municipal District; County Kerry; Munster; V93 X3XY; Ireland,hotel,cameraforensics
https://q-cf.bstatic.com/images/hotel/max1280x900/203/203064893.jpg,51.87364276,-9.56738591,,,,,,Ireland,famine Grave; L11770; Kenmare; Kenmare Municipal District; County Kerry; Munster; V93 WF67; Ireland,hotel,cameraforensics
https://live.staticflickr.com/6103/6267254863_a85770c04a_o.jpg,51.87433333333333,-9.56266666666667,,,,,,Ireland,Cappagh; Kenmare Municipal District; County Kerry; Munster; V93 WF67; Ireland,hotel,cameraforensics
https://live.staticflickr.com/744/23177806665_acdbdb44e2_o.jpg,51.87727777777778,-9.572975,,,,,,Ireland,Kenmare Golf Club; Pat Scarteen Road; Kenmare; Kenmare Municipal District; County Kerry; Munster; V93 XW8E; Ireland,hotel,cameraforensics
https://r-cf.bstatic.com/images/hotel/max1280x900/140/140684465.jpg,51.87358,-9.55406,,,,,,Ireland,Cappagh; Kenmare Municipal District; County Kerry; Munster; V93 WF67; Ireland,hotel,cameraforensics
https://r-cf.bstatic.com/images/hotel/max1280x900/140/140690263.jpg,51.87358,-9.55406,,,,,,Ireland,Cappagh; Kenmare Municipal District; County Kerry; Munster; V93 WF67; Ireland,hotel,cameraforensics
https://live.staticflickr.com/1830/42917522682_c417f9cf7a_o.jpg,53.03811666666667,-7.2767,,,,,,Ireland,Midland Regional Hospital Portlaoise; Chantiere Gate; Portlaoise Rural ED; The Municipal District of Portlaoise; County Laois; Leinster; R32 CP26; Ireland,hotel,cameraforensics
https://q-cf.bstatic.com/images/hotel/max1280x900/119/119810244.jpg,53.04014868,-7.27204531,,,,,,Ireland,The Killeshin; Ferndale; Portlaoise Rural ED; The Municipal District of Portlaoise; County Laois; Leinster; R32 APY0; Ireland,hotel,cameraforensics
https://r-cf.bstatic.com/images/hotel/max1280x900/318/31844247.jpg,53.04014868,-7.27204531,,,,,,Ireland,The Killeshin; Ferndale; Portlaoise Rural ED; The Municipal District of Portlaoise; County Laois; Leinster; R32 APY0; Ireland,hotel,cameraforensics
https://r-cf.bstatic.com/images/hotel/max1280x900/214/214306728.jpg,53.04014868,-7.27204531,,,,,,Ireland,The Killeshin; Ferndale; Portlaoise Rural ED; The Municipal District of Portlaoise; County Laois; Leinster; R32 APY0; Ireland,hotel,cameraforensics
https://q-cf.bstatic.com/images/hotel/max1280x900/214/214305705.jpg,53.04014868,-7.27204531,,,,,,Ireland,The Killeshin; Ferndale; Portlaoise Rural ED; The Municipal District of Portlaoise; County Laois; Leinster; R32 APY0; Ireland,hotel,cameraforensics
https://live.staticflickr.com/1793/42248306814_da21a666c6_o.jpg,53.0383388888889,-7.276575,,,,,,Ireland,Midland Regional Hospital Portlaoise; Chantiere Gate; Portlaoise Rural ED; The Municipal District of Portlaoise; County Laois; Leinster; R32 CP26; Ireland,hotel,cameraforensics
https://r-cf.bstatic.com/images/hotel/max1280x900/687/68774415.jpg,53.04014868,-7.27204531,,,,,,Ireland,The Killeshin; Ferndale; Portlaoise Rural ED; The Municipal District of Portlaoise; County Laois; Leinster; R32 APY0; Ireland,hotel,cameraforensics
https://live.staticflickr.com/1482/25954041183_a5b8fb7f1a_o.jpg,53.0465,-7.27233333333333,,,,,,Ireland,Collier's Way; Portlaoise Rural ED; The Municipal District of Portlaoise; County Laois; Leinster; R32 APY0; Ireland,hotel,cameraforensics
https://live.staticflickr.com/3712/13489965574_9780847075_o.jpg,53.04,-7.27166666666667,,,,,,Ireland,Dublin Road; Portlaoise Rural ED; The Municipal District of Portlaoise; County Laois; Leinster; R32 CP26; Ireland,hotel,cameraforensics
https://live.staticflickr.com/3731/13489607655_9ddcdd5aab_o.jpg,53.04,-7.27166666666667,,,,,,Ireland,Dublin Road; Portlaoise Rural ED; The Municipal District of Portlaoise; County Laois; Leinster; R32 CP26; Ireland,hotel,cameraforensics
https://live.staticflickr.com/4391/36302615520_b666f3772a_o.jpg,53.27683333333334,-9.04263611111111,,,,,,Ireland,Glenmore; Eyre Square; Galway City; County Galway; Connacht; H91 X4K8; Ireland,hotel,cameraforensics
https://live.staticflickr.com/5550/9669384576_388a894513_o.jpg,53.27166666666667,-9.0535,,,,,,Ireland,Galway Woollen Market; High Street; Eyre Square; Galway City; County Galway; Connacht; H91 E653; Ireland,hotel,cameraforensics
https://live.staticflickr.com/5816/21334423358_b416ffca2c_o.jpg,53.26896666666666,-9.04115555555556,,,,,,Ireland,Galway Harbour Enterprise Park; Lough Atalia; Galway City; County Galway; Connacht; H91 CYN3; Ireland,hotel,cameraforensics
https://live.staticflickr.com/1647/24462286914_d54c3890dd_o.jpg,53.273109416666664,-9.051807388888893,,,,,,Ireland,53; William Street; Eyre Square; Galway City; County Galway; Connacht; H91D2C4; Ireland,hotel,cameraforensics
https://live.staticflickr.com/4223/34772345831_60970bdb4d_o.jpg,53.27305555555557,-9.05611111111111,,,,,,Ireland,Persse Distillery (disused); Nun's Island; Galway City; County Galway; Connacht; H91 E1NY; Ireland,hotel,cameraforensics
https://live.staticflickr.com/7434/27529413934_880ec59a44_o.jpg,53.27245,-9.05349444444444,,,,,,Ireland,Sheridans Cheesemongers Limited; Churchyard Street; St Nicholas; Galway City; County Galway; Connacht; H91 E653; Ireland,hotel,cameraforensics
https://live.staticflickr.com/7418/27613105690_e86b34fe25_o.jpg,53.27412777777778,-9.0499,,,,,,Ireland,The Skeff; Eyre Square; Galway City; County Galway; Connacht; H91 YD86; Ireland,hotel,cameraforensics
https://live.staticflickr.com/7359/26810917030_3fbf23623c_o.jpg,53.26884722222222,-9.052194444444439,,,,,,Ireland,22; The Long Walk; Eyre Square; Galway City; County Galway; Connacht; H91 F5TE; Ireland,hotel,cameraforensics
https://live.staticflickr.com/5601/15351878180_9424b28c9b_o.jpg,53.27248055555553,-9.05346666666667,,,,,,Ireland,Sheridans Cheesemongers Limited; Churchyard Street; St Nicholas; Galway City; County Galway; Connacht; H91 E653; Ireland,hotel,cameraforensics
https://live.staticflickr.com/3954/15537509005_eedbbb6747_o.jpg,53.273511111111105,-9.05155277777778,,,,,,Ireland,Eir; William Street; Eyre Square; Galway City; County Galway; Connacht; H91D2C4; Ireland,hotel,cameraforensics
https://live.staticflickr.com/3771/12871820883_f9c2f36bfa_o.jpg,52.56466666666667,-8.78883333333333,,,,,,Ireland,Trinitarian Abbey; Main Street; Adare South; The Municipal District of Adare — Rathkeale; County Limerick; Munster; V94 CYR6; Ireland,hotel,cameraforensics
https://live.staticflickr.com/421/31215761740_a1155a858b_o.jpg,52.56361666666667,-8.792352777777781,,,,,,Ireland,Adare Post Office; Main Street; Adare South; The Municipal District of Adare — Rathkeale; County Limerick; Munster; V94 CYR6; Ireland,hotel,cameraforensics
https://live.staticflickr.com/5499/9861046193_de68cf1216_o.jpg,52.563,-8.79516666666667,,,,,,Ireland,Adare South; The Municipal District of Adare — Rathkeale; County Limerick; Munster; V94 CYR6; Ireland,hotel,cameraforensics
https://live.staticflickr.com/2859/34131452975_bfec42be35_o.jpg,52.56468333333333,-8.78943333333333,,,,,,Ireland,Trinitarian Abbey; Main Street; Adare South; The Municipal District of Adare — Rathkeale; County Limerick; Munster; V94 CYR6; Ireland,hotel,cameraforensics
https://live.staticflickr.com/2908/33288999374_fcd6f9c7b4_o.jpg,52.56468611111111,-8.78943611111111,,,,,,Ireland,Trinitarian Abbey; Main Street; Adare South; The Municipal District of Adare — Rathkeale; County Limerick; Munster; V94 CYR6; Ireland,hotel,cameraforensics
https://live.staticflickr.com/7445/12596297664_68e5e6237d_o.jpg,52.564873999999996,-8.786649,,,,,,Ireland,Adare Cottage; Main Street; Adare South; The Municipal District of Adare — Rathkeale; County Limerick; Munster; V94 CYR6; Ireland,hotel,cameraforensics
https://live.staticflickr.com/7498/15070618494_313dc06fc9_o.jpg,52.56882777777778,-8.78413888888889,,,,,,Ireland,N21; Adare South; The Municipal District of Adare — Rathkeale; County Limerick; Munster; V94 CYR6; Ireland,hotel,cameraforensics
http://static.panoramio.com/photos/original/25646670.jpg,52.5673513888889,-8.78378388888889,,,,,,Ireland,N21; Adare South; The Municipal District of Adare — Rathkeale; County Limerick; Munster; V94 CYR6; Ireland,hotel,cameraforensics
https://live.staticflickr.com/5824/21763601560_5f222ef043_o.jpg,52.56245833333333,-8.78028611111111,,,,,,Ireland,Clubhouse; N21; Adare South; The Municipal District of Adare — Rathkeale; County Limerick; Munster; V94 CYR6; Ireland,hotel,cameraforensics
https://live.staticflickr.com/3739/10876441676_28b35e1d51_o.jpg,52.56219399999999,-8.779879,,,,,,Ireland,Clubhouse; N21; Adare South; The Municipal District of Adare — Rathkeale; County Limerick; Munster; V94 CYR6; Ireland,hotel,cameraforensics
https://live.staticflickr.com/4364/36482372106_97239885b1_o.jpg,53.345591666666664,-6.2643083333333305,,,,,,Ireland,Temple Bar; College Green; Royal Exchange A ED; Dublin; Dublin 2; Leinster; D02 H684; Ireland,hotel,cameraforensics
https://live.staticflickr.com/700/30704297424_685a704586_o.jpg,53.344885777777776,-6.26516102777778,,,,,,Ireland,Temple Bar; College Green; Royal Exchange A ED; Dublin; Dublin 2; Leinster; D02 H684; Ireland,hotel,cameraforensics
https://live.staticflickr.com/7469/29930098141_be671b66f3_o.jpg,53.344595,-6.26932166666667,,,,,,Ireland,Temple Bar; College Green; Royal Exchange A ED; Dublin; Dublin 2; Leinster; D02 H684; Ireland,hotel,cameraforensics
https://live.staticflickr.com/4370/36834308942_3dfe40f873_o.jpg,53.34605,-6.263541666666669,,,,,,Ireland,10; Temple Bar; Royal Exchange A ED; Dublin; County Dublin; Leinster; D02 C446; Ireland,hotel,cameraforensics
https://live.staticflickr.com/5551/29433445863_714fb72fd7_o.jpg,53.345977777777776,-6.2796194444444415,,,,,,Ireland,Irish Council for Civil Liberties; 34; Usher's Quay; Merchants Quay A ED; Dublin; Dublin 8; Leinster; D07 HK38; Ireland,hotel,cameraforensics
https://live.staticflickr.com/686/21511650065_12b8434c2b_o.jpg,53.33941666666666,-6.27210277777778,,,,,,Ireland,St. Patrick's Cathedral; Patrick Street; Wood Quay A ED; Dublin; Dublin 8; Leinster; D08 KA43; Ireland,hotel,cameraforensics
https://drscdn.500px.org/photo/215500643/m%3D2048_k%3D1_a%3D1/da40cb4e473799e239aac563b546101a,53.34323833333333,-6.27174666666667,,,,,,Ireland,Dublinia; St Michael's Hill; Wood Quay A ED; Dublin; Dublin 8; Leinster; D08 RF3F; Ireland,hotel,cameraforensics
https://live.staticflickr.com/7395/27161887900_e75639435b_o.jpg,53.34327777777778,-6.26788055555556,,,,,,Ireland,16; Castle Street; Royal Exchange A ED; Dublin; County Dublin; Leinster; D02 V593; Ireland,hotel,cameraforensics
https://live.staticflickr.com/5794/21447816843_194b27cb55_o.jpg,53.34520277777778,-6.27088055555556,,,,,,Ireland,Dublin City Council; Wood Quay; Wood Quay A ED; Dublin; Dublin 8; Leinster; D08 RF3F; Ireland,hotel,cameraforensics
https://drscdn.500px.org/photo/12013771/q%3D80_m%3D2000/v2?webp=true&sig=b5464d4d2485b8f47a98c77d9816c67f815b50f6dba6df7a7fa96ee8649edffd,53.34483333333333,-6.26433333333333,,,,,,Ireland,Temple Bar; College Green; Royal Exchange A ED; Dublin; Dublin 2; Leinster; D02 H684; Ireland,hotel,cameraforensics
https://live.staticflickr.com/1450/23772712773_8bd1bc5578_o.jpg,52.059294444444454,-9.50198611111111,,,,,,Ireland,Killarney Outlet Centre; Fairhill; Killarney Urban; Killarney Municipal District; County Kerry; Munster; V93 H2C0; Ireland,hotel,cameraforensics
https://live.staticflickr.com/7323/12640906633_dbba7f37ca_o.jpg,52.05866666666667,-9.50783333333333,,,,,,Ireland,Olde Sweet Shop; Plunkett Street; Killarney Urban; Killarney Municipal District; County Kerry; Munster; V93 EFP1; Ireland,hotel,cameraforensics
https://r-cf.bstatic.com/images/hotel/max1280x900/446/44689789.jpg,52.05266009,-9.49752326,,,,,,Ireland,Ash Grove; Killarney Urban; Killarney Municipal District; County Kerry; Munster; V93 V6WF; Ireland,hotel,cameraforensics
https://live.staticflickr.com/65535/49368886752_c0064387cb_o.jpg,52.05865,-9.50778333333333,,,,,,Ireland,Reen's Pharmacy; Plunkett Street; Killarney Urban; Killarney Municipal District; County Kerry; Munster; V93 EFP1; Ireland,hotel,cameraforensics
https://live.staticflickr.com/65535/48003879516_c57809562e_o.jpg,52.058986111111096,-9.503486111111107,,,,,,Ireland,The Malton; The Willow; Killarney Urban; Killarney Municipal District; County Kerry; Munster; V93 R866; Ireland,hotel,cameraforensics
https://live.staticflickr.com/960/40967516394_ea52b327b2_o.jpg,52.05913611111111,-9.506719444444439,,,,,,Ireland,R & B Restaurant; 8; College Street; Killarney Urban; Killarney Municipal District; County Kerry; Munster; V93 AYP9; Ireland,hotel,cameraforensics
https://q-cf.bstatic.com/images/hotel/max1280x900/121/121706978.jpg,52.053236,-9.50640321,,,,,,Ireland,Dromhall Hotel; Muckross Road; Killarney Urban; Killarney Municipal District; County Kerry; Munster; V93 FY7A; Ireland,hotel,cameraforensics
https://r-cf.bstatic.com/images/hotel/max1280x900/655/65554284.jpg,52.05965488,-9.50595796,,,,,,Ireland,Arbutus Hotel; College Street; Killarney Urban; Killarney Municipal District; County Kerry; Munster; V93 AYP9; Ireland,hotel,cameraforensics
https://live.staticflickr.com/7115/8155172623_0ce33eb07d_o.jpg,53.28120333333333,-9.03265666666667,,,,,,Ireland,402; 404; 405; 409; Dublin Road; Lough Atalia; Galway City; County Galway; Connacht; H91 D3T0; Ireland,hotel,cameraforensics
https://live.staticflickr.com/1560/25705233343_e19bf8f0cb_o.jpg,53.28455,-9.02493611111111,,,,,,Ireland,8; Tara Grove; Wellpark; Galway City; County Galway; Connacht; H91 D3T0; Ireland,hotel,cameraforensics
https://live.staticflickr.com/3799/11913419626_6ee918385e_o.jpg,53.28183972222222,-9.019757222222221,,,,,,Ireland,Mervue United AFC; Quinn Terrace; Wellpark; Galway City; County Galway; Connacht; H91VP7V; Ireland,hotel,cameraforensics
https://live.staticflickr.com/3942/14916884974_39106c3715_o.jpg,53.27377222222222,-9.02834166666667,,,,,,Ireland,54; Renmore Road; Renmore; Galway City; County Galway; Connacht; H91 D3T0; Ireland,hotel,cameraforensics
https://q-cf.bstatic.com/images/hotel/max1280x900/147/147692823.jpg,53.281636999999996,-9.029414599999999,,,,,,Ireland,8; The Village; Wellpark; Galway City; County Galway; Connacht; H91 D3T0; Ireland,hotel,cameraforensics
https://q-cf.bstatic.com/images/hotel/max1280x900/239/2392189.jpg,53.28155723,-9.03225303,,,,,,Ireland,The G; Dublin Road; Wellpark; Galway City; County Galway; Connacht; H91 D3T0; Ireland,hotel,cameraforensics
https://live.staticflickr.com/2886/13282380394_941dd1beff_o.jpg,53.28183333333333,-9.0335,,,,,,Ireland,Dublin Road; Wellpark; Galway City; County Galway; Connacht; H91 D3T0; Ireland,hotel,cameraforensics
https://36.media.tumblr.com/25b63e1ae89d4653142c06700c8d365b/tumblr_o478iabEVm1ufd8dzo1_1280.jpg,53.285281999999995,-9.018952,,,,,,Ireland,McDermot Avenue; Parnell Avenue; Mervue; Galway City; County Galway; Connacht; H91VP7V; Ireland,hotel,cameraforensics
https://live.staticflickr.com/5343/7003934500_73c1bec20e_o.jpg,53.278,-9.01416666666667,,,,,,Ireland,Flannerys Hotel Galway; Dublin Road; Renmore; Galway City; County Galway; Connacht; H91 F62K; Ireland,hotel,cameraforensics
https://live.staticflickr.com/7138/8155181291_41fe866ca7_o.jpg,53.27986833333333,-9.03503166666667,,,,,,Ireland,bikeshare.ie; Lough Atalia Road; Lough Atalia; Galway City; County Galway; Connacht; H91 X4K8; Ireland,hotel,cameraforensics
https://live.staticflickr.com/7161/26303358634_6f6fe10279_o.jpg,53.337875,-6.2621694444444405,,,,,,Ireland,Ardilaun Lodge; St. Stephen's Green; Dublin; County Dublin; Leinster; D02 HD86; Ireland,hotel,cameraforensics
https://live.staticflickr.com/7372/14062484474_5ac8016e14_o.jpg,53.34106552001389,-6.25845671999722,,,,,,Ireland,45; Dawson Street; Dublin; Dublin 2; Leinster; D02 AW24; Ireland,hotel,cameraforensics
https://live.staticflickr.com/4393/36170589362_24ff5f4073_o.jpg,53.33939719444444,-6.25835555555556,,,,,,Ireland,16; St. Stephen's Green; Dublin; Dublin 2; Leinster; D02 EK82; Ireland,hotel,cameraforensics
https://live.staticflickr.com/5671/31231048526_14f0f0c388_o.jpg,53.3384138888889,-6.261275,,,,,,Ireland,Lord Ardilaun; St. Stephen's Green; Royal Exchange B ED; Dublin; County Dublin; Leinster; D02 NY74; Ireland,hotel,cameraforensics
https://live.staticflickr.com/5685/23963096796_39ed3d5a14_o.jpg,53.34051944444445,-6.26067777777778,,,,,,Ireland,Foot Locker; 44; Grafton Street; Royal Exchange B ED; Dublin; Dublin 2; Leinster; D02 K198; Ireland,hotel,cameraforensics
https://live.staticflickr.com/8522/8453802705_59ab2fbd6c_o.jpg,53.34,-6.26066666666667,,,,,,Ireland,51-51A; Grafton Street; Royal Exchange B ED; Dublin; Dublin 2; Leinster; D02 NY74; Ireland,hotel,cameraforensics
https://live.staticflickr.com/8553/28906577114_4f2a13bb7f_o.jpg,53.33748888888889,-6.2631611111111125,,,,,,Ireland,Stephen's Green Hotel; Montague Lane; Royal Exchange B ED; Dublin; County Dublin; Leinster; D02 VH98; Ireland,hotel,cameraforensics
https://live.staticflickr.com/1696/26169224595_908c2e0d18_o.jpg,53.34058333333333,-6.25961666666667,,,,,,Ireland,Kerlin Gallery; Anne's Lane; Dublin; County Dublin; Leinster; D02 VF29; Ireland,hotel,cameraforensics
https://live.staticflickr.com/1582/26026380490_a447d457de_o.jpg,53.338488888888904,-6.25909166666667,,,,,,Ireland,Constance Markievicz; O'Connell Bridge; Dublin; County Dublin; Leinster; D02 TK33; Ireland,hotel,cameraforensics
https://live.staticflickr.com/1602/25892565650_3773c32c72_o.jpg,53.338561111111105,-6.261669444444442,,,,,,Ireland,Royal College of Surgeons in Ireland; St. Stephen's Green; Royal Exchange B ED; Dublin; Dublin 2; Leinster; D02 VH98; Ireland,hotel,cameraforensics
https://live.staticflickr.com/7566/28047340771_d67615ff6f_o.jpg,53.33911833333333,-6.2643783333333305,,,,,,Ireland,Tutty's Corner Shop; Mercer Street; Royal Exchange B ED; Dublin; Dublin 2; Leinster; D02 AY81; Ireland,hotel,cameraforensics
https://live.staticflickr.com/2842/9468855127_9327cd6a0e_o.jpg,53.330819327361105,-6.26956508494444,,,,,,Ireland,2; Walworth Road; Portobello; Wood Quay B ED; Dublin; Dublin 8; Leinster; D08 E0C0; Ireland,hotel,cameraforensics
https://live.staticflickr.com/8125/8903284659_e398134ba2_o.jpg,53.33266666666667,-6.26633333333333,,,,,,Ireland,40; Harrington Street; Portobello; Saint Kevin's; Dublin; Dublin 2; Leinster; DO8 XTN5; Ireland,hotel,cameraforensics
https://live.staticflickr.com/5327/17031130043_62e4e2f488_o.jpg,53.34939955555557,-6.25955580555556,,,,,,Ireland,28; O'Connell Street Lower; North City ED; Dublin; Dublin 1; Leinster; D01 P5P5; Ireland,hotel,cameraforensics
https://live.staticflickr.com/3873/14543550552_6a1e6de622_o.jpg,53.3457,-6.261930555555558,,,,,,Ireland,Temple Bar; College Green; Royal Exchange A ED; Dublin; Dublin 2; Leinster; D02 H684; Ireland,hotel,cameraforensics
https://live.staticflickr.com/5522/30672458714_f043931ba1_o.jpg,53.34573611111111,-6.2606419444444406,,,,,,Ireland,Temple Bar; College Green; Royal Exchange A ED; Dublin; Dublin 2; Leinster; D02 H684; Ireland,hotel,cameraforensics
https://live.staticflickr.com/3506/4038887203_79f975ab6b_o.jpg,52.66583333333333,-8.54533333333333,,,,,,Ireland,Castletroy College; Castlebrook Green; Castlebrook Manor; Annacotty; Ballysimon; The Metropolitan District of Limerick City; County Limerick; Munster; V94 YD8P; Ireland,hotel,cameraforensics
https://live.staticflickr.com/5156/6950534100_17ddd5d03e_o.jpg,52.667,-8.555666666666669,,,,,,Ireland,5; Whitethorns; Castletroy; Ballysimon; The Metropolitan District of Limerick City; County Limerick; Munster; V94 A6F4; Ireland,hotel,cameraforensics
https://live.staticflickr.com/5493/11345785814_8aa0dd9b87_o.jpg,52.66416666666667,-8.55533333333333,,,,,,Ireland,Monaleen Heights; Castletroy; Ballysimon; The Metropolitan District of Limerick City; County Limerick; Munster; V94 A6F4; Ireland,hotel,cameraforensics
https://live.staticflickr.com/4149/4957082341_f509121507_o.jpg,52.66395388888889,-8.5591525,,,,,,Ireland,Saint Mary Magdalene; Monaleen Road; Monaleen Heights; Castletroy; Ballysimon; The Metropolitan District of Limerick City; County Limerick; Munster; V94 A6F4; Ireland,hotel,cameraforensics
https://live.staticflickr.com/4138/4821943609_0e955329fa_o.jpg,52.662222222222226,-8.55055555555556,,,,,,Ireland,Annacotty; Ballysimon; The Metropolitan District of Limerick City; County Limerick; Munster; V94 A6F4; Ireland,hotel,cameraforensics
https://live.staticflickr.com/4101/4821933295_ba42f7b08c_o.jpg,52.67111111111111,-8.55638888888889,,,,,,Ireland,Maguires Pitches; Plassey Park Road; Ballyvarra; The Metropolitan District of Limerick City; County Limerick; Munster; V94 A6F4; Ireland,hotel,cameraforensics
https://live.staticflickr.com/3141/2708112954_5965759d33_o.jpg,52.66850833299971,-8.5537,,,,,,Ireland,Kilmurry Lodge Hotel; Kilmurry Roundabout; Castletroy; Ballysimon; The Metropolitan District of Limerick City; County Limerick; Munster; V94 A6F4; Ireland,hotel,cameraforensics
https://q-cf.bstatic.com/images/hotel/max1280x900/115/115203497.jpg,52.66849723,-8.55370402,,,,,,Ireland,Kilmurry Lodge Hotel; Kilmurry Roundabout; Castletroy; Ballysimon; The Metropolitan District of Limerick City; County Limerick; Munster; V94 A6F4; Ireland,hotel,cameraforensics
https://live.staticflickr.com/8504/8295176607_6991790e17_o.jpg,52.67383333333333,-8.54983333333333,,,,,,Ireland,McLoughlan Road; Plassey Park Industrial/Commercial Area; Ballyvarra; The Metropolitan District of Limerick City; County Limerick; Munster; V94 YD8P; Ireland,hotel,cameraforensics
https://live.staticflickr.com/7196/6904480269_487d92f031_o.jpg,52.66716666666667,-8.556000000000001,,,,,,Ireland,8; Whitethorns; Castletroy; Ballysimon; The Metropolitan District of Limerick City; County Limerick; Munster; V94 A6F4; Ireland,hotel,cameraforensics
https://live.staticflickr.com/2904/14478720484_1b118a7cd5_o.jpg,51.899825,-8.47682777777778,,,,,,Ireland,Cock Pit Lane; City Centre; Centre B; Cork; County Cork; Munster; T12 F773; Ireland,hotel,cameraforensics
https://live.staticflickr.com/771/32932930302_c77261ccce_o.jpg,51.897777777777776,-8.47361111111111,,,,,,Ireland,The English Market; Market Parade; English Market; Centre A; Cork; County Cork; Munster; T12 NC8Y; Ireland,hotel,cameraforensics
https://live.staticflickr.com/3792/11135906206_e1c73de9f2_o.jpg,51.90141666666667,-8.46602222222222,,,,,,Ireland,Brú Bar & Hostel; 57; MacCurtain Street; St. Patrick's A; Cork; County Cork; Munster; T23EEC3; Ireland,hotel,cameraforensics
https://live.staticflickr.com/1711/26490882991_d6fd806d69_o.jpg,51.8995,-8.47233333333333,,,,,,Ireland,99; Lavitt's Quay; City Centre; Centre B; Cork; County Cork; Munster; T12 HT78; Ireland,hotel,cameraforensics
https://live.staticflickr.com/537/31656685141_1f61f9b0e1_o.jpg,51.901633333333336,-8.45866944444444,,,,,,Ireland,Platform 4; Alfred Street; St. Patrick's A; Cork; County Cork; Munster; T23 E6TD; Ireland,hotel,cameraforensics
https://live.staticflickr.com/2807/33221037271_caee520ec4_o.jpg,51.89881111111111,-8.47760833333333,,,,,,Ireland,Vicarstown Bar; 52; North Main Street; City Centre; Centre B; Cork; County Cork; Munster; T12 X32D; Ireland,hotel,cameraforensics
https://live.staticflickr.com/1697/24990813299_a8bd800857_o.jpg,51.89810277777778,-8.4711,,,,,,Ireland,113; Oliver Plunkett Street; Centre A; Cork; County Cork; Munster; T12 T853; Ireland,hotel,cameraforensics
https://live.staticflickr.com/4236/35699538936_140a0a4d38_o.jpg,51.901675,-8.45819166666667,,,,,,Ireland,Cork Kent Station Concourse & Ticket Hall; St. Patrick's A; Cork; County Cork; Munster; T23 E6TD; Ireland,hotel,cameraforensics
https://live.staticflickr.com/554/19722036486_39aa037e25_o.jpg,51.898941027777774,-8.46503161111111,,,,,,Ireland,Clayton Hotel; Clontarf Street; Centre A; Cork; County Cork; Munster; T12 KCW0; Ireland,hotel,cameraforensics
http://static.panoramio.com/photos/original/73623898.jpg,51.90274166666666,-8.45880833333333,,,,,,Ireland,Moynihan's Bar; Lower Glanmire Road; St. Patrick's A; Cork; County Cork; Munster; T23 EK0E; Ireland,hotel,cameraforensics
https://live.staticflickr.com/4535/38061385284_847380dab3_o.jpg,51.48341388888889,-9.373055555555561,,,,,,Ireland,Beacon Shore Guesthouse; R595; Tullagh; West Cork; County Cork; Munster; P81 RH93; Ireland,hotel,cameraforensics
https://live.staticflickr.com/2918/14235752099_c2824c16b6_o.jpg,51.4835,-9.37283333333333,,,,,,Ireland,The Algiers Inn; R595; Tullagh; West Cork; County Cork; Munster; P81 RH93; Ireland,hotel,cameraforensics
https://r-cf.bstatic.com/images/hotel/max1280x900/131/131613461.jpg,51.48462019,-9.3691383,,,,,,Ireland,Tullagh; West Cork; County Cork; Munster; P81 VP77; Ireland,hotel,cameraforensics
https://r-cf.bstatic.com/images/hotel/max1280x900/621/62109633.jpg,51.48456823,-9.36252683,,,,,,Ireland,Caseys of Baltimore; R595; Tullagh; West Cork; County Cork; Munster; P81 YN12; Ireland,hotel,cameraforensics
https://q-cf.bstatic.com/images/hotel/max1280x900/144/144221047.jpg,51.48390988,-9.37098993,,,,,,Ireland,Tullagh; West Cork; County Cork; Munster; P81 RH93; Ireland,hotel,cameraforensics
https://live.staticflickr.com/4381/36936810485_3e10588490_o.jpg,51.48624444444444,-9.371216666666667,,,,,,Ireland,Tullagh; West Cork; County Cork; Munster; P81 VP77; Ireland,hotel,cameraforensics
https://live.staticflickr.com/6052/6275349645_cbf4de9315_o.jpg,51.48416666666667,-9.37383333333333,,,,,,Ireland,Tullagh; West Cork; County Cork; Munster; P81 VP77; Ireland,hotel,cameraforensics
https://q-cf.bstatic.com/images/hotel/max1280x900/137/137506734.jpg,51.48550477,-9.37068692,,,,,,Ireland,Tullagh; West Cork; County Cork; Munster; P81 VP77; Ireland,hotel,cameraforensics
https://q-cf.bstatic.com/images/hotel/max1280x900/137/137511171.jpg,51.48550477,-9.37068692,,,,,,Ireland,Tullagh; West Cork; County Cork; Munster; P81 VP77; Ireland,hotel,cameraforensics
https://r-cf.bstatic.com/images/hotel/max1280x900/150/150601416.jpg,51.48451899,-9.36630695,,,,,,Ireland,Father Cashman Community Centre; R595; Tullagh; West Cork; County Cork; Munster; P81 VP77; Ireland,hotel,cameraforensics
https://live.staticflickr.com/5673/30064708401_dc7b1470e7_o.jpg,53.35950833333333,-6.263988611111111,,,,,,Ireland,Saint Joseph's Street; Inns Quay A ED; Dublin; Dublin 7; Leinster; D01 C2F6; Ireland,hotel,cameraforensics
https://live.staticflickr.com/8519/28523974333_19caa67fdb_o.jpg,53.349444999999996,-6.26027833333333,,,,,,Ireland,General Post Office; O'Connell Street Lower; North City ED; Dublin; Dublin 1; Leinster; D01 F5P2; Ireland,hotel,cameraforensics
https://live.staticflickr.com/7410/9277554295_98b3db616a_o.jpg,53.34980555555556,-6.26031111111111,,,,,,Ireland,Spire of Dublin; O'Connell Street Upper; North City ED; Dublin; County Dublin; Leinster; D01 P5P5; Ireland,hotel,cameraforensics
https://live.staticflickr.com/4372/36957899882_143a16ccf2_o.jpg,53.34881944444444,-6.26906388888889,,,,,,Ireland,Arisu Sushi & BBQ; 119; Capel Street; North City ED; Dublin; Dublin 1; Leinster; D01 PX00; Ireland,hotel,cameraforensics
https://live.staticflickr.com/3938/15553901895_d01b95caf7_o.jpg,53.34943055555557,-6.260061111111113,,,,,,Ireland,Temporary Stop - O'Connell Street; North Earl Street; O'Connell Street Lower; North City ED; Dublin; County Dublin; Leinster; D01 P5P5; Ireland,hotel,cameraforensics
https://live.staticflickr.com/2874/13541394443_deba9b862f_o.jpg,53.34933055555555,-6.260069444444442,,,,,,Ireland,General Post Office; O'Connell Street Lower; North City ED; Dublin; Dublin 1; Leinster; D01 F5P2; Ireland,hotel,cameraforensics
https://live.staticflickr.com/2819/10932783534_ff1267a85d_o.jpg,53.36033333333334,-6.260833333333332,,,,,,Ireland,Dorset Street; North Circular Road; Dorset Street Lower; Inns Quay A ED; Dublin; County Dublin; Leinster; D01 C2F6; Ireland,hotel,cameraforensics
https://live.staticflickr.com/2950/15386126812_d7c4466781_o.jpg,53.34728611111111,-6.26867777777778,,,,,,Ireland,22; Capel Street; North City ED; Dublin; County Dublin; Leinster; D01 PX00; Ireland,hotel,cameraforensics
https://live.staticflickr.com/5698/21700950530_48392ddaff_o.jpg,53.34749722222222,-6.2627833333333305,,,,,,Ireland,Fusion Grill; North Lotts; North City ED; Dublin; Dublin 1; Leinster; D01 PK22; Ireland,hotel,cameraforensics
https://live.staticflickr.com/5296/30160122396_eda076b807_o.jpg,53.2786111111111,-9.040555555555553,,,,,,Ireland,Main Stand; The Green; Eyre Square; Galway City; County Galway; Connacht; H91 X4K8; Ireland,hotel,cameraforensics
https://live.staticflickr.com/1610/23875167360_fef4330e06_o.jpg,53.28147666666667,-9.04366638888889,,,,,,Ireland,Liam Mellowes Terrace; St Nicholas; Galway City; County Galway; Connacht; H91 F656; Ireland,hotel,cameraforensics
https://r-cf.bstatic.com/images/hotel/max1280x900/119/119824857.jpg,53.27945132,-9.03718573,,,,,,Ireland,College Road; Eyre Square; Galway City; County Galway; Connacht; H91 X4K8; Ireland,hotel,cameraforensics
https://q-cf.bstatic.com/images/hotel/max1280x900/123/123347846.jpg,53.27979799,-9.03696835,,,,,,Ireland,The Sportsground; Lough Atalia Road; Eyre Square; Galway City; County Galway; Connacht; H91 CYN3; Ireland,hotel,cameraforensics
https://q-cf.bstatic.com/images/hotel/max1280x900/136/136458253.jpg,53.27937382,-9.04492944,,,,,,Ireland,Cill Ard; St Nicholas; Galway City; County Galway; Connacht; H91 X4K8; Ireland,hotel,cameraforensics
https://r-cf.bstatic.com/images/hotel/max1280x900/165/165844018.jpg,53.27765537,-9.0403077,,,,,,Ireland,25; College Road; Eyre Square; Galway City; County Galway; Connacht; H91 X4K8; Ireland,hotel,cameraforensics
https://live.staticflickr.com/7559/15593196047_cb598e7fd2_o.jpg,53.27865555555553,-9.04496388888889,,,,,,Ireland,152; Bohermore; Eyre Square; Galway City; County Galway; Connacht; H91 YD86; Ireland,hotel,cameraforensics
https://live.staticflickr.com/7017/6817347109_484ce6f521_o.jpg,53.2865,-9.04316666666667,,,,,,Ireland,Ford; Sandyroad; Castlegar; Galway City; County Galway; Connacht; H91 F656; Ireland,hotel,cameraforensics
https://q-cf.bstatic.com/images/hotel/max1280x900/133/133218566.jpg,53.84461329999999,-9.237243699999999,,,,,,Ireland,Breaffy Woods Hotel; Breaffy Road; Demesne; Breaghwy Electoral Division; Castlebar Municipal District; County Mayo; Connacht; F23 YC91; Ireland,hotel,cameraforensics
https://q-cf.bstatic.com/images/hotel/max1280x900/318/31829371.jpg,53.84369098,-9.23887968,,,,,,Ireland,Breaffy House; Breaffy Road; Demesne; Breaghwy Electoral Division; Castlebar Municipal District; County Mayo; Connacht; F23 YC91; Ireland,hotel,cameraforensics
https://r-cf.bstatic.com/images/hotel/max1280x900/481/48172203.jpg,53.84346310000001,-9.23641205,,,,,,Ireland,Leisure Club & Spa; Breaffy Road; Demesne; Breaghwy Electoral Division; Castlebar Municipal District; County Mayo; Connacht; F23 YC91; Ireland,hotel,cameraforensics
https://q-cf.bstatic.com/images/hotel/max1280x900/481/48172476.jpg,53.84346310000001,-9.23641205,,,,,,Ireland,Leisure Club & Spa; Breaffy Road; Demesne; Breaghwy Electoral Division; Castlebar Municipal District; County Mayo; Connacht; F23 YC91; Ireland,hotel,cameraforensics
https://q-cf.bstatic.com/images/hotel/max1280x900/436/4360239.jpg,53.84798244,-9.24247384,,,,,,Ireland,Woodview Lodge; Breaffy Road; Demesne; Breaghwy Electoral Division; Castlebar Municipal District; County Mayo; Connacht; F23 YC91; Ireland,hotel,cameraforensics
https://q-cf.bstatic.com/images/hotel/max1280x900/481/48163978.jpg,53.84369098,-9.23887968,,,,,,Ireland,Breaffy House; Breaffy Road; Demesne; Breaghwy Electoral Division; Castlebar Municipal District; County Mayo; Connacht; F23 YC91; Ireland,hotel,cameraforensics
https://live.staticflickr.com/8170/7916798386_5310b72624_o.jpg,53.843999999999994,-9.23866666666667,,,,,,Ireland,Breaffy House; Breaffy Road; Demesne; Breaghwy Electoral Division; Castlebar Municipal District; County Mayo; Connacht; F23 YC91; Ireland,hotel,cameraforensics
https://live.staticflickr.com/7374/11487816643_7d0722c2ae_o.jpg,53.84416666666667,-9.238999999999999,,,,,,Ireland,Breaffy House; Breaffy Road; Demesne; Breaghwy Electoral Division; Castlebar Municipal District; County Mayo; Connacht; F23 YC91; Ireland,hotel,cameraforensics
https://r-cf.bstatic.com/images/hotel/max1280x900/465/46506958.jpg,53.84346310000001,-9.23641205,,,,,,Ireland,Leisure Club & Spa; Breaffy Road; Demesne; Breaghwy Electoral Division; Castlebar Municipal District; County Mayo; Connacht; F23 YC91; Ireland,hotel,cameraforensics
https://drscdn.500px.org/photo/215824477/m%3D2048_k%3D1_a%3D1/788f34ca5846f51a0a1adb1ad23cd835,53.84381833333333,-9.238505,,,,,,Ireland,Breaffy House; Breaffy Road; Demesne; Breaghwy Electoral Division; Castlebar Municipal District; County Mayo; Connacht; F23 YC91; Ireland,hotel,cameraforensics
https://live.staticflickr.com/8880/17861119358_4456e9e74c_o.jpg,52.8526,-9.438155,,,,,,Ireland,R482; Milltown Malbay; West Clare Municipal District; County Clare; Munster; V95 V9Y8; Ireland,hotel,cameraforensics
https://live.staticflickr.com/7300/9188791450_05c0a74051_o.jpg,52.84483333333333,-9.43516666666667,,,,,,Ireland,Spanish Point Beach; R482; Milltown Malbay; West Clare Municipal District; County Clare; Munster; V95 V9Y8; Ireland,hotel,cameraforensics
https://r-cf.bstatic.com/images/hotel/max1280x900/145/145204956.jpg,52.852527,-9.439196,,,,,,Ireland,R482; Milltown Malbay; West Clare Municipal District; County Clare; Munster; V95 V9Y8; Ireland,hotel,cameraforensics
https://r-cf.bstatic.com/images/hotel/max1280x900/228/228179823.jpg,52.84547335,-9.43647802,,,,,,Ireland,Armada Hotel; R482; Milltown Malbay; West Clare Municipal District; County Clare; Munster; V95 V9Y8; Ireland,hotel,cameraforensics
https://r-cf.bstatic.com/images/hotel/max1280x900/198/198573388.jpg,52.84570640000001,-9.43658527,,,,,,Ireland,Armada Hotel; R482; Milltown Malbay; West Clare Municipal District; County Clare; Munster; V95 V9Y8; Ireland,hotel,cameraforensics
https://r-cf.bstatic.com/images/hotel/max1280x900/140/140080843.jpg,52.85230113,-9.43919552,,,,,,Ireland,R482; Milltown Malbay; West Clare Municipal District; County Clare; Munster; V95 V9Y8; Ireland,hotel,cameraforensics
https://q-cf.bstatic.com/images/hotel/max1280x900/126/126982436.jpg,52.84212617,-9.43124406,,,,,,Ireland,R482; Milltown Malbay; West Clare Municipal District; County Clare; Munster; V95 V9Y8; Ireland,hotel,cameraforensics
https://q-cf.bstatic.com/images/hotel/max1280x900/202/202464437.jpg,52.840897,-9.431072,,,,,,Ireland,Spanish Point Golf Club; N67; Milltown Malbay; West Clare Municipal District; County Clare; Munster; V95 V9Y8; Ireland,hotel,cameraforensics
https://q-cf.bstatic.com/images/hotel/max1280x900/129/129237168.jpg,52.84212617,-9.43124406,,,,,,Ireland,R482; Milltown Malbay; West Clare Municipal District; County Clare; Munster; V95 V9Y8; Ireland,hotel,cameraforensics
https://live.staticflickr.com/7098/7205690178_a61cafe249_o.jpg,52.84314722222222,-9.43331666666667,,,,,,Ireland,Spanish Point Beach; R482; Milltown Malbay; West Clare Municipal District; County Clare; Munster; V95 V9Y8; Ireland,hotel,cameraforensics
https://live.staticflickr.com/8084/29101091331_38a77f3bf6_o.jpg,53.32789166666667,-6.2305,,,,,,Ireland,Royal Dublin Society (RDS); Merrion Road; Ballsbridge; Pembroke East ED; Dublin; County Dublin; Leinster; 4; Ireland,hotel,cameraforensics
https://live.staticflickr.com/384/31198208473_ee2d6d251f_o.jpg,53.325344444444454,-6.236780555555558,,,,,,Ireland,12; Argyle Road; Pembroke West B ED; Dublin; Dublin 4; Leinster; D04 P5Y3; Ireland,hotel,cameraforensics
https://live.staticflickr.com/2540/32835541972_a21128c43b_o.jpg,53.3277388888889,-6.22903611111111,,,,,,Ireland,Main Hall; Merrion Road; Ballsbridge; Pembroke East ED; Dublin; County Dublin; Leinster; 4; Ireland,hotel,cameraforensics
https://live.staticflickr.com/5714/31293894715_d56c0cdd93_o.jpg,53.33089444444445,-6.23176111111111,,,,,,Ireland,MSL Ballsbridge Motors; 162; Shelbourne Road; Pembroke West B ED; Dublin; Dublin 4; Leinster; D04 FP65; Ireland,hotel,cameraforensics
https://live.staticflickr.com/5525/11884859355_a1eaa9d21a_o.jpg,53.32588575,-6.22629927777778,,,,,,Ireland,Royal Dublin Society (RDS); Merrion Road; Ballsbridge; Pembroke East ED; Dublin; County Dublin; Leinster; 4; Ireland,hotel,cameraforensics
https://live.staticflickr.com/1547/25951985834_21a94b74e7_o.jpg,53.32833333333333,-6.23233333333333,,,,,,Ireland,Herbert Park Hotel; Ballsbridge Terrace; Pembroke West B ED; Dublin; Dublin 4; Leinster; D04 W996; Ireland,hotel,cameraforensics
http://static.panoramio.com/photos/original/90973276.jpg,53.32983333333333,-6.22716666666667,,,,,,Ireland,AIB Bankcentre; Merrion Road; Ballsbridge; Pembroke East E ED; Dublin; Dublin 4; Leinster; D04 W9H6; Ireland,hotel,cameraforensics
https://live.staticflickr.com/5132/5583436316_7ee3f8e867_o.jpg,53.32516666666667,-6.2285,,,,,,Ireland,Royal Dublin Society (RDS); Merrion Road; Ballsbridge; Pembroke East ED; Dublin; County Dublin; Leinster; 4; Ireland,hotel,cameraforensics
https://live.staticflickr.com/5270/5890692256_1a5c637a62_o.jpg,53.32816666666667,-6.22866666666667,,,,,,Ireland,Royal Dublin Society (RDS); Merrion Road; Ballsbridge; Pembroke East ED; Dublin; County Dublin; Leinster; 4; Ireland,hotel,cameraforensics
https://live.staticflickr.com/1869/44443637181_a279c9776b_o.jpg,53.3215138888889,-6.2284583333333305,,,,,,Ireland,Clubhouse; Anglesea Road; Ballsbridge; Pembroke East E ED; Dublin; Dublin 4; Leinster; 4; Ireland,hotel,cameraforensics
https://q-cf.bstatic.com/images/hotel/max1280x900/238/23896321.jpg,54.94375921,-7.697950599999999,,,,,,Ireland,The Clanree Hotel; Derry Road; Letterkenny Rural Electoral Division; Letterkenny; County Donegal; F92 CTH6; Ireland,hotel,cameraforensics
https://live.staticflickr.com/7450/13971890077_f9af96b695_o.jpg,54.94333333333334,-7.6975,,,,,,Ireland,The Clanree Hotel; Derry Road; Letterkenny Rural Electoral Division; Letterkenny; County Donegal; F92 CTH6; Ireland,hotel,cameraforensics
https://q-cf.bstatic.com/images/hotel/max1280x900/158/15836314.jpg,54.94375921,-7.697950599999999,,,,,,Ireland,The Clanree Hotel; Derry Road; Letterkenny Rural Electoral Division; Letterkenny; County Donegal; F92 CTH6; Ireland,hotel,cameraforensics
https://r-cf.bstatic.com/images/hotel/max1280x900/436/43642503.jpg,54.94375921,-7.697950599999999,,,,,,Ireland,The Clanree Hotel; Derry Road; Letterkenny Rural Electoral Division; Letterkenny; County Donegal; F92 CTH6; Ireland,hotel,cameraforensics
https://r-cf.bstatic.com/images/hotel/max1280x900/158/15836299.jpg,54.94375921,-7.697950599999999,,,,,,Ireland,The Clanree Hotel; Derry Road; Letterkenny Rural Electoral Division; Letterkenny; County Donegal; F92 CTH6; Ireland,hotel,cameraforensics
https://live.staticflickr.com/1971/31121468778_d673678049_o.jpg,54.943836111111096,-7.69827777777778,,,,,,Ireland,The Clanree Hotel; Derry Road; Letterkenny Rural Electoral Division; Letterkenny; County Donegal; F92 CTH6; Ireland,hotel,cameraforensics
https://live.staticflickr.com/5737/23790714006_d0578191ea_o.jpg,54.94503333333333,-7.69706111111111,,,,,,Ireland,Texaco; Derry Road; Letterkenny Rural Electoral Division; Letterkenny; County Donegal; F92 CTH6; Ireland,hotel,cameraforensics
https://live.staticflickr.com/7354/13971927739_12fd740fb4_o.jpg,54.94305555555553,-7.6983333333333315,,,,,,Ireland,The Clanree Hotel; Derry Road; Letterkenny Rural Electoral Division; Letterkenny; County Donegal; F92 CTH6; Ireland,hotel,cameraforensics
https://live.staticflickr.com/7295/14158565065_eea3c4bfec_o.jpg,54.94333333333334,-7.698055555555558,,,,,,Ireland,The Clanree Hotel; Derry Road; Letterkenny Rural Electoral Division; Letterkenny; County Donegal; F92 CTH6; Ireland,hotel,cameraforensics
https://live.staticflickr.com/65535/49152705357_4b394892ba_o.jpg,54.94366944444445,-7.697572222222218,,,,,,Ireland,The Clanree Hotel; Derry Road; Letterkenny Rural Electoral Division; Letterkenny; County Donegal; F92 CTH6; Ireland,hotel,cameraforensics
https://live.staticflickr.com/7406/27752748955_7903a73614_o.jpg,53.35058333333333,-6.255986111111112,,,,,,Ireland,Moland House; 10; Talbot Street; North City ED; Dublin; Dublin 1; Leinster; 1; Ireland,hotel,cameraforensics
https://live.staticflickr.com/7575/27015756610_102d939d7d_o.jpg,53.34742805555555,-6.257185,,,,,,Ireland,Rosie Hackett Bridge; Mansion House A ED; Dublin; Dublin 2; Leinster; D01 K0F1; Ireland,hotel,cameraforensics
https://live.staticflickr.com/486/31865233940_ebbc3f71d8_o.jpg,53.349922222222226,-6.2511,,,,,,Ireland,Link Express; Store Street; North Dock C ED; North Dock; Mountjoy A ED; Dublin; Dublin 1; Leinster; D01 WY03; Ireland,hotel,cameraforensics
https://live.staticflickr.com/5491/30392093680_eb01b555bd_o.jpg,53.34736641665278,-6.25400502775556,,,,,,Ireland,Luke Street; Mansion House A ED; Dublin; Dublin 2; Leinster; D01 W6X0; Ireland,hotel,cameraforensics
https://live.staticflickr.com/4301/35792134652_01a85f1ce8_o.jpg,53.34827469444443,-6.251651361111112,,,,,,Ireland,A School of Dolphins; Custom House Quay; North Dock C ED; North Dock; Dublin; County Dublin; Leinster; D01 W6X0; Ireland,hotel,cameraforensics
https://live.staticflickr.com/1612/24313641306_8bdce3641d_o.jpg,53.343891111111105,-6.2557825,,,,,,Ireland,Trinity College Dublin; College Green; Mansion House A ED; Dublin; Dublin 2; Leinster; D02 HR67; Ireland,hotel,cameraforensics
https://live.staticflickr.com/5835/30255918792_1011bf3bdf_o.jpg,53.34388333333333,-6.25648888888889,,,,,,Ireland,Old Library; Library Square; Mansion House A ED; Dublin; County Dublin; Leinster; D02 WN62; Ireland,hotel,cameraforensics
https://live.staticflickr.com/345/31928278190_6be80df35d_o.jpg,53.34433333333333,-6.25960277777778,,,,,,Ireland,Oliver Goldsmith; College Green; Royal Exchange A ED; Dublin; County Dublin; Leinster; D02 HR67; Ireland,hotel,cameraforensics
https://live.staticflickr.com/7469/15158619973_5727b8cc9b_o.jpg,53.272,-8.92283333333333,,,,,,Ireland,Lios Na Cri; Oranmore Electoral Division; Athenry-Oranmore Municipal District; County Galway; Connacht; H91K7FA; Ireland,hotel,cameraforensics
https://live.staticflickr.com/7480/15592564068_5993369a9a_o.jpg,53.27812222222222,-8.927583333333333,,,,,,Ireland,Club Vitae Leisure Club; Oranmore Business Park; Oranmore Electoral Division; Athenry-Oranmore Municipal District; County Galway; Connacht; H91K7FA; Ireland,hotel,cameraforensics
https://q-cf.bstatic.com/images/hotel/max1280x900/378/37881976.jpg,53.27525453,-8.92523691,,,,,,Ireland,19; Carrowmoneash; Oranmore Electoral Division; Athenry-Oranmore Municipal District; County Galway; Connacht; H91K7FA; Ireland,hotel,cameraforensics
https://live.staticflickr.com/5524/12780291553_2381d6b045_o.jpg,53.27193888888889,-8.92235833333333,,,,,,Ireland,Lios Na Cri; Oranmore Electoral Division; Athenry-Oranmore Municipal District; County Galway; Connacht; H91K7FA; Ireland,hotel,cameraforensics
https://live.staticflickr.com/8642/15780249162_221223a412_o.jpg,53.271919444444435,-8.922169444444439,,,,,,Ireland,Lios Na Cri; Oranmore Electoral Division; Athenry-Oranmore Municipal District; County Galway; Connacht; H91K7FA; Ireland,hotel,cameraforensics
https://r-cf.bstatic.com/images/hotel/max1280x900/182/18281441.jpg,53.27766018,-8.9280653,,,,,,Ireland,Club Vitae Leisure Club; Oranmore Business Park; Oranmore Electoral Division; Athenry-Oranmore Municipal District; County Galway; Connacht; H91K7FA; Ireland,hotel,cameraforensics
https://r-cf.bstatic.com/images/hotel/max1280x900/378/37881944.jpg,53.27525453,-8.92523691,,,,,,Ireland,19; Carrowmoneash; Oranmore Electoral Division; Athenry-Oranmore Municipal District; County Galway; Connacht; H91K7FA; Ireland,hotel,cameraforensics
https://live.staticflickr.com/7372/10073049536_36302a43af_o.jpg,53.27483333333333,-8.93033333333333,,,,,,Ireland,1; Oakfield; Ash Brook; Oranmore Electoral Division; Athenry-Oranmore Municipal District; County Galway; Connacht; H91K7FA; Ireland,hotel,cameraforensics
https://live.staticflickr.com/4272/34936721322_a8688b8a5c_o.jpg,53.27222777777778,-8.91899444444444,,,,,,Ireland,N67; Oranmore Electoral Division; Athenry-Oranmore Municipal District; County Galway; Connacht; H91K7FA; Ireland,hotel,cameraforensics
https://live.staticflickr.com/7572/15779751745_6afb9c1526_o.jpg,53.27807222222222,-8.927380555555551,,,,,,Ireland,Club Vitae Leisure Club; Oranmore Business Park; Oranmore Electoral Division; Athenry-Oranmore Municipal District; County Galway; Connacht; H91K7FA; Ireland,hotel,cameraforensics
https://live.staticflickr.com/8774/28974195465_568bfc12f8_o.jpg,52.653886111111106,-7.257797222222218,,,,,,Ireland,Angel's Well; Abbey Street; Kilkenny No.1 Urban; The Municipal District of Kilkenny City; County Kilkenny; Leinster; R95 RK23; Ireland,hotel,cameraforensics
https://live.staticflickr.com/757/32776763610_4611dd86b4_o.jpg,52.655625,-7.255519444444442,,,,,,Ireland,17a; Irishtown; Kilkenny No.1 Urban; Kilkenny; County Kilkenny; Leinster; R95 NR20; Ireland,hotel,cameraforensics
https://live.staticflickr.com/7659/26635822123_c674fe7689_o.jpg,52.65073333333333,-7.24915555555556,,,,,,Ireland,Kilkenny Castle; Castle Road; Kilkenny No.2 Urban; The Municipal District of Kilkenny City; County Kilkenny; Leinster; R95 TC63; Ireland,hotel,cameraforensics
https://live.staticflickr.com/8731/28989695965_5ae135ce93_o.jpg,52.653319444444435,-7.253225,,,,,,Ireland,Nero's Nightclub; Market Yard; Kilkenny No.2 Urban; The Municipal District of Kilkenny City; County Kilkenny; Leinster; R95 V6TE; Ireland,hotel,cameraforensics
https://live.staticflickr.com/7356/10882995726_69b34cd61e_o.jpg,52.652,-7.25233333333333,,,,,,Ireland,Saint Mary's Graveyard; Saint Mary's Lane; Kilkenny No.1 Urban; The Municipal District of Kilkenny City; County Kilkenny; Leinster; R95 V6TE; Ireland,hotel,cameraforensics
https://live.staticflickr.com/3694/12057490386_7614a491b5_o.jpg,52.6562,-7.2501,,,,,,Ireland,35; Wolfe Tone Street; Kilkenny No.2 Urban; Kilkenny; County Kilkenny; Leinster; R95 XY65; Ireland,hotel,cameraforensics
https://live.staticflickr.com/5722/21546571684_19088d3aa1_o.jpg,52.65046388888889,-7.249786111111113,,,,,,Ireland,Rose Garden; Canal Square; Kilkenny No.2 Urban; The Municipal District of Kilkenny City; County Kilkenny; Leinster; Ireland,hotel,cameraforensics
https://live.staticflickr.com/1196/4730204131_eed5f98a43_o.jpg,52.65393333333333,-7.2577888888888875,,,,,,Ireland,Angel's Well; Abbey Street; Kilkenny No.1 Urban; The Municipal District of Kilkenny City; County Kilkenny; Leinster; R95 RK23; Ireland,hotel,cameraforensics
https://q-cf.bstatic.com/images/hotel/max1280x900/215/215945121.jpg,52.65226001,-7.25258797,,,,,,Ireland,Mimi Boutique; Butter Slip; Kilkenny No.1 Urban; The Municipal District of Kilkenny City; County Kilkenny; Leinster; R95 V6TE; Ireland,hotel,cameraforensics
https://live.staticflickr.com/65535/48154841991_7c576163db_o.jpg,52.651672222222224,-7.2517027777777825,,,,,,Ireland,Saint Mary's Graveyard; Saint Mary's Lane; Kilkenny No.1 Urban; The Municipal District of Kilkenny City; County Kilkenny; Leinster; R95 V6TE; Ireland,hotel,cameraforensics
https://live.staticflickr.com/7296/26643506384_b7efd312fc_o.jpg,52.06015,-9.840305555555561,,,,,,Ireland,Caragh; Kenmare Municipal District; County Kerry; Munster; Ireland,hotel,cameraforensics
https://live.staticflickr.com/7349/26975015480_5acc82db21_o.jpg,52.05576388888889,-9.837925,,,,,,Ireland,Caragh; Kenmare Municipal District; County Kerry; Munster; Ireland,hotel,cameraforensics
https://live.staticflickr.com/8830/28788970586_3f8186971e_o.jpg,52.055408472222226,-9.83847425,,,,,,Ireland,Caragh; Kenmare Municipal District; County Kerry; Munster; Ireland,hotel,cameraforensics
https://live.staticflickr.com/3691/13914936315_0ba9f0574d_o.jpg,52.055398333333336,-9.838535,,,,,,Ireland,Caragh; Kenmare Municipal District; County Kerry; Munster; Ireland,hotel,cameraforensics
https://live.staticflickr.com/2131/5757057204_e6a01317a3_o.jpg,52.055,-9.8375,,,,,,Ireland,Caragh; Kenmare Municipal District; County Kerry; Munster; Ireland,hotel,cameraforensics
https://live.staticflickr.com/1916/30205281077_d122b3d887_o.jpg,52.06293,-9.83403666666667,,,,,,Ireland,Caragh View; Caragh; Kenmare Municipal District; County Kerry; Munster; Ireland,hotel,cameraforensics
https://drscdn.500px.org/photo/259739175/m%3D2048_k%3D1_a%3D1/v2?client_application_id=36673&webp=true&sig=159dfb84237fd714ca49ec1008003ca649297ce828ffa970c6291bd4de3da948,52.05578333333333,-9.83786388888889,,,,,,Ireland,Caragh; Kenmare Municipal District; County Kerry; Munster; Ireland,hotel,cameraforensics
https://live.staticflickr.com/8867/28820561115_909afc770a_o.jpg,52.05542372222222,-9.83847997222222,,,,,,Ireland,Caragh; Kenmare Municipal District; County Kerry; Munster; Ireland,hotel,cameraforensics
https://live.staticflickr.com/8850/28820560685_98a3919fe4_o.jpg,52.055412277777776,-9.83847522222222,,,,,,Ireland,Caragh; Kenmare Municipal District; County Kerry; Munster; Ireland,hotel,cameraforensics
https://live.staticflickr.com/8491/28820560605_7d663f7e09_o.jpg,52.060539222222225,-9.84076688888889,,,,,,Ireland,Caragh; Kenmare Municipal District; County Kerry; Munster; Ireland,hotel,cameraforensics
https://live.staticflickr.com/7474/29971488402_12aba463bd_o.jpg,52.09021111111111,-7.61462222222222,,,,,,Ireland,Strand Side South; Dungarvan No 2 Urban; The Municipal District of Dungarvan — Lismore; County Waterford; Munster; X35YH92; Ireland,hotel,cameraforensics
https://live.staticflickr.com/837/28159726197_7240207b0f_o.jpg,52.09627838888889,-7.63079558333333,,,,,,Ireland,L3145; Dungarvan No 1 Urban; The Municipal District of Dungarvan — Lismore; County Waterford; Munster; X35 Y326; Ireland,hotel,cameraforensics
https://live.staticflickr.com/1766/42284935614_420f5c78f3_o.jpg,52.09173108333334,-7.6299035,,,,,,Ireland,Dungarvan No 1 Urban; The Municipal District of Dungarvan — Lismore; County Waterford; Munster; X35 Y326; Ireland,hotel,cameraforensics
https://live.staticflickr.com/1770/43193986371_e13cf5b589_o.jpg,52.091694277777776,-7.6299987777777805,,,,,,Ireland,Dungarvan No 1 Urban; The Municipal District of Dungarvan — Lismore; County Waterford; Munster; X35 Y326; Ireland,hotel,cameraforensics
https://live.staticflickr.com/835/41272723760_99bec2a2d9_o.jpg,52.09252708333333,-7.61396697222222,,,,,,Ireland,King Street Upper; Dungarvan No 2 Urban; The Municipal District of Dungarvan — Lismore; County Waterford; Munster; X35YH92; Ireland,hotel,cameraforensics
https://q-cf.bstatic.com/images/hotel/max1280x900/867/86799264.jpg,52.0885894,-7.62125283,,,,,,Ireland,Tudor House; Saint Mary Street; Dungarvan No 1 Urban; The Municipal District of Dungarvan — Lismore; County Waterford; Munster; X35 Y326; Ireland,hotel,cameraforensics
https://live.staticflickr.com/65535/47686489102_6f3812064e_o.jpg,52.09083333333334,-7.62333333333333,,,,,,Ireland,Dungarvan Shopping Centre; High Street; Dungarvan No 1 Urban; The Municipal District of Dungarvan — Lismore; County Waterford; Munster; X35 Y326; Ireland,hotel,cameraforensics
https://live.staticflickr.com/5798/31156802492_dd261b7c3f_o.jpg,52.093644444444436,-7.62114722222222,,,,,,Ireland,Shandon Bridge; Dungarvan No 1 Urban; The Municipal District of Dungarvan — Lismore; County Waterford; Munster; X35 Y326; Ireland,hotel,cameraforensics
https://live.staticflickr.com/1809/42199881395_2d6a902767_o.jpg,52.091695694444454,-7.629998888888887,,,,,,Ireland,Dungarvan No 1 Urban; The Municipal District of Dungarvan — Lismore; County Waterford; Munster; X35 Y326; Ireland,hotel,cameraforensics
https://r-cf.bstatic.com/images/hotel/max1280x900/164/16456249.jpg,52.09397659,-7.62402892,,,,,,Ireland,N25; Dungarvan No 1 Urban; The Municipal District of Dungarvan — Lismore; County Waterford; Munster; X35 Y326; Ireland,hotel,cameraforensics
https://q-cf.bstatic.com/images/hotel/max1280x900/147/147000962.jpg,53.62159177,-9.75450754,,,,,,Ireland,Dephi Resort; R335; Bundorragha ED; Westport-Belmullet Municipal District; County Mayo; Connacht; Ireland,hotel,cameraforensics
https://q-cf.bstatic.com/images/hotel/max1280x900/147/147001023.jpg,53.62159177,-9.75450754,,,,,,Ireland,Dephi Resort; R335; Bundorragha ED; Westport-Belmullet Municipal District; County Mayo; Connacht; Ireland,hotel,cameraforensics
https://live.staticflickr.com/1899/43922658014_96c47f3c6d_o.jpg,53.61810255555553,-9.75260013888889,,,,,,Ireland,R335; Bundorragha ED; Westport-Belmullet Municipal District; County Mayo; Connacht; Ireland,hotel,cameraforensics
https://live.staticflickr.com/2812/9771229413_8bed7cef5d_o.jpg,53.61966666666667,-9.759,,,,,,Ireland,Dephi Resort; R335; Bundorragha ED; Westport-Belmullet Municipal District; County Mayo; Connacht; Ireland,hotel,cameraforensics
https://r-cf.bstatic.com/images/hotel/max1280x900/349/34949524.jpg,53.62159177,-9.75450754,,,,,,Ireland,Dephi Resort; R335; Bundorragha ED; Westport-Belmullet Municipal District; County Mayo; Connacht; Ireland,hotel,cameraforensics
https://live.staticflickr.com/2872/9818151863_771c5bfa31_o.jpg,53.621,-9.75483333333333,,,,,,Ireland,Dephi Resort; R335; Bundorragha ED; Westport-Belmullet Municipal District; County Mayo; Connacht; Ireland,hotel,cameraforensics
https://live.staticflickr.com/7365/9770951072_5200a2efbf_o.jpg,53.6195,-9.7605,,,,,,Ireland,Tonatleva; Bundorragha ED; Westport-Belmullet Municipal District; County Mayo; Connacht; Ireland,hotel,cameraforensics
https://live.staticflickr.com/3785/9720938553_e53d57553a_o.jpg,53.622,-9.755,,,,,,Ireland,Delphi Resort; R335; Bundorragha ED; Westport-Belmullet Municipal District; County Mayo; Connacht; Ireland,hotel,cameraforensics
https://r-cf.bstatic.com/images/hotel/max1280x900/143/143099813.jpg,53.62159177,-9.75450754,,,,,,Ireland,Dephi Resort; R335; Bundorragha ED; Westport-Belmullet Municipal District; County Mayo; Connacht; Ireland,hotel,cameraforensics
https://live.staticflickr.com/7359/12844037205_dc137fd9fe_o.jpg,53.62548947000555,-9.75086059000056,,,,,,Ireland,R335; Bundorragha ED; Westport-Belmullet Municipal District; County Mayo; Connacht; Ireland,hotel,cameraforensics
https://r-cf.bstatic.com/images/hotel/max1280x900/163/16375323.jpg,54.06502354,-7.10189939,,,,,,Ireland,Errigal Country House Hotel; Cavan Road; Tullyvin East ED; Bailieborough-Cootehill Municipal District; County Cavan; H16 Y225; Ireland,hotel,cameraforensics
https://q-cf.bstatic.com/images/hotel/max1280x900/724/72447993.jpg,54.06502354,-7.10189939,,,,,,Ireland,Errigal Country House Hotel; Cavan Road; Tullyvin East ED; Bailieborough-Cootehill Municipal District; County Cavan; H16 Y225; Ireland,hotel,cameraforensics
https://r-cf.bstatic.com/images/hotel/max1280x900/380/38082514.jpg,54.06254899,-7.0948720000000005,,,,,,Ireland,L2017; Tullyvin East ED; Bailieborough-Cootehill Municipal District; County Cavan; H16 Y225; Ireland,hotel,cameraforensics
https://r-cf.bstatic.com/images/hotel/max1280x900/380/38082532.jpg,54.06254899,-7.0948720000000005,,,,,,Ireland,L2017; Tullyvin East ED; Bailieborough-Cootehill Municipal District; County Cavan; H16 Y225; Ireland,hotel,cameraforensics
https://q-cf.bstatic.com/images/hotel/max1280x900/163/16375388.jpg,54.06502354,-7.10189939,,,,,,Ireland,Errigal Country House Hotel; Cavan Road; Tullyvin East ED; Bailieborough-Cootehill Municipal District; County Cavan; H16 Y225; Ireland,hotel,cameraforensics
https://r-cf.bstatic.com/images/hotel/max1280x900/163/16375331.jpg,54.06502354,-7.10189939,,,,,,Ireland,Errigal Country House Hotel; Cavan Road; Tullyvin East ED; Bailieborough-Cootehill Municipal District; County Cavan; H16 Y225; Ireland,hotel,cameraforensics
https://r-cf.bstatic.com/images/hotel/max1280x900/380/38082520.jpg,54.06254899,-7.0948720000000005,,,,,,Ireland,L2017; Tullyvin East ED; Bailieborough-Cootehill Municipal District; County Cavan; H16 Y225; Ireland,hotel,cameraforensics
https://q-cf.bstatic.com/images/hotel/max1280x900/724/72447727.jpg,54.06502354,-7.10189939,,,,,,Ireland,Errigal Country House Hotel; Cavan Road; Tullyvin East ED; Bailieborough-Cootehill Municipal District; County Cavan; H16 Y225; Ireland,hotel,cameraforensics
https://q-cf.bstatic.com/images/hotel/max1280x900/724/72447890.jpg,54.06502354,-7.10189939,,,,,,Ireland,Errigal Country House Hotel; Cavan Road; Tullyvin East ED; Bailieborough-Cootehill Municipal District; County Cavan; H16 Y225; Ireland,hotel,cameraforensics
https://q-cf.bstatic.com/images/hotel/max1280x900/159/15959896.jpg,54.06502354,-7.10189939,,,,,,Ireland,Errigal Country House Hotel; Cavan Road; Tullyvin East ED; Bailieborough-Cootehill Municipal District; County Cavan; H16 Y225; Ireland,hotel,cameraforensics
https://r-cf.bstatic.com/images/hotel/max1280x900/181/181797906.jpg,54.94676329,-7.73315728,,,,,,Ireland,Radisson SAS Letterkenny; Paddy Harte Road; Letterkenny Urban Electoral Division; Letterkenny; County Donegal; F92RT26; Ireland,hotel,cameraforensics
https://r-cf.bstatic.com/images/hotel/max1280x900/649/64955867.jpg,54.95339822,-7.73609161,,,,,,Ireland,Letterkenny Urban Electoral Division; Letterkenny; County Donegal; F92 PD92; Ireland,hotel,cameraforensics
https://q-cf.bstatic.com/images/hotel/max1280x900/157/15750842.jpg,54.94876351,-7.73504019,,,,,,Ireland,Pearse Road B&B; Pearse Road; Letterkenny Urban Electoral Division; Letterkenny; County Donegal; F92 DT62; Ireland,hotel,cameraforensics
https://q-cf.bstatic.com/images/hotel/max1280x900/723/7231505.jpg,54.94557093,-7.74031878,,,,,,Ireland,Station House Hotel; Pearse Road; Letterkenny Urban Electoral Division; Letterkenny; County Donegal; F92RT26; Ireland,hotel,cameraforensics
https://r-cf.bstatic.com/images/hotel/max1280x900/113/113205214.jpg,54.94557093,-7.74031878,,,,,,Ireland,Station House Hotel; Pearse Road; Letterkenny Urban Electoral Division; Letterkenny; County Donegal; F92RT26; Ireland,hotel,cameraforensics
https://live.staticflickr.com/2890/33973479055_789e469f82_o.jpg,54.94800833333333,-7.72870833333333,,,,,,Ireland,Homebase; Forte Retail Park; Letterkenny Urban Electoral Division; Letterkenny; County Donegal; F92 PD92; Ireland,hotel,cameraforensics
https://live.staticflickr.com/5758/20723822653_f3c99b97bf_o.jpg,54.95366666666666,-7.72566666666667,,,,,,Ireland,Letterkenny Shopping Centre; Ballyraine Road; Letterkenny Rural Electoral Division; Letterkenny; County Donegal; F92 V9F5; Ireland,hotel,cameraforensics
https://q-cf.bstatic.com/images/hotel/max1280x900/195/195300478.jpg,54.94786403,-7.73914146,,,,,,Ireland,Letterkenny Urban Electoral Division; Letterkenny; County Donegal; F92 EH9W; Ireland,hotel,cameraforensics
https://r-cf.bstatic.com/images/hotel/max1280x900/157/15750879.jpg,54.94876351,-7.73504019,,,,,,Ireland,Pearse Road B&B; Pearse Road; Letterkenny Urban Electoral Division; Letterkenny; County Donegal; F92 DT62; Ireland,hotel,cameraforensics
https://live.staticflickr.com/606/22130578472_02a48098e1_o.jpg,54.94731138888889,-7.73444225,,,,,,Ireland,Radisson SAS Letterkenny; Paddy Harte Road; Letterkenny Urban Electoral Division; Letterkenny; County Donegal; F92RT26; Ireland,hotel,cameraforensics
https://live.staticflickr.com/4420/36898695691_fc3085a53a_o.jpg,53.27458055555554,-6.21376388888889,,,,,,Ireland,Kenneth Hodgins; Heather Road; Sandyford Industrial Estate; Blackthorn; Dundrum-Balally ED; Sandyford; Dún Laoghaire-Rathdown; Dublin 18; Leinster; D18 Y640; Ireland,hotel,cameraforensics
https://live.staticflickr.com/4383/36851549466_dd11d9a407_o.jpg,53.27466666666667,-6.21426944444444,,,,,,Ireland,Heather House; Heather Road; Sandyford Industrial Estate; Blackthorn; Dundrum-Balally ED; Sandyford; Dún Laoghaire-Rathdown; Dublin 18; Leinster; D18 Y640; Ireland,hotel,cameraforensics
https://live.staticflickr.com/7177/6830581336_b4f91a97a0_o.jpg,53.28383333333333,-6.21183333333333,,,,,,Ireland,110; Stillorgan Wood; Kilmacud East; Stillorgan-Kilmacud ED; Dundrum; Dún Laoghaire-Rathdown; County Dublin; Leinster; A94 KD78; Ireland,hotel,cameraforensics
https://live.staticflickr.com/3909/14871900726_abdea4f878_o.jpg,53.278575,-6.21530277777778,,,,,,Ireland,Beacon South Quarter; Carmanhall Road; Sandyford Industrial Estate; Blackthorn; Dundrum-Balally ED; Sandyford; Dún Laoghaire-Rathdown; Dublin 18; Leinster; A94 EY65; Ireland,hotel,cameraforensics
https://66.media.tumblr.com/1fb52bb5ed66b19273ea0fbb2d60a4ac/tumblr_oa3rga6Gbv1sb4r5yo1_1280.jpg,53.277525,-6.21698333333333,,,,,,Ireland,Imaginosity; Blackthorn Drive; Blackthorn; Ballybrack ED; Sandyford; Dún Laoghaire-Rathdown; County Dublin; Leinster; A94 EY65; Ireland,hotel,cameraforensics
https://live.staticflickr.com/8378/28283412481_a2ca17e73b_o.jpg,53.27098055555553,-6.21261388888889,,,,,,Ireland,South Eastern Motorway; Carmanhall; Dundrum-Balally ED; Ballyogan; Dún Laoghaire-Rathdown; Dublin 18; Leinster; D18 HCP5; Ireland,hotel,cameraforensics
https://live.staticflickr.com/65535/49613532018_680872dbe4_o.jpg,53.27753055555557,-6.21671388888889,,,,,,Ireland,Imaginosity; Blackthorn Drive; Blackthorn; Ballybrack ED; Sandyford; Dún Laoghaire-Rathdown; County Dublin; Leinster; A94 EY65; Ireland,hotel,cameraforensics
https://live.staticflickr.com/65535/49614254452_9b649ac867_o.jpg,53.27735,-6.2165055555555595,,,,,,Ireland,Cubes 6; Blackthorn Road; Sandyford Industrial Estate; Blackthorn; Ballybrack ED; Sandyford; Dún Laoghaire-Rathdown; County Dublin; Leinster; D18 Y640; Ireland,hotel,cameraforensics
https://live.staticflickr.com/4570/38763263891_4dd1f39267_o.jpg,53.2781861111111,-6.2072444444444415,,,,,,Ireland,Stillorgan Luas Park & Ride; Blackthorn Avenue; Mulchanstown; Dundrum-Balally ED; Sandyford; Dún Laoghaire-Rathdown; Dublin 18; Leinster; D18 CK74; Ireland,hotel,cameraforensics
https://live.staticflickr.com/1459/26293422930_042d4c81f3_o.jpg,53.27763333333333,-6.205105555555559,,,,,,Ireland,Luas Sandyford; Blackthorn Avenue; Tipperstown; Stillorgan ED; Blackrock; Dún Laoghaire-Rathdown; County Dublin; Leinster; D18 CK74; Ireland,hotel,cameraforensics
https://live.staticflickr.com/1225/4731904608_d2711d863f_o.jpg,53.28483333333333,-9.0565,,,,,,Ireland,Eamonn Deacy Park; Dyke Road; Terryland; Menlough; Galway City; County Galway; Connacht; H91 ET6N; Ireland,hotel,cameraforensics
https://r-cf.bstatic.com/images/hotel/max1280x900/198/198204248.jpg,53.28411258,-9.04881929,,,,,,Ireland,Gort na Coiribe; Menlough; Galway City; County Galway; Connacht; H91 ET6N; Ireland,hotel,cameraforensics
https://live.staticflickr.com/5166/5267742898_560a566edd_o.jpg,53.28033333333333,-9.0485,,,,,,Ireland,Galway Shopping Centre; Cabbage Lane; St Nicholas; Galway City; County Galway; Connacht; H91 X4K8; Ireland,hotel,cameraforensics
https://r-cf.bstatic.com/images/hotel/max1280x900/194/194481512.jpg,53.28295558,-9.03622806,,,,,,Ireland,Travelodge; Tuam Road; Wellpark; Galway City; County Galway; Connacht; H91 F656; Ireland,hotel,cameraforensics
https://r-cf.bstatic.com/images/hotel/max1280x900/123/12393636.jpg,53.28778053,-9.04690593,,,,,,Ireland,Menlo Park Hotel; Tirellan Heights; Menlough; Galway City; County Galway; Connacht; H91 ET6N; Ireland,hotel,cameraforensics
https://q-cf.bstatic.com/images/hotel/max1280x900/827/82708436.jpg,53.28645008,-9.04296577,,,,,,Ireland,Ford; Sandyroad; Castlegar; Galway City; County Galway; Connacht; H91 F656; Ireland,hotel,cameraforensics
https://r-cf.bstatic.com/images/hotel/max1280x900/102/102133142.jpg,53.28438062,-9.04839134,,,,,,Ireland,Gort na Coiribe; Menlough; Galway City; County Galway; Connacht; H91 ET6N; Ireland,hotel,cameraforensics
https://live.staticflickr.com/8395/8634976518_1afef579e0_o.jpg,54.94716666666667,-7.721,,,,,,Ireland,Neil T Blaney Road; Letterkenny Rural Electoral Division; Letterkenny; County Donegal; F92 PD92; Ireland,hotel,cameraforensics
https://live.staticflickr.com/4205/35663950826_8326a517b3_o.jpg,52.84329166666667,-8.984697222222222,,,,,,Ireland,Scéal Eile Books; Lower Market Street; Ennis No. 2 Urban; Ennis Municipal District; County Clare; Munster; V95NVF1; Ireland,hotel,cameraforensics
https://live.staticflickr.com/4422/35943797410_4eeb0d1b1b_o.jpg,52.84414166666667,-8.98202,,,,,,Ireland,Clare Museum; Arthurs Lane; Ennis No. 4 Urban; Ennis Municipal District; County Clare; Munster; V95NVF1; Ireland,hotel,cameraforensics
https://live.staticflickr.com/5496/11050129013_dfc02eebbd_o.jpg,52.84316666666667,-8.98483333333333,,,,,,Ireland,Zest; Lower Market Street; Ennis No. 2 Urban; Ennis Municipal District; County Clare; Munster; V95NVF1; Ireland,hotel,cameraforensics
https://live.staticflickr.com/4767/40263186091_52813160ff_o.jpg,52.84383055555556,-8.98905,,,,,,Ireland,Galvin Bros.; Old Mill Street; Ennis No. 2 Urban; Ennis Municipal District; County Clare; Munster; V95NVF1; Ireland,hotel,cameraforensics
https://live.staticflickr.com/7305/10637431116_8bc8e39c0e_o.jpg,52.84521388888889,-8.98146111111111,,,,,,Ireland,Ciaran's Bar; Francis Street; Ennis No. 3 Urban; Ennis Municipal District; County Clare; Munster; V95 YR92; Ireland,hotel,cameraforensics
https://live.staticflickr.com/3785/10637393005_b1ff6b1f2a_o.jpg,52.844494444444436,-8.981563888888891,,,,,,Ireland,Franciscan Friary; Francis Street; Ennis No. 3 Urban; Ennis Municipal District; County Clare; Munster; V95 YR92; Ireland,hotel,cameraforensics
https://r-cf.bstatic.com/images/hotel/max1280x900/244/24456822.jpg,52.84613591,-8.98239613,,,,,,Ireland,Abbey Street; Ennis No. 1 Urban; Ennis Municipal District; County Clare; Munster; V95 YR92; Ireland,hotel,cameraforensics
https://r-cf.bstatic.com/images/hotel/max1280x900/160/16032359.jpg,52.84613591,-8.98239613,,,,,,Ireland,Abbey Street; Ennis No. 1 Urban; Ennis Municipal District; County Clare; Munster; V95 YR92; Ireland,hotel,cameraforensics
https://live.staticflickr.com/630/21170816600_a44d2d0c27_o.jpg,52.8461888888889,-8.98208888888889,,,,,,Ireland,Ennis Garda Station; Abbey Street; Ennis No. 3 Urban; Ennis Municipal District; County Clare; Munster; V95 YR92; Ireland,hotel,cameraforensics
https://live.staticflickr.com/3840/33223282480_7aeaa6b19a_o.jpg,52.85075,-8.9823,,,,,,Ireland,Ennis Hospital; Highfield Park; Ennis Rural; Ennis Municipal District; County Clare; Munster; V95NVF1; Ireland,hotel,cameraforensics
https://live.staticflickr.com/547/31851415361_19a0046c18_o.jpg,52.05876805555555,-9.51759805555556,,,,,,Ireland,Old Presbytery; New Street; Killarney Urban; Killarney Municipal District; County Kerry; Munster; V93AOXH; Ireland,hotel,cameraforensics
https://q-cf.bstatic.com/images/hotel/max1280x900/183/183123478.jpg,52.06157607,-9.510912,,,,,,Ireland,Park Place Apartments; Msgr.O'Flaherty Road; Killarney Urban; Killarney Municipal District; County Kerry; Munster; V93 CP26; Ireland,hotel,cameraforensics
https://live.staticflickr.com/4785/26057003147_d009e0d891_o.jpg,52.05796666666667,-9.51903833333333,,,,,,Ireland,River Walk; Killarney Urban; Killarney Municipal District; County Kerry; Munster; V93AOXH; Ireland,hotel,cameraforensics
https://q-cf.bstatic.com/images/hotel/max1280x900/195/195541932.jpg,52.06351697,-9.50706169,,,,,,Ireland,11; Saint Anne's Road; Killarney Urban; Killarney Municipal District; County Kerry; Munster; V93 CP26; Ireland,hotel,cameraforensics
https://live.staticflickr.com/5515/31143807911_7dc8af8835_o.jpg,53.333725,-6.231855555555558,,,,,,Ireland,Shelbourne Road; Donnybrook; Pembroke West ED; Dublin; Dublin 4; Leinster; D04 FP65; Ireland,hotel,cameraforensics
https://live.staticflickr.com/5231/29546793034_7af6f8a24d_o.jpg,53.33484166666667,-6.22794444444444,,,,,,Ireland,Aviva Stadium; Havelock Square; Pembroke West ED; Dublin; County Dublin; Leinster; D04 CX95; Ireland,hotel,cameraforensics
https://live.staticflickr.com/7758/17131488263_b51415e582_o.jpg,53.32804091277778,-6.2406635283333305,,,,,,Ireland,Saint Conleth's College; Ardoyne Mews; Donnybrook; Pembroke West B ED; Dublin; County Dublin; Leinster; D04 WK81; Ireland,hotel,cameraforensics
https://live.staticflickr.com/3848/14614035293_7ca87ff5ab_o.jpg,53.332547222222225,-6.23468333333333,,,,,,Ireland,Ballsbridge Hotel; Pembroke Road; Donnybrook; Pembroke West ED; Dublin; Dublin 4; Leinster; D04 D687; Ireland,hotel,cameraforensics
https://live.staticflickr.com/763/21638663493_a9d5b37f54_o.jpg,53.335586111111105,-6.2277944444444415,,,,,,Ireland,Aviva Stadium; Havelock Square; Pembroke West ED; Dublin; County Dublin; Leinster; D04 CX95; Ireland,hotel,cameraforensics
https://live.staticflickr.com/4376/36169205322_79d6d38913_o.jpg,53.33189444444444,-6.234219444444442,,,,,,Ireland,Ballsbridge Hotel; Pembroke Road; Donnybrook; Pembroke West ED; Dublin; Dublin 4; Leinster; D04 D687; Ireland,hotel,cameraforensics
https://r-cf.bstatic.com/images/hotel/max1280x900/756/75652809.jpg,54.06255745,-9.15444911,,,,,,Ireland,Conn Rangers FC; L53592; Mount Falcon ED; Ballina Municipal District; County Mayo; Connacht; F26 H744; Ireland,hotel,cameraforensics
https://q-cf.bstatic.com/images/hotel/max1280x900/756/75653261.jpg,54.06255745,-9.15444911,,,,,,Ireland,Conn Rangers FC; L53592; Mount Falcon ED; Ballina Municipal District; County Mayo; Connacht; F26 H744; Ireland,hotel,cameraforensics
https://live.staticflickr.com/2907/14636493124_e3a95dcddc_o.jpg,54.055302777777776,-9.15547222222222,,,,,,Ireland,Mount Falcon Estate; L5358; Mount Falcon ED; Ballina Municipal District; County Mayo; Connacht; F26 H744; Ireland,hotel,cameraforensics
https://q-cf.bstatic.com/images/hotel/max1280x900/756/75653143.jpg,54.06255745,-9.15444911,,,,,,Ireland,Conn Rangers FC; L53592; Mount Falcon ED; Ballina Municipal District; County Mayo; Connacht; F26 H744; Ireland,hotel,cameraforensics
https://live.staticflickr.com/4228/34049818784_aa1f3741f1_o.jpg,54.05601388888889,-9.151255555555561,,,,,,Ireland,Ballina-Carrowntreila Road; Carrowmore ED; Ballina Municipal District; County Mayo; Connacht; F26 ND73; Ireland,hotel,cameraforensics
https://q-cf.bstatic.com/images/hotel/max1280x900/621/62196939.jpg,54.05943826,-9.15410042,,,,,,Ireland,Conn Rangers FC; L53592; Mount Falcon ED; Ballina Municipal District; County Mayo; Connacht; F26 H744; Ireland,hotel,cameraforensics
https://r-cf.bstatic.com/images/hotel/max1280x900/621/62197270.jpg,54.05943826,-9.15410042,,,,,,Ireland,Conn Rangers FC; L53592; Mount Falcon ED; Ballina Municipal District; County Mayo; Connacht; F26 H744; Ireland,hotel,cameraforensics
https://r-cf.bstatic.com/images/hotel/max1280x900/175/17534422.jpg,54.05943826,-9.15410042,,,,,,Ireland,Conn Rangers FC; L53592; Mount Falcon ED; Ballina Municipal District; County Mayo; Connacht; F26 H744; Ireland,hotel,cameraforensics
https://q-cf.bstatic.com/images/hotel/max1280x900/756/75653416.jpg,54.06255745,-9.15444911,,,,,,Ireland,Conn Rangers FC; L53592; Mount Falcon ED; Ballina Municipal District; County Mayo; Connacht; F26 H744; Ireland,hotel,cameraforensics
https://q-cf.bstatic.com/images/hotel/max1280x900/175/17534284.jpg,54.05943826,-9.15410042,,,,,,Ireland,Conn Rangers FC; L53592; Mount Falcon ED; Ballina Municipal District; County Mayo; Connacht; F26 H744; Ireland,hotel,cameraforensics
https://live.staticflickr.com/4503/37935489151_e4e15de05f_o.jpg,53.60906944444444,-10.00185277777778,,,,,,Ireland,Rusheenduff; Rinvyle Electoral Division; Conamara Municipal District; County Galway; Connacht; Ireland,hotel,cameraforensics
http://static.panoramio.com/photos/original/92854358.jpg,53.60882900000001,-10.002623,,,,,,Ireland,Rusheenduff; Rinvyle Electoral Division; Conamara Municipal District; County Galway; Connacht; Ireland,hotel,cameraforensics
https://live.staticflickr.com/8291/7859006212_642aabc50a_o.jpg,53.61152777777777,-10.007354722222221,,,,,,Ireland,Tully; Conamara Municipal District; County Galway; Connacht; Ireland,hotel,cameraforensics
https://r-cf.bstatic.com/images/hotel/max1280x900/145/145687558.jpg,53.609077,-10.0019145,,,,,,Ireland,Rusheenduff; Rinvyle Electoral Division; Conamara Municipal District; County Galway; Connacht; Ireland,hotel,cameraforensics
https://q-cf.bstatic.com/images/hotel/max1280x900/870/8703838.jpg,53.609077,-10.0019145,,,,,,Ireland,Rusheenduff; Rinvyle Electoral Division; Conamara Municipal District; County Galway; Connacht; Ireland,hotel,cameraforensics
https://live.staticflickr.com/4410/36934025440_70fd84d5c1_o.jpg,53.60918055555555,-10.00159166666667,,,,,,Ireland,Renvyle House Hotel; Rusheenduff; Rinvyle Electoral Division; Conamara Municipal District; County Galway; Connacht; Ireland,hotel,cameraforensics
https://q-cf.bstatic.com/images/hotel/max1280x900/870/8703902.jpg,53.609077,-10.0019145,,,,,,Ireland,Rusheenduff; Rinvyle Electoral Division; Conamara Municipal District; County Galway; Connacht; Ireland,hotel,cameraforensics
https://live.staticflickr.com/65535/48499177121_a627f1ef3b_o.jpg,53.60498080555556,-9.99504091666667,,,,,,Ireland,Rusheenduff; Rinvyle Electoral Division; Conamara Municipal District; County Galway; Connacht; Ireland,hotel,cameraforensics
https://r-cf.bstatic.com/images/hotel/max1280x900/870/8705128.jpg,53.609077,-10.0019145,,,,,,Ireland,Rusheenduff; Rinvyle Electoral Division; Conamara Municipal District; County Galway; Connacht; Ireland,hotel,cameraforensics
https://live.staticflickr.com/4419/37188690291_363ed3e164_o.jpg,53.60920833333333,-10.00156944444444,,,,,,Ireland,Renvyle House Hotel; Rusheenduff; Rinvyle Electoral Division; Conamara Municipal District; County Galway; Connacht; Ireland,hotel,cameraforensics
https://live.staticflickr.com/5599/15510317808_3fc23a7f7f_o.jpg,53.34003888888889,-6.2543972222222175,,,,,,Ireland,Leinster House; Kildare Street; Dublin; Dublin 2; Leinster; D02 XR20; Ireland,hotel,cameraforensics
https://q-cf.bstatic.com/images/hotel/max1280x900/754/75464842.jpg,53.27803787,-9.04036131,,,,,,Ireland,Main Stand; The Green; Eyre Square; Galway City; County Galway; Connacht; H91 X4K8; Ireland,hotel,cameraforensics
https://r-cf.bstatic.com/images/hotel/max1280x900/581/5818043.jpg,53.27681498,-9.04140204,,,,,,Ireland,College Road; Eyre Square; Galway City; County Galway; Connacht; H91 X4K8; Ireland,hotel,cameraforensics
https://live.staticflickr.com/8535/8626227786_59279c90d1_o.jpg,51.8155,-9.8735,,,,,,Ireland,Parknasilla Resort & Spa; Sea Trail; Sneem; Kenmare Municipal District; County Kerry; Munster; Ireland,hotel,cameraforensics
https://q-cf.bstatic.com/images/hotel/max1280x900/176/17692004.jpg,51.81578503,-9.87450957,,,,,,Ireland,Parknasilla; Sea Trail; Sneem; Kenmare Municipal District; County Kerry; Munster; Ireland,hotel,cameraforensics
https://r-cf.bstatic.com/images/hotel/max1280x900/465/46515189.jpg,51.81578503,-9.87450957,,,,,,Ireland,Parknasilla; Sea Trail; Sneem; Kenmare Municipal District; County Kerry; Munster; Ireland,hotel,cameraforensics
https://q-cf.bstatic.com/images/hotel/max1280x900/192/192752476.jpg,51.81591105,-9.87499237,,,,,,Ireland,Parknasilla; Sea Trail; Sneem; Kenmare Municipal District; County Kerry; Munster; Ireland,hotel,cameraforensics
https://q-cf.bstatic.com/images/hotel/max1280x900/553/55321527.jpg,51.81752934,-9.8728466,,,,,,Ireland,Parknasilla Resort & Spa; Sea Trail; Sneem; Kenmare Municipal District; County Kerry; Munster; Ireland,hotel,cameraforensics
https://r-cf.bstatic.com/images/hotel/max1280x900/553/55320938.jpg,51.81752934,-9.8728466,,,,,,Ireland,Parknasilla Resort & Spa; Sea Trail; Sneem; Kenmare Municipal District; County Kerry; Munster; Ireland,hotel,cameraforensics
https://r-cf.bstatic.com/images/hotel/max1280x900/198/198432079.jpg,51.81775,-9.873894,,,,,,Ireland,Parknasilla Resort & Spa; Sea Trail; Sneem; Kenmare Municipal District; County Kerry; Munster; Ireland,hotel,cameraforensics
https://r-cf.bstatic.com/images/hotel/max1280x900/178/17860576.jpg,51.81578503,-9.87450957,,,,,,Ireland,Parknasilla; Sea Trail; Sneem; Kenmare Municipal District; County Kerry; Munster; Ireland,hotel,cameraforensics
https://q-cf.bstatic.com/images/hotel/max1280x900/192/192752289.jpg,51.81591105,-9.87499237,,,,,,Ireland,Parknasilla; Sea Trail; Sneem; Kenmare Municipal District; County Kerry; Munster; Ireland,hotel,cameraforensics
https://live.staticflickr.com/354/18937410681_6a4fcdd47f_o.jpg,51.82168888888889,-9.878413888888893,,,,,,Ireland,N70; Sneem; Kenmare Municipal District; County Kerry; Munster; Ireland,hotel,cameraforensics
https://drscdn.500px.org/photo/212714065/m%3D2048_k%3D1_a%3D1/51e80627833119aed31bee7a82ebe170,51.89308611111111,-8.49194444444444,,,,,,Ireland,University College Cork Main Campus; College Road; Gillabbey B; Cork; County Cork; Munster; T12 ND89; Ireland,hotel,cameraforensics
https://live.staticflickr.com/1533/26067472574_a6e2447159_o.jpg,51.89586388888889,-8.493927777777781,,,,,,Ireland,Dreamline; Mardyke Walk; Mardyke; Cork; County Cork; Munster; T12 XF62; Ireland,hotel,cameraforensics
https://live.staticflickr.com/1523/25685686890_881324445c_o.jpg,51.89670561111111,-8.48105619444445,,,,,,Ireland,Saint Finbarre's; Wandesford Quay; Gillabbey A; Cork; County Cork; Munster; T12 XK25; Ireland,hotel,cameraforensics
https://live.staticflickr.com/1556/26475104906_c73a5ba24a_o.jpg,51.89446388888889,-8.48142222222222,,,,,,Ireland,Bishop Street; Gillabbey A; Cork; County Cork; Munster; T12 XK25; Ireland,hotel,cameraforensics
https://live.staticflickr.com/3761/12880961154_76fea6376d_o.jpg,51.89729722222222,-8.47854166666667,,,,,,Ireland,28; Washington Street; City Centre; Gillabbey A; Cork; County Cork; Munster; T12 XR77; Ireland,hotel,cameraforensics
https://live.staticflickr.com/7123/7691307360_aee732fc9e_o.jpg,51.893884722222225,-8.48328694444444,,,,,,Ireland,The Red Horse Inn; Gillabbey Street; Gillabbey A; Cork; County Cork; Munster; T12 KPN3; Ireland,hotel,cameraforensics
https://live.staticflickr.com/1682/24838211612_af0aba1311_o.jpg,51.89655683333334,-8.48390291666667,,,,,,Ireland,Lancaster Gate; Lancaster Quay; Gillabbey A; Cork; County Cork; Munster; T12 XK25; Ireland,hotel,cameraforensics
https://r-cf.bstatic.com/images/hotel/max1280x900/824/82460823.jpg,52.63220336,-7.25059032,,,,,,Ireland,Springhill Court Conference Leisure & Spa Hotel; Waterford Road; Kilkenny Rural; The Municipal District of Kilkenny City; County Kilkenny; Leinster; R95 XV2D; Ireland,hotel,cameraforensics
https://q-cf.bstatic.com/images/hotel/max1280x900/277/27706407.jpg,52.63883822,-7.25735486,,,,,,Ireland,Maiden Hill; Kilkenny Rural; Kilkenny; County Kilkenny; Leinster; R95T20W; Ireland,hotel,cameraforensics
https://q-cf.bstatic.com/images/hotel/max1280x900/307/30769905.jpg,52.63946482,-7.249475200000001,,,,,,Ireland,Hollybank; Clongowen; Kilkenny Rural; Kilkenny; County Kilkenny; Leinster; R95T20W; Ireland,hotel,cameraforensics
https://r-cf.bstatic.com/images/hotel/max1280x900/186/186156673.jpg,52.63486654,-7.24876106,,,,,,Ireland,The Hoban Hotel; Kilkenny Ring Road; Kilkenny Rural; Kilkenny; County Kilkenny; Leinster; R95 XV2D; Ireland,hotel,cameraforensics
https://q-cf.bstatic.com/images/hotel/max1280x900/228/22839214.jpg,52.63883822,-7.25735486,,,,,,Ireland,Maiden Hill; Kilkenny Rural; Kilkenny; County Kilkenny; Leinster; R95T20W; Ireland,hotel,cameraforensics
https://live.staticflickr.com/5772/23111071610_b0cbf8d296_o.jpg,52.64024722222222,-7.25110833333333,,,,,,Ireland,Hollybank Lawn; Clongowen; Kilkenny Rural; Kilkenny; County Kilkenny; Leinster; R95NP23; Ireland,hotel,cameraforensics
https://q-cf.bstatic.com/images/hotel/max1280x900/277/27706373.jpg,52.63883822,-7.25735486,,,,,,Ireland,Maiden Hill; Kilkenny Rural; Kilkenny; County Kilkenny; Leinster; R95T20W; Ireland,hotel,cameraforensics
https://q-cf.bstatic.com/images/hotel/max1280x900/133/13324267.jpg,52.63486492,-7.25066811,,,,,,Ireland,Springmount; Kilkenny Rural; Kilkenny; County Kilkenny; Leinster; R95 XV2D; Ireland,hotel,cameraforensics
https://r-cf.bstatic.com/images/hotel/max1280x900/739/73921107.jpg,52.63897495,-7.25754261,,,,,,Ireland,Launard House B&B; Maiden Hill; Kilkenny Rural; The Municipal District of Kilkenny City; County Kilkenny; Leinster; R95T20W; Ireland,hotel,cameraforensics
https://live.staticflickr.com/7304/16375020639_ace33f07e3_o.jpg,52.63212222222222,-7.25108055555556,,,,,,Ireland,Springhill Hotel; Waterford Road; Kilkenny Rural; The Municipal District of Kilkenny City; County Kilkenny; Leinster; R95 XV2D; Ireland,hotel,cameraforensics
https://live.staticflickr.com/4412/36203950701_bfafe02e1e_o.jpg,52.843545,-8.98273833333333,,,,,,Ireland,Lana Asian Street Food; O'Connell Street; Ennis No. 4 Urban; Ennis Municipal District; County Clare; Munster; V95NVF1; Ireland,hotel,cameraforensics
https://live.staticflickr.com/7412/9628802387_5b4f2f6d2d_o.jpg,52.87983333333333,-6.33083333333333,,,,,,Ireland,Brooklodge Hotel; L2140; Aughrim; The Municipal District of Arklow; County Wicklow; Leinster; Ireland,hotel,cameraforensics
https://live.staticflickr.com/4423/36791099755_b924c5d97d_o.jpg,52.88035358333333,-6.32870519444444,,,,,,Ireland,Macreddin Golf Course; Macreddin Road; Aughrim; The Municipal District of Arklow; County Wicklow; Leinster; Ireland,hotel,cameraforensics
https://live.staticflickr.com/3738/9628802025_48d6e312bb_o.jpg,52.88016666666667,-6.3305,,,,,,Ireland,Brooklodge Hotel; L2140; Aughrim; The Municipal District of Arklow; County Wicklow; Leinster; Ireland,hotel,cameraforensics
https://live.staticflickr.com/4390/36394396250_61a3d8b019_o.jpg,52.88042908333333,-6.3326079722222195,,,,,,Ireland,Macreddin Golf Course; L2140; Aughrim; The Municipal District of Arklow; County Wicklow; Leinster; Ireland,hotel,cameraforensics
https://live.staticflickr.com/65535/46895619475_27600d0c32_o.jpg,52.879096984722224,-6.33018112166667,,,,,,Ireland,Macreddin Golf Course; Macreddin Road; Aughrim; The Municipal District of Arklow; County Wicklow; Leinster; Ireland,hotel,cameraforensics
https://live.staticflickr.com/4335/36898714971_415b70670c_o.jpg,52.879069444444454,-6.33055,,,,,,Ireland,Macreddin Road; Aughrim; The Municipal District of Arklow; County Wicklow; Leinster; Ireland,hotel,cameraforensics
https://live.staticflickr.com/3809/9632033866_b6f25e98eb_o.jpg,52.88,-6.33083333333333,,,,,,Ireland,Brooklodge Hotel; L2140; Aughrim; The Municipal District of Arklow; County Wicklow; Leinster; Ireland,hotel,cameraforensics
https://live.staticflickr.com/1840/43507130794_a7b01c0c29_o.jpg,52.87914166666667,-6.33044444444444,,,,,,Ireland,Macreddin Road; Aughrim; The Municipal District of Arklow; County Wicklow; Leinster; Ireland,hotel,cameraforensics
https://r-cf.bstatic.com/images/hotel/max1280x900/436/43637302.jpg,52.88007334,-6.33155823,,,,,,Ireland,Brooklodge Hotel; L2140; Aughrim; The Municipal District of Arklow; County Wicklow; Leinster; Ireland,hotel,cameraforensics
https://live.staticflickr.com/4411/36898715081_ed33470aba_o.jpg,52.87900555555557,-6.3306222222222175,,,,,,Ireland,Macreddin Road; Aughrim; The Municipal District of Arklow; County Wicklow; Leinster; Ireland,hotel,cameraforensics
https://live.staticflickr.com/4187/34589206532_3c8c505938_o.jpg,51.89319722222222,-8.471408333333331,,,,,,Ireland,Departament; Nicholas Street; Evergreen; Cork; County Cork; Munster; T12 PR83; Ireland,hotel,cameraforensics
https://live.staticflickr.com/4/3505/4004603836_46ef8b9a65_o_d.jpg,51.9015,-8.465333,,,,,,Ireland,6; Wellington Road; St. Patrick's A; Cork; County Cork; Munster; T23 XF95; Ireland,hotel,cameraforensics
https://live.staticflickr.com/1774/43263097674_f40a61d938_o.jpg,51.9,-8.466111111111111,,,,,,Ireland,14; Parnell Place Bus Station; Centre A; Cork; County Cork; Munster; T12 T853; Ireland,hotel,cameraforensics
https://live.staticflickr.com/1580/24619665280_7374d44848_o.jpg,51.90053175,-8.464069361111111,,,,,,Ireland,Mercury; Penrose Quay; St. Patrick's A; Cork; County Cork; Munster; T23 EK0E; Ireland,hotel,cameraforensics
https://live.staticflickr.com/65535/49224313048_5a694f4c2e_o.jpg,51.9033,-8.46159722222222,,,,,,Ireland,Adelaide Terrace; Wellington Road; St. Patrick's A; Cork; County Cork; Munster; T23 XF95; Ireland,hotel,cameraforensics
https://r-cf.bstatic.com/images/hotel/max1280x900/199/199774578.jpg,51.90229715,-8.47059611,,,,,,Ireland,Hardwick House; Hardwick Street; Blackpool B; Cork; County Cork; Munster; T23EF43; Ireland,hotel,cameraforensics
https://live.staticflickr.com/8780/29620948592_1faa4b7100_o.jpg,53.34009166666667,-6.25871666666667,,,,,,Ireland,Peruke & Periwig; 31; Dawson Street; Dublin; Dublin 2; Leinster; D02 AW24; Ireland,hotel,cameraforensics
https://live.staticflickr.com/1760/28807203518_dcccec6ba3_o.jpg,52.06234166666667,-9.623108333333333,,,,,,Ireland,The Dunloe; Fossa Way; Fossa; Lahard; Killarney Municipal District; County Kerry; Munster; V93 E029; Ireland,hotel,cameraforensics
http://static.panoramio.com/photos/original/93709083.jpg,52.056460799999996,-9.6280494,,,,,,Ireland,An Teach Fada; Fossa Way; Fossa; Lahard; Killarney Municipal District; County Kerry; Munster; V93WD99; Ireland,hotel,cameraforensics
https://r-cf.bstatic.com/images/hotel/max1280x900/150/15039510.jpg,52.05217379,-9.63705897,,,,,,Ireland,Dunloe; Kenmare Municipal District; County Kerry; Munster; V93 E029; Ireland,hotel,cameraforensics
https://q-cf.bstatic.com/images/hotel/max1280x900/167/167217518.jpg,52.05981319,-9.62814331,,,,,,Ireland,The Dunloe; Fossa Way; Fossa; Lahard; Killarney Municipal District; County Kerry; Munster; V93 E029; Ireland,hotel,cameraforensics
https://live.staticflickr.com/3699/20026389436_886cc4f369_o.jpg,52.059944444444454,-9.62703888888889,,,,,,Ireland,The Dunloe; Fossa Way; Fossa; Lahard; Killarney Municipal District; County Kerry; Munster; V93 E029; Ireland,hotel,cameraforensics
https://live.staticflickr.com/749/33241978422_b4575ce1f9_o.jpg,52.052139277777776,-9.63277433333333,,,,,,Ireland,Dunloe; Kenmare Municipal District; County Kerry; Munster; V93 E029; Ireland,hotel,cameraforensics
https://live.staticflickr.com/5331/30431516893_bde1623fe7_o.jpg,52.06246833333334,-9.62534166666667,,,,,,Ireland,Dunloe Castle; L3025; Dunloe; Kenmare Municipal District; County Kerry; Munster; V93 E029; Ireland,hotel,cameraforensics
https://q-cf.bstatic.com/images/hotel/max1280x900/150/15039463.jpg,52.05217379,-9.63705897,,,,,,Ireland,Dunloe; Kenmare Municipal District; County Kerry; Munster; V93 E029; Ireland,hotel,cameraforensics
https://r-cf.bstatic.com/images/hotel/max1280x900/159/159340074.jpg,52.05981319,-9.62814331,,,,,,Ireland,The Dunloe; Fossa Way; Fossa; Lahard; Killarney Municipal District; County Kerry; Munster; V93 E029; Ireland,hotel,cameraforensics
https://q-cf.bstatic.com/images/hotel/max1280x900/150/15039269.jpg,52.05217379,-9.63705897,,,,,,Ireland,Dunloe; Kenmare Municipal District; County Kerry; Munster; V93 E029; Ireland,hotel,cameraforensics
https://live.staticflickr.com/4305/36009413626_68c234d8a0_o.jpg,53.283572222222226,-9.06408333333333,,,,,,Ireland,NUI Galway (Main Campus); Distillery Road; Nun's Island; Galway City; County Galway; Connacht; H91 CF90; Ireland,hotel,cameraforensics
https://live.staticflickr.com/1873/43631581844_7d721c492a_o.jpg,53.28916666666667,-9.07472222222222,,,,,,Ireland,The Westwood; Dangan; Galway City; County Galway; Connacht; H91 CF90; Ireland,hotel,cameraforensics
https://live.staticflickr.com/7016/13277743595_9cf4aaa6fe_o.jpg,53.28366666666667,-9.06483333333333,,,,,,Ireland,NUI Galway (Main Campus); Distillery Road; Nun's Island; Galway City; County Galway; Connacht; H91 CF90; Ireland,hotel,cameraforensics
https://live.staticflickr.com/2873/9318290511_cd6c9bae17_o.jpg,53.2823,-9.06020833333333,,,,,,Ireland,Bóthar Na dTreabh; Newcastle; Galway City; County Galway; Connacht; H91 CF90; Ireland,hotel,cameraforensics
https://live.staticflickr.com/4106/5007097635_7014c97c42_o.jpg,53.2835875,-9.066509722222222,,,,,,Ireland,J.E. Cairnes School of Business & Economics; Upper Newcastle Road; Newcastle; Galway City; County Galway; Connacht; H91 CF90; Ireland,hotel,cameraforensics
https://drscdn.500px.org/photo/246437205/m%3D2048_k%3D1_a%3D1/v2?client_application_id=36673&webp=true&sig=420f194fce4cfa22882410f1323653d9d482e7dbe074498f453cd4f9cbcc9869,53.285833333333336,-9.06583333333333,,,,,,Ireland,Corrib Village; Dangan; Galway City; County Galway; Connacht; H91 CF90; Ireland,hotel,cameraforensics
https://q-cf.bstatic.com/images/hotel/max1280x900/238/238147015.jpg,53.2871961,-9.0773138,,,,,,Ireland,48; Cherry Park; Dangan; Galway City; County Galway; Connacht; H91 CF90; Ireland,hotel,cameraforensics
https://r-cf.bstatic.com/images/hotel/max1280x900/706/70658710.jpg,53.28242420000001,-9.0654746,,,,,,Ireland,Tisara; 16; Upper Newcastle Road; Newcastle; Galway City; County Galway; Connacht; H91 CF90; Ireland,hotel,cameraforensics
https://live.staticflickr.com/3674/9777220155_c352de519e_o.jpg,53.28266666666666,-9.06133333333333,,,,,,Ireland,Bóthar Na dTreabh; Newcastle; Galway City; County Galway; Connacht; H91 CF90; Ireland,hotel,cameraforensics
https://live.staticflickr.com/2835/34064289096_31706556ce_o.jpg,53.28777777777778,-8.981944444444439,,,,,,Ireland,Bóthar Na dTreabh; Doughiska; Ballybaan; Galway City; County Galway; Connacht; H91 Y57F; Ireland,hotel,cameraforensics
https://live.staticflickr.com/7365/12841374524_739f00dc82_o.jpg,53.29126738888889,-8.98919866666667,,,,,,Ireland,Clayton Hotel; Bóthar Na dTreabh; Ballybrit; Galway City; County Galway; Connacht; H91 CK18; Ireland,hotel,cameraforensics
https://live.staticflickr.com/5594/14841727693_bcde29c7fb_o.jpg,53.28959166666667,-8.99965,,,,,,Ireland,63; The Meadows; Ballybrit; Galway City; County Galway; Connacht; H91 CK18; Ireland,hotel,cameraforensics
https://q-cf.bstatic.com/images/hotel/max1280x900/135/135368543.jpg,53.29162374,-8.98825407,,,,,,Ireland,Clayton Hotel; Bóthar Na dTreabh; Ballybrit; Galway City; County Galway; Connacht; H91 CK18; Ireland,hotel,cameraforensics
https://r-cf.bstatic.com/images/hotel/max1280x900/135/135367997.jpg,53.29162374,-8.98825407,,,,,,Ireland,Clayton Hotel; Bóthar Na dTreabh; Ballybrit; Galway City; County Galway; Connacht; H91 CK18; Ireland,hotel,cameraforensics
https://r-cf.bstatic.com/images/hotel/max1280x900/135/135357095.jpg,53.29162374,-8.98825407,,,,,,Ireland,Clayton Hotel; Bóthar Na dTreabh; Ballybrit; Galway City; County Galway; Connacht; H91 CK18; Ireland,hotel,cameraforensics
https://live.staticflickr.com/6086/6106431454_7753ed864c_o.jpg,53.290033333333334,-8.98450833333333,,,,,,Ireland,Bóthar Na dTreabh; Doughiska; Ballybaan; Galway City; County Galway; Connacht; H91 Y57F; Ireland,hotel,cameraforensics
https://live.staticflickr.com/6067/6106702902_049eba4531_o.jpg,53.2939388888889,-8.98898888888889,,,,,,Ireland,House of Furniture; Briarhill Business Park; Ballybrit; Galway City; County Galway; Connacht; H91 CK18; Ireland,hotel,cameraforensics
https://live.staticflickr.com/2807/12841399884_8f4bf2a228_o.jpg,53.285995472222226,-8.98150155555556,,,,,,Ireland,Road of the Old Hag; Doughiska; Ballybaan; Galway City; County Galway; Connacht; Ireland,hotel,cameraforensics
https://q-cf.bstatic.com/images/hotel/max1280x900/260/26036069.jpg,53.29098395,-8.99057643,,,,,,Ireland,Monivea Road; Ballybane; Ballybaan; Galway City; County Galway; Connacht; H91 CK18; Ireland,hotel,cameraforensics
https://live.staticflickr.com/3760/9317917783_1e0faa8880_o.jpg,52.065075,-9.57345833333333,,,,,,Ireland,The Europe Hotel & Resort; The Fossa Way; Fossa; Killarney Rural; Killarney Municipal District; County Kerry; Munster; V93 KHN6; Ireland,hotel,cameraforensics
https://q-cf.bstatic.com/images/hotel/max1280x900/990/9906969.jpg,52.07581014,-9.57113564,,,,,,Ireland,Aghadoe; Killarney Municipal District; County Kerry; Munster; V93 K409; Ireland,hotel,cameraforensics
https://live.staticflickr.com/5621/31264282486_04df01b003_o.jpg,52.06708833333333,-9.57264666666667,,,,,,Ireland,The Europe Hotel & Resort; The Fossa Way; Fossa; Killarney Rural; Killarney Municipal District; County Kerry; Munster; V93 KHN6; Ireland,hotel,cameraforensics
https://r-cf.bstatic.com/images/hotel/max1280x900/785/7856777.jpg,52.06717428,-9.57249284,,,,,,Ireland,The Europe Hotel & Resort; The Fossa Way; Fossa; Killarney Rural; Killarney Municipal District; County Kerry; Munster; V93 KHN6; Ireland,hotel,cameraforensics
https://q-cf.bstatic.com/images/hotel/max1280x900/160/16035944.jpg,52.07251295,-9.57699761,,,,,,Ireland,Killarney International Hostel; Forest trail; Aghadoe; Killarney Municipal District; County Kerry; Munster; V93CR90; Ireland,hotel,cameraforensics
https://q-cf.bstatic.com/images/hotel/max1280x900/926/92648780.jpg,52.07044549,-9.573372599999999,,,,,,Ireland,Innisfallen Hotel; R563; Aghadoe; Killarney Municipal District; County Kerry; Munster; V93CR90; Ireland,hotel,cameraforensics
https://live.staticflickr.com/5817/31185742291_f264c11672_o.jpg,52.06708833333333,-9.57264666666667,,,,,,Ireland,The Europe Hotel & Resort; The Fossa Way; Fossa; Killarney Rural; Killarney Municipal District; County Kerry; Munster; V93 KHN6; Ireland,hotel,cameraforensics
https://live.staticflickr.com/5832/31264274156_82aa5343c8_o.jpg,52.06708833333333,-9.57264666666667,,,,,,Ireland,The Europe Hotel & Resort; The Fossa Way; Fossa; Killarney Rural; Killarney Municipal District; County Kerry; Munster; V93 KHN6; Ireland,hotel,cameraforensics
https://live.staticflickr.com/4176/34226855410_d68fb1fc7b_o.jpg,52.06689833333333,-9.57273333333333,,,,,,Ireland,The Europe Hotel & Resort; The Fossa Way; Fossa; Killarney Rural; Killarney Municipal District; County Kerry; Munster; V93 KHN6; Ireland,hotel,cameraforensics
https://live.staticflickr.com/4166/34571469196_0be55a1162_o.jpg,52.06773166666667,-9.57303833333333,,,,,,Ireland,The Europe Hotel & Resort; The Fossa Way; Fossa; Killarney Rural; Killarney Municipal District; County Kerry; Munster; V93 KHN6; Ireland,hotel,cameraforensics
https://q-cf.bstatic.com/images/hotel/max1280x900/203/203792294.jpg,53.79772828,-9.51369359,,,,,,Ireland,Altamont Street; Westport Urban Electoral Division; Westport-Belmullet Municipal District; County Mayo; Connacht; F28 RD39; Ireland,hotel,cameraforensics
https://r-cf.bstatic.com/images/hotel/max1280x900/182/18274339.jpg,53.8013209,-9.51826867,,,,,,Ireland,Castlecourt; Castlebar Road; Westport Urban Electoral Division; Westport-Belmullet Municipal District; County Mayo; Connacht; F28 RD39; Ireland,hotel,cameraforensics
https://r-cf.bstatic.com/images/hotel/max1280x900/177/17751368.jpg,53.8013209,-9.51826867,,,,,,Ireland,Castlecourt; Castlebar Road; Westport Urban Electoral Division; Westport-Belmullet Municipal District; County Mayo; Connacht; F28 RD39; Ireland,hotel,cameraforensics
