url,latitude,longitude,date,height,width,media,copyRight,country,address,keyword,source
https://live.staticflickr.com/589/21877267754_5e7d07f6bb_o.jpg,38.46916666666667,14.955554999999999,,,,,,Italy,Vico Rodi; Lipari; Messina; Sicily; 98055; Italy,hotel,cameraforensics
https://r-cf.bstatic.com/images/hotel/max1280x900/186/186278235.jpg,38.47599014,14.95594901,,,,,,Italy,Agip; Via Francesco Crispi; Lipari; Messina; Sicily; 98055; Italy,hotel,cameraforensics
https://r-cf.bstatic.com/images/hotel/max1280x900/899/89910242.jpg,38.47957072,14.94832497,,,,,,Italy,Pirrera; Canneto; Lipari; Messina; Sicily; Italy,hotel,cameraforensics
https://q-cf.bstatic.com/images/hotel/max1280x900/969/96986506.jpg,38.46998732,14.95403409,,,,,,Italy,Hotel Poseidon; Vico Ausonia; Lipari; Messina; Sicily; 98055; Italy,hotel,cameraforensics
https://q-cf.bstatic.com/images/hotel/max1280x900/151/151352065.jpg,38.46700457,14.95461063,,,,,,Italy,Rosticceria Tavola Calda; Corso Vittorio Emanuele; Lipari; Messina; Sicily; Italy,hotel,cameraforensics
https://q-cf.bstatic.com/images/hotel/max1280x900/142/142332426.jpg,38.47240815,14.95213687,,,,,,Italy,Aktea; Via Giovanni Falcone e Paolo Borsellino; Santa Margherita; Lipari; Messina; Sicily; Italy,hotel,cameraforensics
https://q-cf.bstatic.com/images/hotel/max1280x900/101/101189729.jpg,38.47851804,14.95676458,,,,,,Italy,Canneto; Lipari; Messina; Sicily; Italy,hotel,cameraforensics
https://q-cf.bstatic.com/images/hotel/max1280x900/898/89860241.jpg,38.47957072,14.94832497,,,,,,Italy,Pirrera; Canneto; Lipari; Messina; Sicily; Italy,hotel,cameraforensics
https://live.staticflickr.com/298/32129991090_7b7bdc6a56_o.jpg,38.46916666666667,14.95611111111111,,,,,,Italy,Salita Meligunis; Lipari; Messina; Sicily; Italy,hotel,cameraforensics
https://r-cf.bstatic.com/images/hotel/max1280x900/191/191184621.jpg,38.469424,14.954585999999999,,,,,,Italy,Vico Eolo; Lipari; Messina; Sicily; Italy,hotel,cameraforensics
https://q-cf.bstatic.com/images/hotel/max1280x900/223/223522132.jpg,40.70455,13.919114000000002,,,,,,Italy,Bus 5; Via Provinciale Maronti; Vatoliere; Barano d'Ischia; Napoli; Campania; 80076; Italy,hotel,cameraforensics
https://r-cf.bstatic.com/images/hotel/max1280x900/223/223537582.jpg,40.70455,13.919114000000002,,,,,,Italy,Bus 5; Via Provinciale Maronti; Vatoliere; Barano d'Ischia; Napoli; Campania; 80076; Italy,hotel,cameraforensics
https://q-cf.bstatic.com/images/hotel/max1280x900/628/62892737.jpg,40.70188351,13.91158819,,,,,,Italy,Hotel San Giorgio Terme; Via Provinciale Maronti; Vatoliere; Barano d'Ischia; Napoli; Campania; 80076; Italy,hotel,cameraforensics
https://r-cf.bstatic.com/images/hotel/max1280x900/184/184558930.jpg,40.70375410000001,13.92216804,,,,,,Italy,Vatoliere; Barano d'Ischia; Napoli; Campania; 80076; Italy,hotel,cameraforensics
https://q-cf.bstatic.com/images/hotel/max1280x900/154/154943858.jpg,40.70435711,13.91779751,,,,,,Italy,Via Provinciale Maronti; Vatoliere; Barano d'Ischia; Napoli; Campania; 80076; Italy,hotel,cameraforensics
https://q-cf.bstatic.com/images/hotel/max1280x900/628/62891374.jpg,40.70188351,13.91158819,,,,,,Italy,Hotel San Giorgio Terme; Via Provinciale Maronti; Vatoliere; Barano d'Ischia; Napoli; Campania; 80076; Italy,hotel,cameraforensics
https://r-cf.bstatic.com/images/hotel/max1280x900/788/78890816.jpg,40.70393847,13.91404027,,,,,,Italy,Via Provinciale Maronti; Vatoliere; Barano d'Ischia; Napoli; Campania; 80076; Italy,hotel,cameraforensics
https://r-cf.bstatic.com/images/hotel/max1280x900/701/70110012.jpg,40.701938,13.906992,,,,,,Italy,Via Provinciale Maronti; Vatoliere; Barano d'Ischia; Napoli; Campania; 80076; Italy,hotel,cameraforensics
https://r-cf.bstatic.com/images/hotel/max1280x900/571/57109216.jpg,40.70151647,13.91166866,,,,,,Italy,Hotel La Mandorla; Via Provinciale Maronti; Vatoliere; Barano d'Ischia; Napoli; Campania; 80076; Italy,hotel,cameraforensics
https://r-cf.bstatic.com/images/hotel/max1280x900/220/220271528.jpg,40.70396696,13.91804896,,,,,,Italy,Via Provinciale Maronti; Vatoliere; Barano d'Ischia; Napoli; Campania; 80076; Italy,hotel,cameraforensics
https://live.staticflickr.com/4273/34575547423_0e5176b85d_o.jpg,40.62808888888889,14.37276388888889,,,,,,Italy,Sorrento; Napoli; Campania; 80067; Italy,hotel,cameraforensics
https://live.staticflickr.com/1597/25199348246_b773104afb_o.jpg,40.620957694444435,14.37241527777778,,,,,,Italy,Hilton Sorrento Palace; 13; Via Sant'Antonio; Sorrento; Napoli; Campania; 80067; Italy,hotel,cameraforensics
https://live.staticflickr.com/8414/8706989062_448f63712f_o.jpg,40.62516666666667,14.37633333333333,,,,,,Italy,Vallone dei Mulini; Via Fuorimura; Sorrento; Napoli; Campania; 80067; Italy,hotel,cameraforensics
https://live.staticflickr.com/419/19691782192_db2266e990_o.jpg,40.62851416666667,14.374359444444439,,,,,,Italy,Villa la Terrazza; 38; Via Marina Piccola; Sorrento; Napoli; Campania; 80067; Italy,hotel,cameraforensics
https://live.staticflickr.com/4116/4921134920_e88db90c4c_o.jpg,40.62623611111111,14.371975,,,,,,Italy,Il Pozzo; Via Accademia; Sorrento; Napoli; Campania; 80067; Italy,hotel,cameraforensics
https://live.staticflickr.com/4206/34901525380_dd46c12125_o.jpg,40.62275277777777,14.369552777777779,,,,,,Italy,Via Rivolo Sant'Antonio; Sorrento; Napoli; Campania; 80067; Italy,hotel,cameraforensics
https://live.staticflickr.com/2925/34039571152_151bbb5405_o.jpg,40.62640833333333,14.37349166666667,,,,,,Italy,Rivoli; Via Santa Maria delle Grazie; Sorrento; Napoli; Campania; 80067; Italy,hotel,cameraforensics
https://live.staticflickr.com/2925/14469233021_24be8c4e15_o.jpg,40.62833333333333,14.373055555555561,,,,,,Italy,Sorrento; Napoli; Campania; 80067; Italy,hotel,cameraforensics
https://q-cf.bstatic.com/images/hotel/max1280x900/170/170879869.jpg,40.623728,14.3760543,,,,,,Italy,Via degli Aranci; Sorrento; Napoli; Campania; 80067; Italy,hotel,cameraforensics
https://live.staticflickr.com/753/23077004919_6b39bfa775_o.jpg,40.62813888888889,14.372797222222221,,,,,,Italy,Sorrento; Napoli; Campania; 80067; Italy,hotel,cameraforensics
https://live.staticflickr.com/7347/11218172955_4bd722852f_o.jpg,40.62766666666667,14.4905,,,,,,Italy,Mobility Amalfi Coast buses; Via Cristoforo Colombo; Montepertuso; Arienzo; Positano; Salerno; Campania; 84017; Italy,hotel,cameraforensics
https://live.staticflickr.com/3897/18581861733_72d93bbd12_o.jpg,40.628522222222216,14.485305555555561,,,,,,Italy,Latteria; Via dei Gladioli; Montepertuso; Arienzo; Positano; Salerno; Campania; 84017; Italy,hotel,cameraforensics
https://live.staticflickr.com/3774/19674817618_26c15c1cf9_o.jpg,40.627662638888886,14.48847291666667,,,,,,Italy,Montepertuso; Arienzo; Positano; Salerno; Campania; 84017; Italy,hotel,cameraforensics
https://live.staticflickr.com/4285/35822568345_3a436dd41c_o.jpg,40.62790555555557,14.48733333333333,,,,,,Italy,Montepertuso; Arienzo; Positano; Salerno; Campania; 84017; Italy,hotel,cameraforensics
https://live.staticflickr.com/3837/14809045091_a74cc9b9a7_o.jpg,40.62819444444445,14.487219444444447,,,,,,Italy,Chiesa di Santa Maria Assunta; Via dei Mulini; Montepertuso; Arienzo; Positano; Salerno; Campania; 84017; Italy,hotel,cameraforensics
https://live.staticflickr.com/7465/15620293450_02bede8a83_o.jpg,40.62844666666667,14.48495833333333,,,,,,Italy,Albergo Poseidon; Via Pasitea; Montepertuso; Arienzo; Positano; Salerno; Campania; 84017; Italy,hotel,cameraforensics
https://live.staticflickr.com/5544/10810815896_18dc829107_o.jpg,40.63112222222222,14.48708333333333,,,,,,Italy,Strada Statale Amalfitana; Montepertuso; Arienzo; Positano; Salerno; Campania; 84017; Italy,hotel,cameraforensics
https://live.staticflickr.com/8152/7277409038_fc30117e9f_o.jpg,40.63183333333333,14.48583333333333,,,,,,Italy,Strada Statale Amalfitana; Montepertuso; Arienzo; Positano; Salerno; Campania; 84017; Italy,hotel,cameraforensics
https://live.staticflickr.com/4162/33782490714_1f0c3f8ce4_o.jpg,40.62763611111111,14.48728333333333,,,,,,Italy,Montepertuso; Arienzo; Positano; Salerno; Campania; 84017; Italy,hotel,cameraforensics
https://live.staticflickr.com/4210/34513033504_38473fd014_o.jpg,40.628297222222216,14.49451666666667,,,,,,Italy,Strada Statale Amalfitana; Montepertuso; Arienzo; Positano; Salerno; Campania; 84017; Italy,hotel,cameraforensics
https://live.staticflickr.com/7452/9183717450_ea363fa41c_o.jpg,40.62366666666667,14.377666638888893,,,,,,Italy,car place 1; Via Fuorimura; Sorrento; Napoli; Campania; 80067; Italy,hotel,cameraforensics
https://live.staticflickr.com/4428/36250384911_3ce55a5b2a_o.jpg,40.62585,14.37968333333333,,,,,,Italy,Snack Bar; Piazza G. B. de Curtis; Sorrento; Napoli; Campania; 80067; Italy,hotel,cameraforensics
https://live.staticflickr.com/4248/34850730471_5a5a147aee_o.jpg,44.31572222222222,9.33251388888889,,,,,,Italy,Centro di Documentazione Zucchero Amaro; Via Entella; Sampierdicanne; Chiavari; Genoa; Liguria; 16043; Italy,hotel,cameraforensics
https://live.staticflickr.com/4158/34500630185_208aaf702d_o.jpg,44.3108388888889,9.334877777777779,,,,,,Italy,Lavagna; Genoa; Liguria; 16043; Italy,hotel,cameraforensics
https://live.staticflickr.com/2827/32708592023_d5cd40be2a_o.jpg,44.31473888888889,9.32872222222222,,,,,,Italy,Piazza Roma; Chiavari; Genoa; Liguria; 16043; Italy,hotel,cameraforensics
https://r-cf.bstatic.com/images/hotel/max1280x900/209/209294429.jpg,44.31199025,9.33006674,,,,,,Italy,via Tito Groppo; Chiavari; Genoa; Liguria; 16043; Italy,hotel,cameraforensics
https://q-cf.bstatic.com/images/hotel/max1280x900/142/142784214.jpg,44.313921,9.327938,,,,,,Italy,Pizzaria N.6; Via Jacopo Rocca; Chiavari; Genoa; Liguria; 16043; Italy,hotel,cameraforensics
https://live.staticflickr.com/979/27816440978_9619b01620_o.jpg,44.31752777777778,9.325552777777778,,,,,,Italy,La Mattonella; Piazza Fenice; Sampierdicanne; Chiavari; Genoa; Liguria; 16043; Italy,hotel,cameraforensics
https://live.staticflickr.com/2802/5828905990_706f9dd644_o.jpg,44.31,9.33416666666667,,,,,,Italy,Via dei Devoto; Lavagna; Genoa; Liguria; 16033; Italy,hotel,cameraforensics
https://r-cf.bstatic.com/images/hotel/max1280x900/136/136911801.jpg,44.31384613,9.33013916,,,,,,Italy,Via Trieste; Chiavari; Genoa; Liguria; 16043; Italy,hotel,cameraforensics
https://q-cf.bstatic.com/images/hotel/max1280x900/125/125282662.jpg,44.31624,9.33412,,,,,,Italy,Avvocato Federico Baglini; 51; Via Piacenza; Sampierdicanne; Chiavari; Genoa; Liguria; 16043; Italy,hotel,cameraforensics
https://r-cf.bstatic.com/images/hotel/max1280x900/205/205329894.jpg,44.3158,9.33383,,,,,,Italy,Via Entella; Sampierdicanne; Chiavari; Genoa; Liguria; 16043; Italy,hotel,cameraforensics
https://live.staticflickr.com/5496/11781476715_36bbe99468_o.jpg,40.67223611111111,14.73177222222222,,,,,,Italy,Marina di Vietri; Vietri sul Mare; Salerno; Campania; 84121; Italy,hotel,cameraforensics
https://live.staticflickr.com/8740/16751227985_3a3867a50a_o.jpg,40.67050277777777,14.73469166666667,,,,,,Italy,Lloyd's Baia Hotel; Via Errico De Marinis Orientale; Vietri sul Mare; Salerno; Campania; 84121; Italy,hotel,cameraforensics
https://live.staticflickr.com/4322/35241063274_3192501ded_o.jpg,40.667584999999995,14.728521388888893,,,,,,Italy,Via Cristoforo Colombo; Raito; Marina di Vietri; Vietri sul Mare; Salerno; Campania; 84121; Italy,hotel,cameraforensics
https://r-cf.bstatic.com/images/hotel/max1280x900/116/116240821.jpg,40.66992156,14.72909754,,,,,,Italy,Marina di Vietri; Vietri sul Mare; Salerno; Campania; 84121; Italy,hotel,cameraforensics
https://r-cf.bstatic.com/images/hotel/max1280x900/137/137644687.jpg,40.6702843,14.7273829,,,,,,Italy,Via Diego Taliani; Marina di Vietri; Vietri sul Mare; Salerno; Campania; 84121; Italy,hotel,cameraforensics
https://r-cf.bstatic.com/images/hotel/max1280x900/194/194986469.jpg,40.66971725,14.72544014,,,,,,Italy,Hotel Vietri Coast; Via Osvaldo Costabile; Raito; Marina di Vietri; Vietri sul Mare; Salerno; Campania; 84121; Italy,hotel,cameraforensics
https://r-cf.bstatic.com/images/hotel/max1280x900/528/52825846.jpg,40.671377299999996,14.73020107,,,,,,Italy,Marina di Vietri; Vietri sul Mare; Salerno; Campania; 84121; Italy,hotel,cameraforensics
https://r-cf.bstatic.com/images/hotel/max1280x900/201/201684550.jpg,40.67013836,14.72867035,,,,,,Italy,Marina di Vietri; Vietri sul Mare; Salerno; Campania; 84121; Italy,hotel,cameraforensics
https://r-cf.bstatic.com/images/hotel/max1280x900/105/105476689.jpg,40.671524299999994,14.72848934,,,,,,Italy,Evù; Via Diego Taliani; Marina di Vietri; Vietri sul Mare; Salerno; Campania; 84121; Italy,hotel,cameraforensics
https://q-cf.bstatic.com/images/hotel/max1280x900/209/209625033.jpg,40.66931323,14.72957192,,,,,,Italy,16; Via Cristoforo Colombo; Raito; Marina di Vietri; Vietri sul Mare; Salerno; Campania; 84019; Italy,hotel,cameraforensics
https://live.staticflickr.com/258/31014401534_aed31b1afc_o.jpg,38.02976638888889,12.88147263888889,,,,,,Italy,scalinata; Castellammare del Golfo; Trapani; Sicily; 91014; Italy,hotel,cameraforensics
https://live.staticflickr.com/4236/35515513111_093950bf64_o.jpg,38.03170833333333,12.87366166666667,,,,,,Italy,Il Crocifisso del Belvedere; Strada  Statale  187; Castellammare del Golfo; Trapani; Sicily; 91014; Italy,hotel,cameraforensics
https://q-cf.bstatic.com/images/hotel/max1280x900/151/151363658.jpg,38.025389200000006,12.88108665,,,,,,Italy,Via Venti Settembre; Castellammare del Golfo; Trapani; Sicily; 91014; Italy,hotel,cameraforensics
https://q-cf.bstatic.com/images/hotel/max1280x900/758/75867631.jpg,38.02330615,12.87737655,,,,,,Italy,Via Don Giuseppe Ancona; Castellammare del Golfo; Trapani; Sicily; 91014; Italy,hotel,cameraforensics
https://q-cf.bstatic.com/images/hotel/max1280x900/152/152647670.jpg,38.02488084,12.87921996,,,,,,Italy,Via Verderame; Castellammare del Golfo; Trapani; Sicily; 91014; Italy,hotel,cameraforensics
https://r-cf.bstatic.com/images/hotel/max1280x900/760/76098123.jpg,38.02330615,12.87737655,,,,,,Italy,Via Don Giuseppe Ancona; Castellammare del Golfo; Trapani; Sicily; 91014; Italy,hotel,cameraforensics
https://q-cf.bstatic.com/images/hotel/max1280x900/143/143328005.jpg,38.02306,12.879707000000002,,,,,,Italy,Via Roma; Castellammare del Golfo; Trapani; Sicily; 91014; Italy,hotel,cameraforensics
https://r-cf.bstatic.com/images/hotel/max1280x900/385/38535965.jpg,38.02908131,12.88271291,,,,,,Italy,Chiesa Madre Santuario Maria SS. del Soccorso; Via Costamante; Castellammare del Golfo; Trapani; Sicily; 91014; Italy,hotel,cameraforensics
https://r-cf.bstatic.com/images/hotel/max1280x900/140/140312704.jpg,38.02506444,12.88041816,,,,,,Italy,Via della Libertà; Castellammare del Golfo; Trapani; Sicily; 91014; Italy,hotel,cameraforensics
https://q-cf.bstatic.com/images/hotel/max1280x900/151/151480431.jpg,38.023765000000004,12.883683999999999,,,,,,Italy,Via Nicolò Briguccia; Castellammare del Golfo; Trapani; Sicily; 91014; Italy,hotel,cameraforensics
https://live.staticflickr.com/770/20895047493_d7e1fb203c_o.jpg,44.697095000000004,10.632405,,,,,,Italy,Basilica di San Prospero; Via Prevostura; San Prospero città; Reggio nell'Emilia; Emilia-Romagna; 42121; Italy,hotel,cameraforensics
http://static.panoramio.com/photos/original/73655213.jpg,44.697461,10.630466,,,,,,Italy,Piazza Camillo Prampolini; Via Farini; Duomo; Reggio nell'Emilia; Emilia-Romagna; 42121; Italy,hotel,cameraforensics
https://live.staticflickr.com/816/40162255015_53bfc1b2aa_o.jpg,44.70027777777778,10.62833333333333,,,,,,Italy,Via San Rocco; San Francesco-Giardini Pubblici; Reggio nell'Emilia; Emilia-Romagna; 42121; Italy,hotel,cameraforensics
https://live.staticflickr.com/380/18769074408_d84eb56eac_o.jpg,44.70105,10.62826666666667,,,,,,Italy,Piccola Piedigrotta; Piazza Venticinque Aprile; San Francesco-Giardini Pubblici; Reggio nell'Emilia; Emilia-Romagna; 42121; Italy,hotel,cameraforensics
https://live.staticflickr.com/807/41034219381_54811991f7_o.jpg,44.69666666666667,10.63694444444444,,,,,,Italy,Via Emilia a San Pietro; San Pietro città; Reggio nell'Emilia; Emilia-Romagna; 42121; Italy,hotel,cameraforensics
https://live.staticflickr.com/872/40568083394_b50122b21c_o.jpg,44.69833333333333,10.638055555555551,,,,,,Italy,Cinema Estivo Ex Stalloni; Via Campo Samarotto; San Pietro città; Reggio nell'Emilia; Emilia-Romagna; 42121; Italy,hotel,cameraforensics
https://live.staticflickr.com/799/26410229797_6a1030e34b_o.jpg,44.702777777777776,10.632777777777779,,,,,,Italy,19; Viale Leopoldo Nobili; San Giacomo esterna; Reggio nell'Emilia; Emilia-Romagna; 42121; Italy,hotel,cameraforensics
https://q-cf.bstatic.com/images/hotel/max1280x900/152/15299261.jpg,44.69844678,10.63007846,,,,,,Italy,Via San Giuseppe; Duomo; Reggio nell'Emilia; Emilia-Romagna; 42121; Italy,hotel,cameraforensics
https://live.staticflickr.com/807/40579317345_2791eb64e7_o.jpg,44.69638888888889,10.632222222222222,,,,,,Italy,1E; Via San Carlo; San Prospero città; Reggio nell'Emilia; Emilia-Romagna; 42121; Italy,hotel,cameraforensics
https://live.staticflickr.com/865/39971509580_4dc9a693fa_o.jpg,44.69916166666667,10.636055,,,,,,Italy,2; Via Caduti per Servizio; San Giacomo città; Reggio nell'Emilia; Emilia-Romagna; 42121; Italy,hotel,cameraforensics
https://live.staticflickr.com/4145/35487004422_5af3875dd4_o.jpg,39.199391666666656,9.562855555555561,,,,,,Italy,Castiadas; Sud Sardegna; Sardinia; 09040; Italy,hotel,cameraforensics
https://r-cf.bstatic.com/images/hotel/max1280x900/212/212653430.jpg,39.2066893,9.55762,,,,,,Italy,Ville San Pietro; Strada Provinciale 18; Castiadas; Sud Sardegna; Sardinia; 09040; Italy,hotel,cameraforensics
https://q-cf.bstatic.com/images/hotel/max1280x900/177/177112336.jpg,39.20730042,9.56523923,,,,,,Italy,Str. per Monte Turno; Castiadas; Sud Sardegna; Sardinia; 09040; Italy,hotel,cameraforensics
https://r-cf.bstatic.com/images/hotel/max1280x900/212/212655013.jpg,39.2066893,9.55762,,,,,,Italy,Ville San Pietro; Strada Provinciale 18; Castiadas; Sud Sardegna; Sardinia; 09040; Italy,hotel,cameraforensics
https://r-cf.bstatic.com/images/hotel/max1280x900/142/142511568.jpg,39.203393,9.559907,,,,,,Italy,Villaggio Spiagge San Pietro; Strada Provinciale 18; Castiadas; Sud Sardegna; Sardinia; 09040; Italy,hotel,cameraforensics
https://q-cf.bstatic.com/images/hotel/max1280x900/212/212326103.jpg,39.2067,9.55762,,,,,,Italy,Ville San Pietro; Strada Provinciale 18; Castiadas; Sud Sardegna; Sardinia; 09040; Italy,hotel,cameraforensics
https://q-cf.bstatic.com/images/hotel/max1280x900/116/11655537.jpg,39.20635721,9.55816984,,,,,,Italy,Ville San Pietro; Strada Provinciale 18; Castiadas; Sud Sardegna; Sardinia; 09040; Italy,hotel,cameraforensics
https://q-cf.bstatic.com/images/hotel/max1280x900/177/177112321.jpg,39.20730042,9.56523923,,,,,,Italy,Str. per Monte Turno; Castiadas; Sud Sardegna; Sardinia; 09040; Italy,hotel,cameraforensics
https://r-cf.bstatic.com/images/hotel/max1280x900/212/212558854.jpg,39.2068,9.5581,,,,,,Italy,Ville San Pietro; Strada Provinciale 18; Castiadas; Sud Sardegna; Sardinia; 09040; Italy,hotel,cameraforensics
https://q-cf.bstatic.com/images/hotel/max1280x900/214/214266610.jpg,39.20663571,9.55801963,,,,,,Italy,Ville San Pietro; Strada Provinciale 18; Castiadas; Sud Sardegna; Sardinia; 09040; Italy,hotel,cameraforensics
https://live.staticflickr.com/4479/37681211442_a136b2610d_o.jpg,45.46636666666667,8.88713055555556,,,,,,Italy,Damiani; Via Alcìde De Gasperi; Magenta; Milan; Lombardy; 20013; Italy,hotel,cameraforensics
https://live.staticflickr.com/4168/34457061892_b27a1b5cc7_o.jpg,45.46605555555556,8.88050833333333,,,,,,Italy,33; Via Giovanni Cattaneo; Magenta; Milan; Lombardy; 20013; Italy,hotel,cameraforensics
https://q-cf.bstatic.com/images/hotel/max1280x900/221/22152793.jpg,45.46779507,8.88086902,,,,,,Italy,Piazza Papa Giovanni XXIII; Via Giovanni Brocca; Magenta; Milan; Lombardy; 20013; Italy,hotel,cameraforensics
https://q-cf.bstatic.com/images/hotel/max1280x900/197/197761842.jpg,45.47378201,8.88454024,,,,,,Italy,Protezione civile Magenta; Via Giovanni Boccaccio; Magenta; Milan; Lombardy; 20013; Italy,hotel,cameraforensics
https://www.petagadget.com/wp-content/uploads/2013/03/salt-pepper-cufflinks.jpg,45.4625,8.88366666666667,,,,,,Italy,Laboratorio del gusto; Via Giuseppe Garibaldi; Magenta; Milan; Lombardy; 20013; Italy,hotel,cameraforensics
https://live.staticflickr.com/2889/33410401200_21eda21dcf_o.jpg,45.46122722222222,8.87919,,,,,,Italy,Centro polifunzionale dottor Mauro Leone; Via Giacomo Matteotti; Ponte Vecchio; Magenta; Milan; Lombardy; 20013; Italy,hotel,cameraforensics
https://live.staticflickr.com/2916/33410387190_5d33620a6f_o.jpg,45.46126611111111,8.879303055555551,,,,,,Italy,Centro polifunzionale dottor Mauro Leone; Via Giacomo Matteotti; Ponte Vecchio; Magenta; Milan; Lombardy; 20013; Italy,hotel,cameraforensics
https://r-cf.bstatic.com/images/hotel/max1280x900/195/195718082.jpg,45.47378201,8.88454024,,,,,,Italy,Protezione civile Magenta; Via Giovanni Boccaccio; Magenta; Milan; Lombardy; 20013; Italy,hotel,cameraforensics
https://q-cf.bstatic.com/images/hotel/max1280x900/221/22151782.jpg,45.46779507,8.88086902,,,,,,Italy,Piazza Papa Giovanni XXIII; Via Giovanni Brocca; Magenta; Milan; Lombardy; 20013; Italy,hotel,cameraforensics
https://q-cf.bstatic.com/images/hotel/max1280x900/134/134958371.jpg,45.4608,8.879605999999997,,,,,,Italy,Vicolo Invalidi e mutilati del lavoro; Magenta; Milan; Lombardy; 20013; Italy,hotel,cameraforensics
https://q-cf.bstatic.com/images/hotel/max1280x900/229/22915100.jpg,45.57519468,10.72582662,,,,,,Italy,residence Corte Camaldoli; Via San Bernardo; Garda; Verona; Veneto; 37016; Italy,hotel,cameraforensics
https://q-cf.bstatic.com/images/hotel/max1280x900/196/196058273.jpg,45.579159999999995,10.72185,,,,,,Italy,Via Piccini; Garda; Verona; Veneto; 37016; Italy,hotel,cameraforensics
https://r-cf.bstatic.com/images/hotel/max1280x900/696/69679420.jpg,45.58566896,10.7340613,,,,,,Italy,Salita degli Olivi; Costermano sul Garda; Verona; Veneto; 37016; Italy,hotel,cameraforensics
https://r-cf.bstatic.com/images/hotel/max1280x900/204/204971684.jpg,45.58493532,10.73262659,,,,,,Italy,Salita degli Olivi; Costermano sul Garda; Verona; Veneto; 37016; Italy,hotel,cameraforensics
https://r-cf.bstatic.com/images/hotel/max1280x900/214/214127808.jpg,45.58277915,10.73336362,,,,,,Italy,Marciaga; Costermano sul Garda; Verona; Veneto; 37016; Italy,hotel,cameraforensics
https://r-cf.bstatic.com/images/hotel/max1280x900/177/177911540.jpg,45.5835264,10.7274177,,,,,,Italy,Salita degli Ulivi; Marciaga; Costermano sul Garda; Verona; Veneto; 37016; Italy,hotel,cameraforensics
https://r-cf.bstatic.com/images/hotel/max1280x900/128/128663825.jpg,45.57823422,10.72953343,,,,,,Italy,Via dell'Uva; Garda; Verona; Veneto; 37016; Italy,hotel,cameraforensics
https://r-cf.bstatic.com/images/hotel/max1280x900/167/167636855.jpg,45.57902265,10.72171016,,,,,,Italy,Via Piccini; Garda; Verona; Veneto; 37016; Italy,hotel,cameraforensics
https://r-cf.bstatic.com/images/hotel/max1280x900/186/186449122.jpg,45.58200151,10.72424211,,,,,,Italy,Via della Pace; Garda; Verona; Veneto; 37016; Italy,hotel,cameraforensics
https://r-cf.bstatic.com/images/hotel/max1280x900/985/9854520.jpg,45.57519468,10.72582662,,,,,,Italy,residence Corte Camaldoli; Via San Bernardo; Garda; Verona; Veneto; 37016; Italy,hotel,cameraforensics
http://static.panoramio.com/photos/original/90149294.jpg,40.650877,14.616482999999999,,,,,,Italy,Via Crocelle; Ravello; San Martino; Ravello; Salerno; Campania; 84011; Italy,hotel,cameraforensics
https://live.staticflickr.com/7022/6448322011_7c09637179_o.jpg,40.64866666666666,14.62966666666667,,,,,,Italy,Campetto da calcio e tennis; Strada Statale Amalfitana; San Francesco; Minori; Salerno; Campania; 84011; Italy,hotel,cameraforensics
https://r-cf.bstatic.com/images/hotel/max1280x900/107/107193666.jpg,40.65189520000001,14.625311800000002,,,,,,Italy,Via S.Lucia; Minori; Salerno; Campania; 84011; Italy,hotel,cameraforensics
https://r-cf.bstatic.com/images/hotel/max1280x900/447/44762916.jpg,40.64994303,14.62717423,,,,,,Italy,Il Pastaio; 37; Corso Vittorio Emanuele; Minori; Salerno; Campania; 84011; Italy,hotel,cameraforensics
https://q-cf.bstatic.com/images/hotel/max1280x900/710/71084730.jpg,40.64978098,14.62767899,,,,,,Italy,Via Antonio Mancini; Minori; Salerno; Campania; 84011; Italy,hotel,cameraforensics
https://q-cf.bstatic.com/images/hotel/max1280x900/412/41280502.jpg,40.65064834,14.62530792,,,,,,Italy,Hotel Europa; Strada Statale Amalfitana; Minori; Salerno; Campania; 84011; Italy,hotel,cameraforensics
https://live.staticflickr.com/7864/46658868465_26130400f4_o.jpg,40.64944444444443,14.626944444444439,,,,,,Italy,Ristobar Antares; Strada Statale Amalfitana; San Francesco; Minori; Salerno; Campania; 84011; Italy,hotel,cameraforensics
https://live.staticflickr.com/5443/7214977018_6f8a245492_o.jpg,40.64866666666666,14.635,,,,,,Italy,Maiori Harbour; Strada Statale Amalfitana; San Francesco; Maiori; Salerno; Campania; 84011; Italy,hotel,cameraforensics
https://r-cf.bstatic.com/images/hotel/max1280x900/708/70824303.jpg,40.64959888,14.62620112,,,,,,Italy,Parcheggio; Strada Statale Amalfitana; San Francesco; Minori; Salerno; Campania; 84011; Italy,hotel,cameraforensics
https://r-cf.bstatic.com/images/hotel/max1280x900/656/65627741.jpg,40.64975357,14.62767787,,,,,,Italy,Via Antonio Mancini; Minori; Salerno; Campania; 84011; Italy,hotel,cameraforensics
https://r-cf.bstatic.com/images/hotel/max1280x900/237/237191755.jpg,45.988319,9.235353,,,,,,Italy,Bar Iron Gate; 3; Strada statale 340 Regina; Cadenabbia; Griante; Como; Lombardy; 22011; Italy,hotel,cameraforensics
https://r-cf.bstatic.com/images/hotel/max1280x900/164/164593503.jpg,45.99309,9.23596,,,,,,Italy,Villa Collina; Via Roma; Griante; Como; Lombardy; 22011; Italy,hotel,cameraforensics
https://r-cf.bstatic.com/images/hotel/max1280x900/212/212884873.jpg,45.9921,9.23775,,,,,,Italy,Hotel Britannia Excelsior; 41; Via Roma; Griante; Como; Lombardy; 22011; Italy,hotel,cameraforensics
https://r-cf.bstatic.com/images/hotel/max1280x900/135/135746021.jpg,45.99072122,9.23709475,,,,,,Italy,Villa Norella; Strada statale 340 Regina; Griante; Como; Lombardy; 22011; Italy,hotel,cameraforensics
https://q-cf.bstatic.com/images/hotel/max1280x900/145/145212439.jpg,45.98957886,9.23629813,,,,,,Italy,Strada statale 340 Regina; Cadenabbia; Griante; Como; Lombardy; 22011; Italy,hotel,cameraforensics
https://r-cf.bstatic.com/images/hotel/max1280x900/109/10984980.jpg,45.99254164,9.23819974,,,,,,Italy,Hotel Riviera; 43; Via Roma; Griante; Como; Lombardy; 22011; Italy,hotel,cameraforensics
https://r-cf.bstatic.com/images/hotel/max1280x900/212/212859524.jpg,45.9921,9.23775,,,,,,Italy,Hotel Britannia Excelsior; 41; Via Roma; Griante; Como; Lombardy; 22011; Italy,hotel,cameraforensics
https://q-cf.bstatic.com/images/hotel/max1280x900/150/150961463.jpg,45.987629999999996,9.234197,,,,,,Italy,Grand Hotel Cadenabbia; Strada statale 340 Regina; Cadenabbia; Griante; Como; Lombardy; 22011; Italy,hotel,cameraforensics
https://live.staticflickr.com/7842/40462475453_319f77eeba_o.jpg,45.9946565,9.23467636111111,,,,,,Italy,Bar Vecchia Torre; 10; Via Brentano; Griante; Como; Lombardy; 22011; Italy,hotel,cameraforensics
https://live.staticflickr.com/7753/27549080511_320e9a71f9_o.jpg,45.98636333333334,9.23393333333333,,,,,,Italy,Strada statale 340 Regina; Cadenabbia; Griante; Como; Lombardy; 22011; Italy,hotel,cameraforensics
https://live.staticflickr.com/713/22603566880_745d3144cb_o.jpg,41.88930208333333,12.49759016666667,,,,,,Italy,Basilica of St.Clement; 95; Via Labicana; Rione I Monti; Municipio Roma I; Rome; Roma Capitale; Lazio; 00184; Italy,hotel,cameraforensics
https://live.staticflickr.com/7560/15650912298_58f4cb86f1_o.jpg,41.900434999999995,12.50140638888889,,,,,,Italy,Roma Termini; Galleria Termini; Municipio Roma I; Rome; Roma Capitale; Lazio; 00185; Italy,hotel,cameraforensics
https://live.staticflickr.com/3934/15643449031_bfb4606c5d_o.jpg,41.88980833333333,12.498263888888893,,,,,,Italy,Labicana; Via Labicana; Rione I Monti; Municipio Roma I; Rome; Roma Capitale; Lazio; 00184; Italy,hotel,cameraforensics
https://live.staticflickr.com/8708/29020771006_28378a2408_o.jpg,41.8975,12.49916666666667,,,,,,Italy,Rosario; 28; Piazza di Santa Maria Maggiore; Rione I Monti; Municipio Roma I; Rome; Roma Capitale; Lazio; 00185; Italy,hotel,cameraforensics
http://static.panoramio.com/photos/original/64920075.jpg,41.887227,12.504429,,,,,,Italy,Piazza San Giovanni in Laterano; Piazza di San Giovanni in Laterano; Rione I Monti; Municipio Roma I; Rome; Roma Capitale; Lazio; 00183; Italy,hotel,cameraforensics
https://live.staticflickr.com/4248/34073444703_8e56838ffd_o.jpg,41.89365444444444,12.5014525,,,,,,Italy,Agenzia delle Entrate Direzione Centrale Catasto; Cartografia e Pubblicità Immobiliare; 5; Largo Leopardi; Municipio Roma I; Rome; Roma Capitale; Lazio; 00185; Italy,hotel,cameraforensics
https://live.staticflickr.com/7582/29732033944_9c380ee286_o.jpg,41.89706666666667,12.49487222222222,,,,,,Italy,guesthouse Urbana; 12; Via Urbana; Rione I Monti; Municipio Roma I; Rome; Roma Capitale; Lazio; 00184; Italy,hotel,cameraforensics
https://live.staticflickr.com/636/31499835314_aea2a3607c_o.jpg,41.88918611111111,12.503413888888893,,,,,,Italy,Azienda Ospedaliera San Giovanni - Addolorata (Presidio Santa Maria); Via Merulana; Rione I Monti; Municipio Roma I; Rome; Roma Capitale; Lazio; 00185; Italy,hotel,cameraforensics
https://live.staticflickr.com/5486/31477526225_0ac63de103_o.jpg,41.89497755555556,12.503795611111107,,,,,,Italy,Fritto misto; Piazza Vittorio Emanuele II; Municipio Roma I; Rome; Roma Capitale; Lazio; 00185; Italy,hotel,cameraforensics
https://live.staticflickr.com/5501/30844787690_56931d7a5d_o.jpg,41.89022241666667,12.495535694444447,,,,,,Italy,Palazzo Manfredi; Via Labicana; Rione I Monti; Municipio Roma I; Rome; Roma Capitale; Lazio; 00184; Italy,hotel,cameraforensics
https://live.staticflickr.com/3671/9046473987_02e4d68a3a_o.jpg,43.7765,11.2415,,,,,,Italy,Palazzo Corsini al Prato; Via il Prato; San Frediano; Quartiere 1; Florence; Metropolitan City of Florence; Tuscany; 50100; Italy,hotel,cameraforensics
https://live.staticflickr.com/5764/22911388482_4bd72702f7_o.jpg,43.77369308333333,11.24977397222222,,,,,,Italy,Grillo; Piazza Santa Maria Novella; San Frediano; Quartiere 1; Florence; Metropolitan City of Florence; Tuscany; 50123; Italy,hotel,cameraforensics
https://live.staticflickr.com/7625/16709533788_2d58247ee7_o.jpg,43.770111111111106,11.247227777777779,,,,,,Italy,Ponte alla Carraia; San Frediano; Quartiere 1; Florence; Metropolitan City of Florence; Tuscany; 50123; Italy,hotel,cameraforensics
https://live.staticflickr.com/8244/8588801195_a4d410aa5e_o.jpg,43.77416666666667,11.24933333333333,,,,,,Italy,Basilica Santa Maria Novella; 18; Piazza Santa Maria Novella; San Frediano; Quartiere 1; Florence; Metropolitan City of Florence; Tuscany; 50123; Italy,hotel,cameraforensics
https://live.staticflickr.com/4390/36069245570_5feccc85ee_o.jpg,43.77208055555555,11.249188888888893,,,,,,Italy,15; Via del Moro; San Frediano; Quartiere 1; Florence; Metropolitan City of Florence; Tuscany; 50123; Italy,hotel,cameraforensics
https://live.staticflickr.com/5733/24007015801_b273388843_o.jpg,43.774575,11.249388888888893,,,,,,Italy,Basilica Santa Maria Novella; 18; Piazza Santa Maria Novella; San Frediano; Quartiere 1; Florence; Metropolitan City of Florence; Tuscany; 50123; Italy,hotel,cameraforensics
https://live.staticflickr.com/7351/11076539443_faa858e518_o.jpg,43.76998666666667,11.24708333333333,,,,,,Italy,Ponte alla Carraia; San Frediano; Quartiere 1; Florence; Metropolitan City of Florence; Tuscany; 50123; Italy,hotel,cameraforensics
https://live.staticflickr.com/8769/17343908894_9233fd7db8_o.jpg,43.77829444444443,11.23727222222222,,,,,,Italy,Stazione Leopolda; Piazza Fedora Barbieri; San Iacopino; Quartiere 1; Florence; Metropolitan City of Florence; Tuscany; 50144; Italy,hotel,cameraforensics
https://live.staticflickr.com/5815/30575073991_68e3801168_o.jpg,43.7756,11.249355555555553,,,,,,Italy,Piazza della Stazione; San Frediano; Quartiere 1; Florence; Metropolitan City of Florence; Tuscany; 50123; Italy,hotel,cameraforensics
https://live.staticflickr.com/1677/24347917233_cd9a781362_o.jpg,43.77032222222223,11.23482222222222,,,,,,Italy,15; Via di Monte Oliveto; Pignone; Quartiere 4; Florence; Metropolitan City of Florence; Tuscany; 50100; Italy,hotel,cameraforensics
https://live.staticflickr.com/7/6149/5929253019_93c36d1a01_o_d.jpg,40.631,14.59583333333333,,,,,,Italy,La Conchiglia; 9; Via Salvatore Quasimodo; Pastena; Amalfi; Salerno; Campania; 84011; Italy,hotel,cameraforensics
https://live.staticflickr.com/3764/33270775900_e1d0e57b85_o.jpg,40.62775,14.590752777777775,,,,,,Italy,Hotel Bellevue; 26; Strada Statale Amalfitana; Lone; Amalfi; Salerno; Campania; 84011; Italy,hotel,cameraforensics
https://r-cf.bstatic.com/images/hotel/max1280x900/169/169099601.jpg,40.631479999999996,14.595270000000001,,,,,,Italy,Pastena; Amalfi; Salerno; Campania; 84011; Italy,hotel,cameraforensics
https://live.staticflickr.com/5501/9950077974_9fb4a9a96c_o.jpg,40.6265,14.58816666666667,,,,,,Italy,La Ninfa; Strada Statale Amalfitana; Lone; Amalfi; Salerno; Campania; 84011; Italy,hotel,cameraforensics
https://live.staticflickr.com/7531/15856465249_068b432d40_o.jpg,40.62731170654167,14.58643627166667,,,,,,Italy,Via Papa Leone X; Pastena; Amalfi; Salerno; Campania; 84011; Italy,hotel,cameraforensics
https://live.staticflickr.com/7761/17657876556_2d3914fb06_o.jpg,40.631660444444435,14.59789561111111,,,,,,Italy,Lo Smeraldino; 1; Lungomare dei Cavalieri di San Giovanni di Gelusalemme; Pogerola; Amalfi; Salerno; Campania; 84011; Italy,hotel,cameraforensics
https://r-cf.bstatic.com/images/hotel/max1280x900/119/119663001.jpg,40.631299,14.595101000000001,,,,,,Italy,Via Salvatore Quasimodo; Pastena; Amalfi; Salerno; Campania; 84011; Italy,hotel,cameraforensics
https://q-cf.bstatic.com/images/hotel/max1280x900/135/135998285.jpg,40.63022634,14.59374019,,,,,,Italy,Miramalfi; Via Salvatore Quasimodo; Pastena; Amalfi; Salerno; Campania; 84011; Italy,hotel,cameraforensics
https://q-cf.bstatic.com/images/hotel/max1280x900/202/202101490.jpg,40.6234385,14.582915599999998,,,,,,Italy,Strada Statale Amalfitana; Tovere; Lone; Amalfi; Salerno; Campania; 84011; Italy,hotel,cameraforensics
https://live.staticflickr.com/2660/3987885081_6eb0b66d42_o.jpg,40.626517,14.587720000000001,,,,,,Italy,La Ninfa; Strada Statale Amalfitana; Lone; Amalfi; Salerno; Campania; 84011; Italy,hotel,cameraforensics
https://live.staticflickr.com/8225/8589078570_8c6062952f_o.jpg,44.07229166666666,12.579429722222221,,,,,,Italy,18; Lungomare Claudio Tintori; Rimini; Emilia-Romagna; 47921; Italy,hotel,cameraforensics
https://live.staticflickr.com/7530/16203529701_788de0dfc0_o.jpg,44.068999999999996,12.585172222222221,,,,,,Italy,2a; Lungomare Augusto Murri; Rimini; Emilia-Romagna; 47921; Italy,hotel,cameraforensics
https://live.staticflickr.com/3743/32790214290_881f92e80e_o.jpg,44.06778333333333,12.573525,,,,,,Italy,33; Viale Principe Amedeo; San Giuliano Mare; Rimini; Emilia-Romagna; 47921; Italy,hotel,cameraforensics
https://r-cf.bstatic.com/images/hotel/max1280x900/103/103181782.jpg,44.06702997,12.57991567,,,,,,Italy,7; Viale Cormons; Rimini; Emilia-Romagna; 47921; Italy,hotel,cameraforensics
https://q-cf.bstatic.com/images/hotel/max1280x900/414/4144477.jpg,44.065041799999996,12.58126348,,,,,,Italy,18; Viale Bengasi; Rimini; Emilia-Romagna; 47921; Italy,hotel,cameraforensics
https://live.staticflickr.com/8018/7655346516_e90c4f461a_o.jpg,44.07137166666666,12.57667,,,,,,Italy,Via Saint-Maur Des Fosses; San Giuliano Mare; Rimini; Emilia-Romagna; 47921; Italy,hotel,cameraforensics
https://live.staticflickr.com/8205/8175453137_fecf3357fe_o.jpg,44.06388888888889,12.57416666666667,,,,,,Italy,Stazione di Rimini; Piazzale Cesare Battisti; Rimini; Emilia-Romagna; 47921; Italy,hotel,cameraforensics
https://live.staticflickr.com/8281/7655303950_ff88b4efb5_o.jpg,44.07137166666666,12.57667,,,,,,Italy,Via Saint-Maur Des Fosses; San Giuliano Mare; Rimini; Emilia-Romagna; 47921; Italy,hotel,cameraforensics
https://live.staticflickr.com/970/28099843208_e208993939_o.jpg,44.07274627666666,12.57704639416667,,,,,,Italy,Grand Hotel di Rimini; Lungomare Claudio Tintori; San Giuliano Mare; Rimini; Emilia-Romagna; 47921; Italy,hotel,cameraforensics
https://live.staticflickr.com/4345/37046660655_799341505e_o.jpg,44.06416666666667,12.57333333333333,,,,,,Italy,Stazione di Rimini; Piazzale Cesare Battisti; Rimini; Emilia-Romagna; 47921; Italy,hotel,cameraforensics
https://q-cf.bstatic.com/images/hotel/max1280x900/221/221989642.jpg,45.49938339,10.5064378,,,,,,Italy,Padenghe sul Garda; Brescia; Lombardy; Italy,hotel,cameraforensics
https://q-cf.bstatic.com/images/hotel/max1280x900/165/165366741.jpg,45.50080224,10.50420335,,,,,,Italy,Padenghe sul Garda; Brescia; Lombardy; Italy,hotel,cameraforensics
https://r-cf.bstatic.com/images/hotel/max1280x900/232/232770154.jpg,45.4975914,10.50439009,,,,,,Italy,West Garda Hotel; Via Taccone; Padenghe sul Garda; Brescia; Lombardy; Italy,hotel,cameraforensics
https://r-cf.bstatic.com/images/hotel/max1280x900/221/221989601.jpg,45.49938339,10.5064378,,,,,,Italy,Padenghe sul Garda; Brescia; Lombardy; Italy,hotel,cameraforensics
https://live.staticflickr.com/4/3407/4598666225_aa92654715_o_d.jpg,45.49928,10.504761,,,,,,Italy,Padenghe sul Garda; Brescia; Lombardy; Italy,hotel,cameraforensics
https://q-cf.bstatic.com/images/hotel/max1280x900/207/207532692.jpg,45.49310674,10.50310629,,,,,,Italy,Padenghe sul Garda; Brescia; Lombardy; Italy,hotel,cameraforensics
https://q-cf.bstatic.com/images/hotel/max1280x900/202/202384218.jpg,45.49514904,10.51118034,,,,,,Italy,Villaggio turistico dei Tigli; Via Santa Giulia; Padenghe sul Garda; Brescia; Lombardy; 25150; Italy,hotel,cameraforensics
https://q-cf.bstatic.com/images/hotel/max1280x900/171/171739055.jpg,45.497692,10.505984,,,,,,Italy,Padenghe sul Garda; Brescia; Lombardy; Italy,hotel,cameraforensics
https://q-cf.bstatic.com/images/hotel/max1280x900/199/199039391.jpg,45.495575,10.51075,,,,,,Italy,Villa Garuti; Via del Porto; Padenghe sul Garda; Brescia; Lombardy; 25150; Italy,hotel,cameraforensics
https://q-cf.bstatic.com/images/hotel/max1280x900/199/199050619.jpg,45.495575,10.51075,,,,,,Italy,Villa Garuti; Via del Porto; Padenghe sul Garda; Brescia; Lombardy; 25150; Italy,hotel,cameraforensics
https://live.staticflickr.com/7282/16798299386_cc43ca02d1_o.jpg,43.77311585004722,11.255021099980562,,,,,,Italy,Florence Baptistery of St. John; Piazza San Giovanni; Quartiere 1; Florence; Metropolitan City of Florence; Tuscany; Italy,hotel,cameraforensics
https://live.staticflickr.com/7621/16561747303_547a2fa824_o.jpg,43.7729388888889,11.25580277777778,,,,,,Italy,Giotto's Campanile; Piazza del Duomo; Quartiere 1; Florence; Metropolitan City of Florence; Tuscany; Italy,hotel,cameraforensics
https://live.staticflickr.com/4380/36755116552_cb1d8d75b5_o.jpg,43.77333333333333,11.25472222222222,,,,,,Italy,Florence Baptistery of St. John; Piazza San Giovanni; Quartiere 1; Florence; Metropolitan City of Florence; Tuscany; Italy,hotel,cameraforensics
https://live.staticflickr.com/5772/21947520946_3dba018a74_o.jpg,43.77006944444447,11.25123611111111,,,,,,Italy,Colonna della Giustizia; Piazza di Santa Trinita; Oltrarno; Quartiere 1; Florence; Metropolitan City of Florence; Tuscany; 50123; Italy,hotel,cameraforensics
https://live.staticflickr.com/8771/28308415742_cf863f52a9_o.jpg,43.774322222222224,11.25750833333333,,,,,,Italy,Palazzo Pucci; Via Ricasoli; Quartiere 1; Florence; Metropolitan City of Florence; Tuscany; 50112; Italy,hotel,cameraforensics
https://live.staticflickr.com/4411/37155042851_de673b22a3_o.jpg,40.05464841666667,17.97527444444444,,,,,,Italy,"Museo Civico ""Emanuele Barba""; Via Antonietta De Pace; Gallipoli; Lecce; Apulia; 73014; Italy",hotel,cameraforensics
https://live.staticflickr.com/7343/9754759462_f7ae828919_o.jpg,40.05433333333333,17.972833333333327,,,,,,Italy,La Taverna cucina casereccia; Riviera Nazario Sauro; Gallipoli; Lecce; Apulia; 73014; Italy,hotel,cameraforensics
https://r-cf.bstatic.com/images/hotel/max1280x900/455/45543219.jpg,40.0539768,17.97624797,,,,,,Italy,Via Giovanni Andrea Coppola; Gallipoli; Lecce; Apulia; 73014; Italy,hotel,cameraforensics
https://live.staticflickr.com/7124/6900935844_c25cd60dac_o.jpg,40.0575,17.974333333333327,,,,,,Italy,Bacino San Giorgio; Riviera Cristoforo Colombo; Gallipoli; Lecce; Apulia; 73014; Italy,hotel,cameraforensics
https://live.staticflickr.com/8144/7661190890_6140582e04_o.jpg,40.05683333333333,17.974333333333327,,,,,,Italy,Bacino San Giorgio; Riviera Cristoforo Colombo; Gallipoli; Lecce; Apulia; 73014; Italy,hotel,cameraforensics
https://live.staticflickr.com/286/18606875704_9394fc967c_o.jpg,40.056194444444436,17.979527777777786,,,,,,Italy,Ponte Città Vecchia; Ponte Papa Giovanni Paolo II; Gallipoli; Lecce; Apulia; 73014; Italy,hotel,cameraforensics
https://live.staticflickr.com/4478/37555258470_7f0620cc6c_o.jpg,40.05655,17.975552777777782,,,,,,Italy,Gallipoli; Lecce; Apulia; 73014; Italy,hotel,cameraforensics
https://q-cf.bstatic.com/images/hotel/max1280x900/878/87893272.jpg,40.05565824,17.97679782,,,,,,Italy,Via Zacheo; Gallipoli; Lecce; Apulia; 73014; Italy,hotel,cameraforensics
https://q-cf.bstatic.com/images/hotel/max1280x900/878/87888218.jpg,40.05565824,17.97679782,,,,,,Italy,Via Zacheo; Gallipoli; Lecce; Apulia; 73014; Italy,hotel,cameraforensics
https://q-cf.bstatic.com/images/hotel/max1280x900/190/190976759.jpg,40.05501312,17.9764825,,,,,,Italy,Caffe' Duomo; Via Antonietta De Pace; Gallipoli; Lecce; Apulia; 73014; Italy,hotel,cameraforensics
https://r-cf.bstatic.com/images/hotel/max1280x900/169/169046398.jpg,36.85471,15.11077,,,,,,Italy,Lido di Noto; Noto; Siracusa; Sicily; 96017; Italy,hotel,cameraforensics
https://r-cf.bstatic.com/images/hotel/max1280x900/197/197189489.jpg,36.85471209,15.11222797,,,,,,Italy,Korsal; Via F. Lorenzo; Lido di Noto; Noto; Siracusa; Sicily; 96017; Italy,hotel,cameraforensics
https://q-cf.bstatic.com/images/hotel/max1280x900/879/87985288.jpg,36.85591415,15.1113891,,,,,,Italy,Sapore di Mare; Via Luigi Stajano; Lido di Noto; Noto; Siracusa; Sicily; 96017; Italy,hotel,cameraforensics
https://q-cf.bstatic.com/images/hotel/max1280x900/781/78149822.jpg,36.85749682,15.11490226,,,,,,Italy,Villa Ibiscus; Via Corrado Di Lorenzo Borgia; Lido di Noto; Noto; Siracusa; Sicily; 96017; Italy,hotel,cameraforensics
https://r-cf.bstatic.com/images/hotel/max1280x900/944/94489012.jpg,36.85458,15.11426,,,,,,Italy,Lido di Noto; Noto; Siracusa; Sicily; 96017; Italy,hotel,cameraforensics
https://q-cf.bstatic.com/images/hotel/max1280x900/208/208727976.jpg,36.85660657,15.11269458,,,,,,Italy,I Mori; Via Corrado Terranova; Lido di Noto; Noto; Siracusa; Sicily; 96017; Italy,hotel,cameraforensics
https://r-cf.bstatic.com/images/hotel/max1280x900/946/94672127.jpg,36.85533,15.110364,,,,,,Italy,Lido di Noto; Noto; Siracusa; Sicily; 96017; Italy,hotel,cameraforensics
https://q-cf.bstatic.com/images/hotel/max1280x900/107/107106296.jpg,36.855,15.1122,,,,,,Italy,Via Gaetano Martino; Lido di Noto; Noto; Siracusa; Sicily; 96017; Italy,hotel,cameraforensics
https://q-cf.bstatic.com/images/hotel/max1280x900/197/197189473.jpg,36.85471209,15.11222797,,,,,,Italy,Korsal; Via F. Lorenzo; Lido di Noto; Noto; Siracusa; Sicily; 96017; Italy,hotel,cameraforensics
https://q-cf.bstatic.com/images/hotel/max1280x900/197/197188835.jpg,36.85471209,15.11222797,,,,,,Italy,Korsal; Via F. Lorenzo; Lido di Noto; Noto; Siracusa; Sicily; 96017; Italy,hotel,cameraforensics
https://live.staticflickr.com/4158/33587009504_db03870fed_o.jpg,40.628005555555546,14.486488888888893,,,,,,Italy,Montepertuso; Arienzo; Positano; Salerno; Campania; 84017; Italy,hotel,cameraforensics
https://r-cf.bstatic.com/images/hotel/max1280x900/105/105498376.jpg,43.51910037,11.03173256,,,,,,Italy,Il Rosolaccio; Le Rote; San Gimignano; Siena; Tuscany; 53038; Italy,hotel,cameraforensics
https://r-cf.bstatic.com/images/hotel/max1280x900/182/182198400.jpg,43.52394,11.032169999999999,,,,,,Italy,San Gimignano; Siena; Tuscany; 50052; Italy,hotel,cameraforensics
https://r-cf.bstatic.com/images/hotel/max1280x900/944/94493629.jpg,43.51952,11.03139,,,,,,Italy,Il Rosolaccio; Le Rote; San Gimignano; Siena; Tuscany; 53038; Italy,hotel,cameraforensics
https://live.staticflickr.com/1808/42431232195_59557e4fac_o.jpg,43.5188888888889,11.031388888888893,,,,,,Italy,Il Rosolaccio; Le Rote; San Gimignano; Siena; Tuscany; 53038; Italy,hotel,cameraforensics
https://live.staticflickr.com/836/42617786504_341c650eb0_o.jpg,43.5188888888889,11.031388888888893,,,,,,Italy,Il Rosolaccio; Le Rote; San Gimignano; Siena; Tuscany; 53038; Italy,hotel,cameraforensics
https://r-cf.bstatic.com/images/hotel/max1280x900/182/182198214.jpg,43.52394,11.032169999999999,,,,,,Italy,San Gimignano; Siena; Tuscany; 50052; Italy,hotel,cameraforensics
https://live.staticflickr.com/915/42617749624_4ca016f1d7_o.jpg,43.5188888888889,11.031388888888893,,,,,,Italy,Il Rosolaccio; Le Rote; San Gimignano; Siena; Tuscany; 53038; Italy,hotel,cameraforensics
https://r-cf.bstatic.com/images/hotel/max1280x900/182/182198454.jpg,43.52394,11.032169999999999,,,,,,Italy,San Gimignano; Siena; Tuscany; 50052; Italy,hotel,cameraforensics
https://r-cf.bstatic.com/images/hotel/max1280x900/105/105498256.jpg,43.51910037,11.03173256,,,,,,Italy,Il Rosolaccio; Le Rote; San Gimignano; Siena; Tuscany; 53038; Italy,hotel,cameraforensics
https://live.staticflickr.com/1806/42617742204_f0d5980825_o.jpg,43.5188888888889,11.03166666666667,,,,,,Italy,Il Rosolaccio; Le Rote; San Gimignano; Siena; Tuscany; 53038; Italy,hotel,cameraforensics
https://live.staticflickr.com/691/32332693605_b075a89570_o.jpg,41.90483888888889,12.47120833333333,,,,,,Italy,Supreme Court of Cassation; Piazza Cavour; Municipio Roma I; Rome; Roma Capitale; Lazio; 00193; Italy,hotel,cameraforensics
http://static.panoramio.com/photos/original/118276904.jpg,41.90960638888889,12.47220805555556,,,,,,Italy,Ponte Regina Margherita; Piazza della Libertà; Municipio Roma I; Rome; Roma Capitale; Lazio; 00193; Italy,hotel,cameraforensics
https://live.staticflickr.com/2930/32300570923_99886f4f8a_o.jpg,41.902721388888885,12.46773808333333,,,,,,Italy,Rione XIV Borgo; Municipio Roma I; Rome; Roma Capitale; Lazio; 00193; Italy,hotel,cameraforensics
https://live.staticflickr.com/5738/30544613652_e648f7f591_o.jpg,41.90805555555556,12.4625,,,,,,Italy,32; Via Fabio Massimo; Municipio Roma I; Rome; Roma Capitale; Lazio; 00192; Italy,hotel,cameraforensics
https://live.staticflickr.com/2879/33074598806_6e7383976f_o.jpg,41.90248569444444,12.466407222222221,,,,,,Italy,Ponte Sant'Angelo; Rione XIV Borgo; Municipio Roma I; Rome; Roma Capitale; Lazio; 00193; Italy,hotel,cameraforensics
https://live.staticflickr.com/4232/34757791204_ae27c0bb57_o.jpg,41.90230277777777,12.465177777777779,,,,,,Italy,Pista ciclabile del Tevere; Rione XIV Borgo; Municipio Roma I; Rome; Roma Capitale; Lazio; 00193; Italy,hotel,cameraforensics
https://live.staticflickr.com/7255/26849544844_4e7fb3e74a_o.jpg,41.90259833333333,12.46810666666667,,,,,,Italy,Lungotevere Castello; Rione XIV Borgo; Municipio Roma I; Rome; Roma Capitale; Lazio; 00193; Italy,hotel,cameraforensics
https://live.staticflickr.com/3753/32904208513_872c5ec82e_o.jpg,41.902813888888886,12.46728611111111,,,,,,Italy,Parco Adriano; Via Alberico II; Rione XIV Borgo; Municipio Roma I; Rome; Roma Capitale; Lazio; 00193; Italy,hotel,cameraforensics
https://live.staticflickr.com/5442/30818869950_286913756e_o.jpg,41.913094444444454,12.46565,,,,,,Italy,Lepanto; Municipio Roma I; Rome; Roma Capitale; Lazio; 00192; Italy,hotel,cameraforensics
https://live.staticflickr.com/8131/10165314334_eb48c9381f_o.jpg,41.906375,12.45776666666667,,,,,,Italy,Risorgimento; Piazza del Risorgimento; Municipio Roma I; Rome; Roma Capitale; Lazio; 00192; Italy,hotel,cameraforensics
https://live.staticflickr.com/3894/14271271677_9ea05ccea8_o.jpg,40.63080555555555,14.39979722222222,,,,,,Italy,Maiano; Sant'Agnello; Napoli; Campania; 80065; Italy,hotel,cameraforensics
https://r-cf.bstatic.com/images/hotel/max1280x900/107/107888605.jpg,40.62914518,14.39490149,,,,,,Italy,Maiano; Sant'Agnello; Napoli; Campania; 80065; Italy,hotel,cameraforensics
https://q-cf.bstatic.com/images/hotel/max1280x900/132/132234364.jpg,40.63001628,14.40062417,,,,,,Italy,Netto; Corso Italia; Maiano; Sant'Agnello; Napoli; Campania; 80065; Italy,hotel,cameraforensics
https://r-cf.bstatic.com/images/hotel/max1280x900/168/168601525.jpg,40.6222,14.4054,,,,,,Italy,Via Cimitero; Maiano; Sant'Agnello; Napoli; Campania; 80065; Italy,hotel,cameraforensics
https://q-cf.bstatic.com/images/hotel/max1280x900/194/194984525.jpg,40.61818981,14.40269447,,,,,,Italy,Trasaella; Colli di Fontanelle; Sant'Agnello; Napoli; Campania; 80065; Italy,hotel,cameraforensics
https://q-cf.bstatic.com/images/hotel/max1280x900/178/178501032.jpg,40.62811405,14.39301252,,,,,,Italy,Hotel Gran Paradiso; Via Privata Rubinacci; Maiano; Sant'Agnello; Napoli; Campania; 80065; Italy,hotel,cameraforensics
https://q-cf.bstatic.com/images/hotel/max1280x900/172/172250600.jpg,40.63062487,14.40388948,,,,,,Italy,Esso; Corso Italia; Maiano; Sant'Agnello; Napoli; Campania; 80065; Italy,hotel,cameraforensics
https://r-cf.bstatic.com/images/hotel/max1280x900/169/169092652.jpg,40.6247,14.400379999999998,,,,,,Italy,7; Via Tordara; Maiano; Sant'Agnello; Napoli; Campania; 80065; Italy,hotel,cameraforensics
https://q-cf.bstatic.com/images/hotel/max1280x900/138/138348187.jpg,40.62655776,14.40797657,,,,,,Italy,Via Legittimo 2° traversa; Maiano; Sant'Agnello; Napoli; Campania; 80063; Italy,hotel,cameraforensics
https://live.staticflickr.com/1713/26381639320_cef20aa349_o.jpg,40.63146666666667,14.39802222222222,,,,,,Italy,Pasticceria De Maio; Viale dei Pini; Maiano; Sant'Agnello; Napoli; Campania; 80065; Italy,hotel,cameraforensics
https://live.staticflickr.com/545/32587213646_800ba15138_o.jpg,44.33462222222222,9.212855555555553,,,,,,Italy,Santa Margherita Ligure; Genoa; Liguria; 16038; Italy,hotel,cameraforensics
https://live.staticflickr.com/7251/27987382076_61275f0f71_o.jpg,44.33465555555557,9.21284166666667,,,,,,Italy,Santuario di Nostra Signora della Rosa; Via della Vittoria; Santa Margherita Ligure; Genoa; Liguria; 16038; Italy,hotel,cameraforensics
https://live.staticflickr.com/3905/32459703113_c3e1364b82_o.jpg,44.333727777777774,9.21337777777778,,,,,,Italy,Vittorio Emanuele; Corso Guglielmo Marconi; Santa Margherita Ligure; Genoa; Liguria; 16038; Italy,hotel,cameraforensics
https://live.staticflickr.com/1719/26103130622_4cb661809d_o.jpg,44.33483055555556,9.21444166666667,,,,,,Italy,Lido Palace; Via Andrea Doria; Santa Margherita Ligure; Genoa; Liguria; 16038; Italy,hotel,cameraforensics
https://www.starbene.it/content/uploads/2013/05/gambaro-2571.jpg,44.325,9.2125,,,,,,Italy,Via Fortunato Costa; Montebello; Santa Margherita Ligure; Genoa; Liguria; 16038; Italy,hotel,cameraforensics
https://live.staticflickr.com/4454/23721771848_502e85e9f2_o.jpg,44.33365277777778,9.21383888888889,,,,,,Italy,Santa Margherita Ligure; Genoa; Liguria; 16038; Italy,hotel,cameraforensics
https://live.staticflickr.com/3729/9654051560_c4de4e7664_o.jpg,44.33,9.22433333333333,,,,,,Italy,Villa Pagana; Via Prelo; San Michele di Pagana; Rapallo; Genoa; Liguria; 16035; Italy,hotel,cameraforensics
https://r-cf.bstatic.com/images/hotel/max1280x900/148/148996641.jpg,44.33208362,9.21379513,,,,,,Italy,Laurin; 3; Corso Guglielmo Marconi; Santa Margherita Ligure; Genoa; Liguria; 16038; Italy,hotel,cameraforensics
https://r-cf.bstatic.com/images/hotel/max1280x900/175/175364367.jpg,44.3349469,9.2130274,,,,,,Italy,Largo Antonio Giusti; Santa Margherita Ligure; Genoa; Liguria; 16038; Italy,hotel,cameraforensics
https://r-cf.bstatic.com/images/hotel/max1280x900/117/117246405.jpg,44.32849784,9.21071443,,,,,,Italy,Via Anton Maria Maragliano; Montebello; Santa Margherita Ligure; Genoa; Liguria; 16038; Italy,hotel,cameraforensics
https://live.staticflickr.com/5764/22499520243_30222f3679_o.jpg,45.989169444444435,9.26204722222222,,,,,,Italy,Haus Bethusy; 20; Via Eugenio Vitali; Pescallo; Bellagio; Como; Lombardy; 22021; Italy,hotel,cameraforensics
https://live.staticflickr.com/8509/28670722261_17c3069183_o.jpg,45.985650766384715,9.25984967525556,,,,,,Italy,Bellagio; Lungo Lario Manzoni; Aureggio; San Giovanni; Bellagio; Como; Lombardy; 22021; Italy,hotel,cameraforensics
https://live.staticflickr.com/7425/11127560325_746180de66_o.jpg,45.98666666666666,9.26183333333333,,,,,,Italy,Via Carlo Bellosio; Pescallo; San Giovanni; Bellagio; Como; Lombardy; 22021; Italy,hotel,cameraforensics
https://live.staticflickr.com/4172/34323763352_68e5ed62b2_o.jpg,45.98099444444443,9.26226388888889,,,,,,Italy,Via San Vittore; Aureggio; San Giovanni; Bellagio; Como; Lombardy; 22021; Italy,hotel,cameraforensics
https://live.staticflickr.com/8518/28868377064_12b87f3185_o.jpg,45.98096111111111,9.26214444444444,,,,,,Italy,Via San Vittore; Aureggio; San Giovanni; Bellagio; Como; Lombardy; 22021; Italy,hotel,cameraforensics
https://live.staticflickr.com/714/21187962973_6a531fddfa_o.jpg,45.98740083333333,9.26198388888889,,,,,,Italy,La Divina Commedia; 43-45; Salita Mella; Pescallo; San Giovanni; Bellagio; Como; Lombardy; 22021; Italy,hotel,cameraforensics
https://live.staticflickr.com/7355/10335118066_fca20a6170_o.jpg,45.98833333333333,9.26616666666667,,,,,,Italy,Villa Serbelloni; Via Roncati; Pescallo; San Giovanni; Bellagio; Como; Lombardy; 22021; Italy,hotel,cameraforensics
https://live.staticflickr.com/8776/16888481498_a3d9d6e39c_o.jpg,45.9809638888889,9.262052777777779,,,,,,Italy,Via San Vittore; Aureggio; San Giovanni; Bellagio; Como; Lombardy; 22021; Italy,hotel,cameraforensics
http://static.panoramio.com/photos/original/93628150.jpg,45.987381,9.261075,,,,,,Italy,Charming Bellagio; 14; Salita Mella; Pescallo; San Giovanni; Bellagio; Como; Lombardy; 22021; Italy,hotel,cameraforensics
https://q-cf.bstatic.com/images/hotel/max1280x900/237/237220429.jpg,45.98774,9.26167,,,,,,Italy,Original Watercolours; Salita Monastero; Pescallo; San Giovanni; Bellagio; Como; Lombardy; 22021; Italy,hotel,cameraforensics
https://live.staticflickr.com/5785/30186395481_2de8c09cc6_o.jpg,37.06533333333334,15.293586111111107,,,,,,Italy,10; Via Emanuele De Benedictis; Ortigia; Syracuse; Siracusa; Sicily; Italy,hotel,cameraforensics
https://q-cf.bstatic.com/images/hotel/max1280x900/114/114923430.jpg,37.0659089,15.2838424,,,,,,Italy,6; Vicolo Zuara; Syracuse; Siracusa; Sicily; Italy,hotel,cameraforensics
https://live.staticflickr.com/5584/13985621924_e963dd4f8c_o.jpg,37.07230758333333,15.2895565,,,,,,Italy,Bar Piave; Via Piave; Borgata Santa Lucia; Syracuse; Siracusa; Sicily; Italy,hotel,cameraforensics
https://live.staticflickr.com/8578/15895855887_ca0c7bc887_o.jpg,37.072619444444435,15.28718333333333,,,,,,Italy,84; Viale Luigi Cadorna; Borgata Santa Lucia; Syracuse; Siracusa; Sicily; Italy,hotel,cameraforensics
https://r-cf.bstatic.com/images/hotel/max1280x900/938/93830533.jpg,37.06558781,15.2881217,,,,,,Italy,56; Corso Umberto Primo; Ortigia; Syracuse; Siracusa; Sicily; Italy,hotel,cameraforensics
https://q-cf.bstatic.com/images/hotel/max1280x900/216/216971968.jpg,37.06549822,15.289769,,,,,,Italy,13; Via Eritrea; Ortigia; Syracuse; Siracusa; Sicily; Italy,hotel,cameraforensics
https://r-cf.bstatic.com/images/hotel/max1280x900/204/204478890.jpg,37.068713,15.289619,,,,,,Italy,44 sc. C; Via dell'Arsenale; Borgata Santa Lucia; Syracuse; Siracusa; Sicily; Italy,hotel,cameraforensics
https://q-cf.bstatic.com/images/hotel/max1280x900/637/63770617.jpg,37.06239416,15.29338111,,,,,,Italy,8; Via Giusto Monaco; Ortigia; Syracuse; Siracusa; Sicily; Italy,hotel,cameraforensics
https://q-cf.bstatic.com/images/hotel/max1280x900/817/81735231.jpg,37.06463505,15.2950277,,,,,,Italy,Hotel Mastrarua; Via Vittorio Veneto; Ortigia; Syracuse; Siracusa; Sicily; Italy,hotel,cameraforensics
https://r-cf.bstatic.com/images/hotel/max1280x900/956/95696782.jpg,37.06832988,15.28462469,,,,,,Italy,7; Corso Gelone; Borgata Santa Lucia; Syracuse; Siracusa; Sicily; Italy,hotel,cameraforensics
https://live.staticflickr.com/4117/35267736790_c4a582f616_o.jpg,40.730897222222225,13.96438333333333,,,,,,Italy,House of Sun; Via Boccaccio; Ischia; Napoli; Campania; 80077; Italy,hotel,cameraforensics
https://r-cf.bstatic.com/images/hotel/max1280x900/461/46141856.jpg,40.72880031,13.95660102,,,,,,Italy,Cartaromana; Via Nuova Cartaromana; Ischia; Napoli; Campania; 80077; Italy,hotel,cameraforensics
https://q-cf.bstatic.com/images/hotel/max1280x900/141/141456840.jpg,40.72722218,13.95898819,,,,,,Italy,Hotel Don Filipe; Via Nuova Cartaromana; Ischia; Napoli; Campania; 80077; Italy,hotel,cameraforensics
https://r-cf.bstatic.com/images/hotel/max1280x900/209/209954132.jpg,40.726895,13.953299,,,,,,Italy,Via Giovanni Battista Vico; Campagnano; Ischia; Napoli; Campania; 80077; Italy,hotel,cameraforensics
https://r-cf.bstatic.com/images/hotel/max1280x900/151/151092031.jpg,40.72577191,13.9585644,,,,,,Italy,Hotel Giardino delle Ninfe e La Fenice Ischia; Via Nuova Cartaromana; Ischia; Napoli; Campania; 80077; Italy,hotel,cameraforensics
https://live.staticflickr.com/1608/26611359185_f4104be8e6_o.jpg,40.72663611111111,13.95926111111111,,,,,,Italy,Gardenia Mare; Via Nuova Cartaromana; Ischia; Napoli; Campania; 80077; Italy,hotel,cameraforensics
https://live.staticflickr.com/1748/41485972995_b1f24cc474_o.jpg,40.73166553333333,13.96405975,,,,,,Italy,Aragonese Castle; Via Boccaccio; Ischia; Napoli; Campania; 80077; Italy,hotel,cameraforensics
https://r-cf.bstatic.com/images/hotel/max1280x900/138/138444229.jpg,40.730907,13.955518,,,,,,Italy,Hotel Aragonese; Via G.B. Vico; Ischia; Napoli; Campania; 80077; Italy,hotel,cameraforensics
https://q-cf.bstatic.com/images/hotel/max1280x900/141/141457179.jpg,40.72722218,13.95898819,,,,,,Italy,Hotel Don Filipe; Via Nuova Cartaromana; Ischia; Napoli; Campania; 80077; Italy,hotel,cameraforensics
https://live.staticflickr.com/6175/6162781761_a105f01216_o.jpg,40.731,13.964,,,,,,Italy,Cathedral of the Assunta; Via Boccaccio; Ischia; Napoli; Campania; 80077; Italy,hotel,cameraforensics
https://live.staticflickr.com/8177/8054227018_b87d2f90b0_o.jpg,37.06127111375,15.29339336028333,,,,,,Italy,Acca Punto; Via dell'Amalfitania; Ortigia; Syracuse; Siracusa; Sicily; Italy,hotel,cameraforensics
https://live.staticflickr.com/3935/15398496999_78fe395bdf_o.jpg,43.771525,11.25884722222222,,,,,,Italy,Palazzo Ramirez de Montalvo; Via de' Giraldi; Oltrarno; Quartiere 1; Florence; Metropolitan City of Florence; Tuscany; 50122; Italy,hotel,cameraforensics
https://live.staticflickr.com/1632/24648435286_a5a8cfc21d_o.jpg,45.57790166666667,9.180015,,,,,,Italy,Belvedere; Via Valassina; Incirano; Paderno Dugnano; Milan; Lombardy; 20045; Italy,hotel,cameraforensics
https://q-cf.bstatic.com/images/hotel/max1280x900/118/118316748.jpg,45.58053020000001,9.17283833,,,,,,Italy,Hotel Mirage; 95; Via Valassina; Incirano; Paderno Dugnano; Milan; Lombardy; 20037; Italy,hotel,cameraforensics
https://r-cf.bstatic.com/images/hotel/max1280x900/152/152647374.jpg,45.58002792,9.17374194,,,,,,Italy,Futura Motel; Via Valassina; Incirano; Paderno Dugnano; Milan; Lombardy; 20037; Italy,hotel,cameraforensics
https://r-cf.bstatic.com/images/hotel/max1280x900/152/152649470.jpg,45.58002792,9.17374194,,,,,,Italy,Futura Motel; Via Valassina; Incirano; Paderno Dugnano; Milan; Lombardy; 20037; Italy,hotel,cameraforensics
https://live.staticflickr.com/3943/15563625731_6a1dcc3b2f_o.jpg,45.577369444444436,9.17943333333333,,,,,,Italy,Belvedere; Via Valassina; Incirano; Paderno Dugnano; Milan; Lombardy; 20045; Italy,hotel,cameraforensics
https://live.staticflickr.com/1696/24304543319_563d7d976d_o.jpg,45.577365,9.17969166666667,,,,,,Italy,Belvedere; Via Valassina; Incirano; Paderno Dugnano; Milan; Lombardy; 20045; Italy,hotel,cameraforensics
https://live.staticflickr.com/8698/17200993207_f3383c6151_o.jpg,45.576572222222225,9.180666666666667,,,,,,Italy,Teatro Stefano Strada; Via Giovanni Amendola; Calderara; Paderno Dugnano; Milan; Lombardy; 20037; Italy,hotel,cameraforensics
https://r-cf.bstatic.com/images/hotel/max1280x900/406/40662259.jpg,45.58002792,9.17374194,,,,,,Italy,Futura Motel; Via Valassina; Incirano; Paderno Dugnano; Milan; Lombardy; 20037; Italy,hotel,cameraforensics
https://live.staticflickr.com/5041/5274654197_8e49821c87_o.jpg,45.57383333333333,9.172,,,,,,Italy,Stadio Comunale; Via Valentino Mazzola; Dugnano; Calderara; Paderno Dugnano; Milan; Lombardy; 20037; Italy,hotel,cameraforensics
https://r-cf.bstatic.com/images/hotel/max1280x900/118/118321140.jpg,45.58053020000001,9.17283833,,,,,,Italy,Hotel Mirage; 95; Via Valassina; Incirano; Paderno Dugnano; Milan; Lombardy; 20037; Italy,hotel,cameraforensics
http://static.panoramio.com/photos/original/41258573.jpg,39.147628568094454,9.47764869445833,,,,,,Italy,Villaggio Mandorli; Crabonaxa/Villasimius; Sud Sardegna; Sardinia; 09049; Italy,hotel,cameraforensics
https://r-cf.bstatic.com/images/hotel/max1280x900/179/179683792.jpg,39.13938239,9.48700595,,,,,,Italy,Villaggio Mandorli; Crabonaxa/Villasimius; Sud Sardegna; Sardinia; 09049; Italy,hotel,cameraforensics
https://r-cf.bstatic.com/images/hotel/max1280x900/176/176558945.jpg,39.14413166,9.48541591,,,,,,Italy,Villaggio Mandorli; Crabonaxa/Villasimius; Sud Sardegna; Sardinia; 09049; Italy,hotel,cameraforensics
https://r-cf.bstatic.com/images/hotel/max1280x900/140/140974353.jpg,39.141413,9.487763000000001,,,,,,Italy,Villaggio Mandorli; Crabonaxa/Villasimius; Sud Sardegna; Sardinia; 09049; Italy,hotel,cameraforensics
https://r-cf.bstatic.com/images/hotel/max1280x900/214/214270082.jpg,39.14394083,9.48676943,,,,,,Italy,Villaggio Mandorli; Crabonaxa/Villasimius; Sud Sardegna; Sardinia; 09049; Italy,hotel,cameraforensics
https://q-cf.bstatic.com/images/hotel/max1280x900/195/195455094.jpg,39.13862152,9.4858025,,,,,,Italy,2B; Via Giardone; Villaggio Mandorli; Crabonaxa/Villasimius; Sud Sardegna; Sardinia; 09049; Italy,hotel,cameraforensics
https://r-cf.bstatic.com/images/hotel/max1280x900/329/32932361.jpg,39.14124843,9.48628336,,,,,,Italy,Via Giardone; Villaggio Mandorli; Crabonaxa/Villasimius; Sud Sardegna; Sardinia; 09049; Italy,hotel,cameraforensics
https://q-cf.bstatic.com/images/hotel/max1280x900/194/194913775.jpg,39.14177385,9.48856295,,,,,,Italy,Villaggio Mandorli; Crabonaxa/Villasimius; Sud Sardegna; Sardinia; 09049; Italy,hotel,cameraforensics
https://q-cf.bstatic.com/images/hotel/max1280x900/866/86640195.jpg,39.14514112,9.48535591,,,,,,Italy,Villaggio Mandorli; Crabonaxa/Villasimius; Sud Sardegna; Sardinia; 09049; Italy,hotel,cameraforensics
https://q-cf.bstatic.com/images/hotel/max1280x900/197/197523427.jpg,39.14426944,9.48659694,,,,,,Italy,Villaggio Mandorli; Crabonaxa/Villasimius; Sud Sardegna; Sardinia; 09049; Italy,hotel,cameraforensics
https://live.staticflickr.com/4291/35887239191_a99b7e0962_o.jpg,37.05758333333333,15.292119444444447,,,,,,Italy,Ortigia; Syracuse; Siracusa; Sicily; Italy,hotel,cameraforensics
https://live.staticflickr.com/5640/23897945691_d39d0df92f_o.jpg,37.058225,15.29257777777778,,,,,,Italy,10a; Passeggio Aretusa; Ortigia; Syracuse; Siracusa; Sicily; Italy,hotel,cameraforensics
https://live.staticflickr.com/7799/27787129795_b5058a9c90_o.jpg,37.06406666666667,15.29625833333333,,,,,,Italy,Vicolo IV alla Mastrarua; Ortigia; Syracuse; Siracusa; Sicily; Italy,hotel,cameraforensics
https://live.staticflickr.com/7251/26916644444_faf8586674_o.jpg,37.05791944444444,15.297161111111107,,,,,,Italy,Ortigia; Syracuse; Siracusa; Sicily; Italy,hotel,cameraforensics
https://live.staticflickr.com/5806/29904050533_267248c8e2_o.jpg,37.06083333333333,15.29716666666667,,,,,,Italy,97; Via della Maestranza; Ortigia; Syracuse; Siracusa; Sicily; Italy,hotel,cameraforensics
http://static.panoramio.com/photos/original/60667829.jpg,37.059634,15.292612,,,,,,Italy,Condorelli; Via delle Carceri Vecchie; Ortigia; Syracuse; Siracusa; Sicily; Italy,hotel,cameraforensics
https://live.staticflickr.com/1675/26552075161_3c8eaa2d77_o.jpg,37.05783333333333,15.293625,,,,,,Italy,Muciula; Via delle Vergini; Ortigia; Syracuse; Siracusa; Sicily; Italy,hotel,cameraforensics
https://live.staticflickr.com/1489/26436556020_f00abb7864_o.jpg,37.05801666666667,15.297030555555553,,,,,,Italy,Ortigia; Syracuse; Siracusa; Sicily; Italy,hotel,cameraforensics
https://live.staticflickr.com/1488/25861393814_bebb0ccaa9_o.jpg,37.05968611111111,15.29338055555556,,,,,,Italy,Cathedral of Syracuse; Via Roma; Ortigia; Syracuse; Siracusa; Sicily; Italy,hotel,cameraforensics
https://r-cf.bstatic.com/images/hotel/max1280x900/221/221727405.jpg,40.35602552,18.1832252,,,,,,Italy,P156; Via Francesco Ribezzo; Lecce; Apulia; 73100; Italy,hotel,cameraforensics
https://live.staticflickr.com/1172/5117689242_b5433ce7bc_o.jpg,40.35133333333334,18.177,,,,,,Italy,Piazza Tito Schipa; Lecce; Apulia; Italy,hotel,cameraforensics
https://i.pinimg.com/originals/eb/1d/09/eb1d0960eeae686cfc857b0f1e91df1e.jpg,40.35478611111111,18.17655833333333,,,,,,Italy,9; Via San Francesco d'Assisi; Lecce; Apulia; 73100; Italy,hotel,cameraforensics
https://live.staticflickr.com/6235/6882929046_68c219d452_o.jpg,40.35367584228611,18.180280685425,,,,,,Italy,Ferullo; 59; Via Salvatore Trinchese; Lecce; Apulia; 73100; Italy,hotel,cameraforensics
https://q-cf.bstatic.com/images/hotel/max1280x900/213/213769146.jpg,40.35674811,18.17907502,,,,,,Italy,P157; Via Giuseppe Parini; Lecce; Apulia; 73100; Italy,hotel,cameraforensics
https://r-cf.bstatic.com/images/hotel/max1280x900/106/106494038.jpg,40.35554455,18.17711653,,,,,,Italy,8; Via Premuda; Lecce; Apulia; 73100; Italy,hotel,cameraforensics
https://q-cf.bstatic.com/images/hotel/max1280x900/603/60372087.jpg,40.3533065,18.17839782,,,,,,Italy,Youm!; 71; Piazza Giuseppe Mazzini; Lecce; Apulia; 73100; Italy,hotel,cameraforensics
https://q-cf.bstatic.com/images/hotel/max1280x900/147/147094265.jpg,40.35466318,18.17901594,,,,,,Italy,36; Via Cesare Battisti; Lecce; Apulia; 73100; Italy,hotel,cameraforensics
https://live.staticflickr.com/65535/48361678442_d68502aab6_o.jpg,40.35247777777778,18.17466388888889,,,,,,Italy,Castello di Carlo V; Viale Guglielmo Marconi; Lecce; Apulia; 73100; Italy,hotel,cameraforensics
https://r-cf.bstatic.com/images/hotel/max1280x900/489/48904939.jpg,40.35506392,18.17656875,,,,,,Italy,Acqua & Sapone; Via San Francesco d'Assisi; Lecce; Apulia; 73100; Italy,hotel,cameraforensics
https://live.staticflickr.com/7065/7038478535_d7a467f422_o.jpg,43.911,12.92233333333333,,,,,,Italy,Via Marco Polo; Centro Storico; Pantano; Pesaro; Pesaro e Urbino; Marche; 61121; Italy,hotel,cameraforensics
https://q-cf.bstatic.com/images/hotel/max1280x900/498/49890381.jpg,43.90892537,12.92436361,,,,,,Italy,Hotel Spiaggia; Viale Trieste; Loreto; Pantano; Pesaro; Pesaro e Urbino; Marche; 61121; Italy,hotel,cameraforensics
https://q-cf.bstatic.com/images/hotel/max1280x900/197/197623080.jpg,43.91131953,12.92208374,,,,,,Italy,Via Marco Polo; Centro Storico; Pantano; Pesaro; Pesaro e Urbino; Marche; 61121; Italy,hotel,cameraforensics
https://r-cf.bstatic.com/images/hotel/max1280x900/117/117111140.jpg,43.91013116,12.92270064,,,,,,Italy,Astoria; Viale Trieste; Pantano; Pesaro; Pesaro e Urbino; Marche; 61121; Italy,hotel,cameraforensics
https://r-cf.bstatic.com/images/hotel/max1280x900/201/201942535.jpg,43.90327,12.92324,,,,,,Italy,Via Aleardo Aleardi; Loreto; Pantano; Pesaro; Pesaro e Urbino; Marche; 61121; Italy,hotel,cameraforensics
https://r-cf.bstatic.com/images/hotel/max1280x900/690/69042554.jpg,43.90743741,12.92692512,,,,,,Italy,Nautilus; Viale Trieste; Loreto; Pantano; Pesaro; Pesaro e Urbino; Marche; 61121; Italy,hotel,cameraforensics
https://r-cf.bstatic.com/images/hotel/max1280x900/766/76627970.jpg,43.90809637,12.92561889,,,,,,Italy,Hotel Gala; 49; Viale Trieste; Loreto; Pantano; Pesaro; Pesaro e Urbino; Marche; 61121; Italy,hotel,cameraforensics
https://live.staticflickr.com/7328/16348712220_4d48b9e1f2_o.jpg,43.904577777777774,12.93109722222222,,,,,,Italy,Montegranaro; Pesaro; Pesaro e Urbino; Marche; 61121; Italy,hotel,cameraforensics
https://q-cf.bstatic.com/images/hotel/max1280x900/522/52239793.jpg,43.90856014,12.92530775,,,,,,Italy,Alexander; Viale Trieste; Loreto; Pantano; Pesaro; Pesaro e Urbino; Marche; 61121; Italy,hotel,cameraforensics
https://q-cf.bstatic.com/images/hotel/max1280x900/690/69042513.jpg,43.90743741,12.92692512,,,,,,Italy,Nautilus; Viale Trieste; Loreto; Pantano; Pesaro; Pesaro e Urbino; Marche; 61121; Italy,hotel,cameraforensics
https://live.staticflickr.com/4297/36133814086_c0f535c7a9_o.jpg,45.63432777777778,10.591172222222221,,,,,,Italy,Chiesa Parrocchiale SS. Faustino e Giovita; Via Montemaderno; Maclino; Maderno; Toscolano Maderno; Comunità Montana Parco Alto Garda bresciano; Brescia; Lombardy; 25080; Italy,hotel,cameraforensics
https://q-cf.bstatic.com/images/hotel/max1280x900/162/162436957.jpg,45.625947,10.57822,,,,,,Italy,Villa Paradiso; 254; Corso Giuseppe Zanardelli; Sette Case; Morgnaga; Gardone Riviera; Comunità Montana Parco Alto Garda bresciano; Brescia; Lombardy; 25083; Italy,hotel,cameraforensics
https://r-cf.bstatic.com/images/hotel/max1280x900/226/226901663.jpg,45.6267194,10.5837102,,,,,,Italy,Il Giglio; 69; Via Giovanni Battista Cipani; Fasano di sotto; Gardone Riviera; Comunità Montana Parco Alto Garda bresciano; Brescia; Lombardy; 25083; Italy,hotel,cameraforensics
https://r-cf.bstatic.com/images/hotel/max1280x900/162/162036342.jpg,45.62979917,10.58043735,,,,,,Italy,Via Fasano Sopra; Fasano di sopra; Gardone Riviera; Comunità Montana Parco Alto Garda bresciano; Brescia; Lombardy; 25083; Italy,hotel,cameraforensics
https://q-cf.bstatic.com/images/hotel/max1280x900/212/212684093.jpg,45.6353,10.58866,,,,,,Italy,Maclino; Maderno; Toscolano Maderno; Comunità Montana Parco Alto Garda bresciano; Brescia; Lombardy; 25080; Italy,hotel,cameraforensics
https://r-cf.bstatic.com/images/hotel/max1280x900/101/101715606.jpg,45.62714773,10.58313486,,,,,,Italy,Via Resola; Fasano di sotto; Gardone Riviera; Comunità Montana Parco Alto Garda bresciano; Brescia; Lombardy; 25083; Italy,hotel,cameraforensics
https://q-cf.bstatic.com/images/hotel/max1280x900/194/194488478.jpg,45.62812336,10.58071911,,,,,,Italy,Via Portizzolo; Fasano di sotto; Gardone Riviera; Comunità Montana Parco Alto Garda bresciano; Brescia; Lombardy; 25083; Italy,hotel,cameraforensics
https://r-cf.bstatic.com/images/hotel/max1280x900/658/65843059.jpg,45.629994,10.5799883,,,,,,Italy,Fasano di sopra; Gardone Riviera; Comunità Montana Parco Alto Garda bresciano; Brescia; Lombardy; 25083; Italy,hotel,cameraforensics
https://r-cf.bstatic.com/images/hotel/max1280x900/162/162436903.jpg,45.625947,10.57822,,,,,,Italy,Villa Paradiso; 254; Corso Giuseppe Zanardelli; Sette Case; Morgnaga; Gardone Riviera; Comunità Montana Parco Alto Garda bresciano; Brescia; Lombardy; 25083; Italy,hotel,cameraforensics
https://r-cf.bstatic.com/images/hotel/max1280x900/185/185373084.jpg,45.62714773,10.58313486,,,,,,Italy,Via Resola; Fasano di sotto; Gardone Riviera; Comunità Montana Parco Alto Garda bresciano; Brescia; Lombardy; 25083; Italy,hotel,cameraforensics
https://live.staticflickr.com/1650/25293158286_58baf9b95e_o.jpg,45.43341833333334,12.340494999999999,,,,,,Italy,Palazzo Ducale; 1; Набережная Сан Марко; San Marco; Venezia-Murano-Burano; Lido; Venice; Venezia; Veneto; 30122; Italy,hotel,cameraforensics
https://live.staticflickr.com/1712/25023615510_8d41db4871_o.jpg,45.43357333333334,12.33773,,,,,,Italy,Museo Correr; St. Mark's Square; San Marco; Venezia-Murano-Burano; Mestre; Venice; Venezia; Veneto; 30170; Italy,hotel,cameraforensics
https://drscdn.500px.org/photo/16615279/q%3D80_m%3D2000/v2?webp=true&sig=c3a1b9e41ef262ff264dfe8b57ec39e78d78cbea8d872d831c966e2590ff9155,45.434238433837784,12.332153320311113,,,,,,Italy,Acqua pazza; Campo Sant'Anzolo; San Marco; Venezia-Murano-Burano; Mestre; Venice; Venezia; Veneto; 30170; Italy,hotel,cameraforensics
https://live.staticflickr.com/727/22809377120_d4d6df38f8_o.jpg,45.43362,12.33745,,,,,,Italy,Museo Correr; St. Mark's Square; San Marco; Venezia-Murano-Burano; Mestre; Venice; Venezia; Veneto; 30170; Italy,hotel,cameraforensics
https://live.staticflickr.com/3894/14249323357_1dd9e75b94_o.jpg,45.43393333333334,12.34435,,,,,,Italy,San Zaccaria (M.V.E.); Riva degli Schiavoni; Castello; Venezia-Murano-Burano; Lido; Venice; Venezia; Veneto; Italy,hotel,cameraforensics
https://live.staticflickr.com/662/23076696221_7848b08f73_o.jpg,45.433263333333336,12.34024333333333,,,,,,Italy,Piazzetta San Marco; Набережная Сан Марко; San Marco; Venezia-Murano-Burano; Lido; Venice; Venezia; Veneto; Italy,hotel,cameraforensics
https://live.staticflickr.com/3810/19779784020_ae7b0f2107_o.jpg,45.43376944444444,12.34093055555556,,,,,,Italy,Doge's Palace; Fondamenta Santa Apollonia; Castello; Venezia-Murano-Burano; Lido; Venice; Venezia; Veneto; 30120; Italy,hotel,cameraforensics
https://live.staticflickr.com/766/23141385101_a45dc0f943_o.jpg,45.43105333333333,12.33515,,,,,,Italy,Santa Maria della Salute; Campo della Salute; Dorsoduro; Venezia-Murano-Burano; Mestre; Venice; Venezia; Veneto; 30170; Italy,hotel,cameraforensics
https://live.staticflickr.com/8832/28716134211_a6e981376d_o.jpg,45.430625,12.32947222222222,,,,,,Italy,ai Cugnai; 857; Piscina del Forner; Dorsoduro; Venezia-Murano-Burano; Mestre; Venice; Venezia; Veneto; 30170; Italy,hotel,cameraforensics
https://live.staticflickr.com/8831/28178199083_8ba90ec980_o.jpg,45.4399388888889,12.333622222222221,,,,,,Italy,L'isola Di Busato Simone; 1783; Fondamenta Riva de l'Ogio; San Polo; Venezia-Murano-Burano; Mestre; Venice; Venezia; Veneto; 30125; Italy,hotel,cameraforensics
https://live.staticflickr.com/7317/27581520653_66272d764c_o.jpg,45.8095138888889,9.08505833333333,,,,,,Italy,100; Via Vittorio Emanuele Secondo; San Vitale; Città murata; Como; Lombardy; 22100; Italy,hotel,cameraforensics
https://live.staticflickr.com/5695/30196564743_d6757f3dc0_o.jpg,45.811782,9.083959,,,,,,Italy,Cathedral of Como; Piazza del Duomo; Coloniola; Città murata; Como; Lombardy; Italy,hotel,cameraforensics
https://live.staticflickr.com/580/32631976272_f91d9b5e99_o.jpg,45.8089425,9.087562777777778,,,,,,Italy,Unieuro; Viale Lecco; San Vitale; San Bartolomeo; Como; Lombardy; 22100; Italy,hotel,cameraforensics
https://live.staticflickr.com/3705/18939894684_0b77e00d24_o.jpg,45.81310555555554,9.077619444444439,,,,,,Italy,Lungo Lario Trento; San Giovanni; Città murata; Como; Lombardy; 22100; Italy,hotel,cameraforensics
https://live.staticflickr.com/3912/14320925016_2eca5bf6db_o.jpg,45.81532666666666,9.08018205555556,,,,,,Italy,The Life Electric; Diga Foranea Piero Caldirola; Coloniola; Sant'Agostino; Como; Lombardy; 22100; Italy,hotel,cameraforensics
https://live.staticflickr.com/4197/34011750174_88cfdea234_o.jpg,45.811721666666664,9.08346166666667,,,,,,Italy,Cathedral of Como; Piazza del Duomo; Coloniola; Città murata; Como; Lombardy; Italy,hotel,cameraforensics
https://live.staticflickr.com/2844/10704505844_68d28b8af6_o.jpg,45.81476972222222,9.07904638888889,,,,,,Italy,Porto Turistico di Como; Diga Foranea Piero Caldirola; Coloniola; Sant'Agostino; Como; Lombardy; 22100; Italy,hotel,cameraforensics
http://static.panoramio.com/photos/original/93651754.jpg,45.81205,9.08377,,,,,,Italy,Cathedral of Como; Piazza del Duomo; Coloniola; Città murata; Como; Lombardy; Italy,hotel,cameraforensics
https://drscdn.500px.org/photo/2908081/q%3D80_m%3D2000/531c21a5df3f1a6b0c5d13795a094767,45.81024,9.083167999999999,,,,,,Italy,Pandora; 35; Via Bernardino Luini; San Vitale; Città murata; Como; Lombardy; 22100; Italy,hotel,cameraforensics
https://drscdn.500px.org/photo/207022153/m%3D2048_k%3D1_a%3D1/ce98b91f06edee3d4ada955763145ec4,45.80943333333333,9.0739,,,,,,Italy,Viale Tokamachi; San Giovanni; Vico; Como; Lombardy; 22100; Italy,hotel,cameraforensics
https://live.staticflickr.com/8538/8633325673_f45274a0ea_o.jpg,42.46083333333333,14.212666666666667,,,,,,Italy,Macelleria Equina Zacchini Mario; 34; Via dei Bastioni; Rancitelli; Pescara; Abruzzo; 65127; Italy,hotel,cameraforensics
https://q-cf.bstatic.com/images/hotel/max1280x900/945/94567153.jpg,42.47010752,14.20835101,,,,,,Italy,Dolci Sport; 64; Via Roma; Via Fonte Romana; Portanuova; Pescara; Abruzzo; 65122; Italy,hotel,cameraforensics
https://live.staticflickr.com/4138/4935610673_4f93a414de_o.jpg,42.46766666666667,14.21283333333333,,,,,,Italy,Acme Fumetti & Dintorni; 104; Via Palermo; Via Fonte Romana; Portanuova; Pescara; Abruzzo; 65122; Italy,hotel,cameraforensics
https://live.staticflickr.com/4057/4259247214_94af29f367_o.jpg,42.46820611111111,14.21264805555556,,,,,,Italy,Gina for Lady; 31; Via Campania; Via Fonte Romana; Portanuova; Pescara; Abruzzo; 65122; Italy,hotel,cameraforensics
https://live.staticflickr.com/8667/28776552250_82b527c730_o.jpg,42.46163055555557,14.212088888888893,,,,,,Italy,Genti d'Abruzzo; Via Catone; Rancitelli; Pescara; Abruzzo; 65100; Italy,hotel,cameraforensics
https://live.staticflickr.com/8114/8693006820_b68a87e6a1_o.jpg,42.46083333333333,14.2115,,,,,,Italy,Circolo Aternino; Corso Manthonè; Rancitelli; Pescara; Abruzzo; 65100; Italy,hotel,cameraforensics
https://live.staticflickr.com/8256/8691885527_8c8f188842_o.jpg,42.4605,14.21183333333333,,,,,,Italy,Ismail Gift Corner; 16; Piazza Giuseppe Garibaldi; Rancitelli; Pescara; Abruzzo; 65127; Italy,hotel,cameraforensics
https://live.staticflickr.com/6092/6217220005_8a3c1e72e7_o.jpg,42.463,14.21483333333333,,,,,,Italy,Ponte Risorgimento; Lungofiume dei Poeti; Rancitelli; Pescara; Abruzzo; 65121; Italy,hotel,cameraforensics
https://live.staticflickr.com/2872/12269612756_2b6b247129_o.jpg,42.46470277777778,14.216461111111107,,,,,,Italy,Via Raffaele Paolucci; Via Fonte Romana; Portanuova; Pescara; Abruzzo; 65121; Italy,hotel,cameraforensics
https://q-cf.bstatic.com/images/hotel/max1280x900/142/142663065.jpg,42.46159,14.213026999999999,,,,,,Italy,Taverna 58; 46; Corso Manthonè; Portanuova; Pescara; Abruzzo; 65100; Italy,hotel,cameraforensics
https://live.staticflickr.com/5699/22138625906_4acd01c54f_o.jpg,45.46345833333334,9.19124166666667,,,,,,Italy,Surveillance camera; Small Royal Square; Duomo; Municipio 1; Milan; Lombardy; 20122; Italy,hotel,cameraforensics
https://live.staticflickr.com/5659/21712295625_8bfe25b4e8_o.jpg,45.46400833333333,9.19021666666667,,,,,,Italy,Duomo; 1_33051; Duomo; Municipio 1; Milan; Lombardy; 20122; Italy,hotel,cameraforensics
https://live.staticflickr.com/7380/11220945056_a1c488b8b0_o.jpg,45.4645,9.1905,,,,,,Italy,Milan Cathedral; 1_33051; Duomo; Municipio 1; Milan; Lombardy; 20122; Italy,hotel,cameraforensics
https://live.staticflickr.com/4554/26973874389_2caf9ab6ac_o.jpg,45.46436083333333,9.191221666666667,,,,,,Italy,Milan Cathedral; 1_33051; Duomo; Municipio 1; Milan; Lombardy; 20122; Italy,hotel,cameraforensics
https://live.staticflickr.com/491/31657816026_4dcf54e0c4_o.jpg,45.464159816949994,9.19078129753056,,,,,,Italy,Milan Cathedral; 1_33051; Duomo; Municipio 1; Milan; Lombardy; 20122; Italy,hotel,cameraforensics
https://live.staticflickr.com/739/23173437890_f49dd03708_o.jpg,45.46682222222222,9.191269444444439,,,,,,Italy,Palazzo Marino; Largo Raffaele Mattioli; Duomo; Municipio 1; Milan; Lombardy; 20121; Italy,hotel,cameraforensics
https://live.staticflickr.com/7617/17031086721_7c984636d0_o.jpg,45.46453833333333,9.19024666666667,,,,,,Italy,Surveillance camera; 1_33051; Duomo; Municipio 1; Milan; Lombardy; 20122; Italy,hotel,cameraforensics
http://static.panoramio.com/photos/original/68833582.jpg,45.46697235107417,9.191056251525,,,,,,Italy,Palazzo della Banca Commerciale Italiana; Piazza della Scala; Duomo; Municipio 1; Milan; Lombardy; 20121; Italy,hotel,cameraforensics
https://live.staticflickr.com/5836/22487665508_57515a2e3c_o.jpg,45.465025,9.19762833333333,,,,,,Italy,BNL - Agenzia 8 - corso Europa 22; Galleria privata Strasburgo; Duomo; Municipio 1; Milan; Lombardy; 20122; Italy,hotel,cameraforensics
https://live.staticflickr.com/651/23482021859_248989dd46_o.jpg,45.465777777777774,9.19002222222222,,,,,,Italy,Ottagono; Galleria Vittorio Emanuele II; Duomo; Municipio 1; Milan; Lombardy; 20121; Italy,hotel,cameraforensics
https://live.staticflickr.com/4116/35652041342_5142350e73_o.jpg,40.546769444444436,14.243061111111107,,,,,,Italy,Giardini di Augusto; Via Krupp; Capri; Napoli; Campania; 80073; Italy,hotel,cameraforensics
https://live.staticflickr.com/5460/29638170120_4a1f8d69c7_o.jpg,40.55001388888889,14.24080833333333,,,,,,Italy,Hotel Capri; 71; Via Roma; Capri; Napoli; Campania; 80073; Italy,hotel,cameraforensics
https://live.staticflickr.com/4103/35629292906_0cf3a3a07b_o.jpg,40.55163888888889,14.236311111111107,,,,,,Italy,Via Veruotto; Capri; Napoli; Campania; 80073; Italy,hotel,cameraforensics
https://live.staticflickr.com/4465/37146963914_a4f94b4633_o.jpg,40.54672222222222,14.228380555555553,,,,,,Italy,Osservatorio Metereologico; 390; Anacapri; Napoli; Campania; 80071; Italy,hotel,cameraforensics
https://live.staticflickr.com/4432/37199602052_18811c584c_o.jpg,40.54994166666667,14.237422222222225,,,,,,Italy,Capri; Napoli; Campania; 80073; Italy,hotel,cameraforensics
https://live.staticflickr.com/1464/25998116204_91a313be8f_o.jpg,40.54667166666667,14.22840333333333,,,,,,Italy,Osservatorio Metereologico; 390; Anacapri; Napoli; Campania; 80071; Italy,hotel,cameraforensics
http://static.panoramio.com/photos/original/74495185.jpg,40.54338753002222,14.23631711999722,,,,,,Italy,Capri; Napoli; Campania; 80073; Italy,hotel,cameraforensics
https://r-cf.bstatic.com/images/hotel/max1280x900/192/192192640.jpg,40.5433751,14.23120592,,,,,,Italy,Via Marina Piccola; Capri; Napoli; Campania; 80073; Italy,hotel,cameraforensics
https://live.staticflickr.com/3694/13120615063_bef9e6d7e2_o.jpg,40.545,14.23888888888889,,,,,,Italy,Via Krupp; Capri; Napoli; Campania; 80073; Italy,hotel,cameraforensics
https://live.staticflickr.com/4533/37859108544_3fe0b1476d_o.jpg,40.546886111111114,14.243202777777775,,,,,,Italy,Giardini di Augusto; Via Krupp; Capri; Napoli; Campania; 80073; Italy,hotel,cameraforensics
https://live.staticflickr.com/8754/28316552316_5b9b160d2b_o.jpg,41.90258055555555,12.493838888888893,,,,,,Italy,Palazzo Esercito; Via Firenze; Monti; Municipio Roma I; Rome; Roma Capitale; Lazio; 00187; Italy,hotel,cameraforensics
https://live.staticflickr.com/4289/35664597652_ef5d209dc6_o.jpg,41.905527777777785,12.50246666666667,,,,,,Italy,Andreotti Hotel; 55; Via Castelfidardo; Municipio Roma I; Rome; Roma Capitale; Lazio; 00198; Italy,hotel,cameraforensics
https://live.staticflickr.com/4298/35794033742_200f48a403_o.jpg,41.905719444444436,12.50209722222222,,,,,,Italy,julius caesar; Via Gaeta; Municipio Roma I; Rome; Roma Capitale; Lazio; 00198; Italy,hotel,cameraforensics
https://live.staticflickr.com/7582/15763181209_c8c2bc13f3_o.jpg,41.902698516845824,12.496203422547223,,,,,,Italy,Fontana delle Naiadi; Piazza della Repubblica; Municipio Roma I; Rome; Roma Capitale; Lazio; 00184; Italy,hotel,cameraforensics
https://live.staticflickr.com/549/19831281968_2c04b1caa4_o.jpg,41.89922222222222,12.495836111111107,,,,,,Italy,Via Cesare Balbo; Monti; Municipio Roma I; Rome; Roma Capitale; Lazio; 00184; Italy,hotel,cameraforensics
https://live.staticflickr.com/3671/9857388646_fd4516a1a4_o.jpg,41.902675,12.49585,,,,,,Italy,Repubblica; Piazza della Repubblica; Monti; Municipio Roma I; Rome; Roma Capitale; Lazio; 00184; Italy,hotel,cameraforensics
https://live.staticflickr.com/4072/34818567843_94dfba5b22_o.jpg,45.814397222222226,9.07101111111111,,,,,,Italy,Yacht Club Como; Viale Giancarlo Puecher; Santa Marta; Vico; Como; Lombardy; 22100; Italy,hotel,cameraforensics
https://q-cf.bstatic.com/images/hotel/max1280x900/143/143925217.jpg,42.81123735,10.76316297,,,,,,Italy,Via dello Scoglietto; Punta Ala; Castiglione della Pescaia; Grosseto; Tuscany; Italy,hotel,cameraforensics
https://q-cf.bstatic.com/images/hotel/max1280x900/175/175660087.jpg,42.80945516,10.76198206,,,,,,Italy,Via delle Sughere; Punta Ala; Castiglione della Pescaia; Grosseto; Tuscany; Italy,hotel,cameraforensics
https://live.staticflickr.com/1723/41911254115_6658afd395_o.jpg,42.80763166666667,10.76782166666667,,,,,,Italy,Via dei Pastori; Punta Ala; Castiglione della Pescaia; Grosseto; Tuscany; Italy,hotel,cameraforensics
https://r-cf.bstatic.com/images/hotel/max1280x900/109/109145611.jpg,42.80853084,10.76624215,,,,,,Italy,Via Breve; Punta Ala; Castiglione della Pescaia; Grosseto; Tuscany; Italy,hotel,cameraforensics
https://q-cf.bstatic.com/images/hotel/max1280x900/162/162271625.jpg,42.80341072,10.76104761,,,,,,Italy,Via del Quadrifoglio; Punta Ala; Castiglione della Pescaia; Grosseto; Tuscany; Italy,hotel,cameraforensics
https://r-cf.bstatic.com/images/hotel/max1280x900/103/103360170.jpg,42.80845074,10.76462703,,,,,,Italy,Via delle Sughere; Punta Ala; Castiglione della Pescaia; Grosseto; Tuscany; Italy,hotel,cameraforensics
https://q-cf.bstatic.com/images/hotel/max1280x900/103/103008626.jpg,42.80845074,10.76462703,,,,,,Italy,Via delle Sughere; Punta Ala; Castiglione della Pescaia; Grosseto; Tuscany; Italy,hotel,cameraforensics
https://q-cf.bstatic.com/images/hotel/max1280x900/134/134582376.jpg,42.8085874,10.7715597,,,,,,Italy,Via Montparnasse; Castiglione della Pescaia; Grosseto; Tuscany; Italy,hotel,cameraforensics
https://q-cf.bstatic.com/images/hotel/max1280x900/163/163286957.jpg,42.80704745,10.76107421,,,,,,Italy,Punta Ala; Castiglione della Pescaia; Grosseto; Tuscany; Italy,hotel,cameraforensics
https://r-cf.bstatic.com/images/hotel/max1280x900/141/141507710.jpg,42.80404,10.762352,,,,,,Italy,Via della Molletta; Punta Ala; Castiglione della Pescaia; Grosseto; Tuscany; Italy,hotel,cameraforensics
https://r-cf.bstatic.com/images/hotel/max1280x900/212/212202996.jpg,43.28848,11.962963,,,,,,Italy,Cegliolo; Tavarnelle-Sant'Eusebio; Cortona; Arezzo; Tuscany; 52044; Italy,hotel,cameraforensics
https://q-cf.bstatic.com/images/hotel/max1280x900/192/192950541.jpg,43.29028162,11.97136939,,,,,,Italy,Baracchi Winery; Strada Comunale di Cegliolo; Cegliolo; Tavarnelle-Sant'Eusebio; Cortona; Arezzo; Tuscany; 52044; Italy,hotel,cameraforensics
https://r-cf.bstatic.com/images/hotel/max1280x900/826/8268432.jpg,43.29028162,11.97136939,,,,,,Italy,Baracchi Winery; Strada Comunale di Cegliolo; Cegliolo; Tavarnelle-Sant'Eusebio; Cortona; Arezzo; Tuscany; 52044; Italy,hotel,cameraforensics
https://r-cf.bstatic.com/images/hotel/max1280x900/176/176912068.jpg,43.28993835,11.96512976,,,,,,Italy,Cegliolo; Tavarnelle-Sant'Eusebio; Cortona; Arezzo; Tuscany; 52044; Italy,hotel,cameraforensics
https://r-cf.bstatic.com/images/hotel/max1280x900/192/192950620.jpg,43.29028162,11.97136939,,,,,,Italy,Baracchi Winery; Strada Comunale di Cegliolo; Cegliolo; Tavarnelle-Sant'Eusebio; Cortona; Arezzo; Tuscany; 52044; Italy,hotel,cameraforensics
https://q-cf.bstatic.com/images/hotel/max1280x900/206/206080918.jpg,43.2883429,11.96331202,,,,,,Italy,Cegliolo; Tavarnelle-Sant'Eusebio; Cortona; Arezzo; Tuscany; 52044; Italy,hotel,cameraforensics
https://r-cf.bstatic.com/images/hotel/max1280x900/212/212202846.jpg,43.28848,11.962963,,,,,,Italy,Cegliolo; Tavarnelle-Sant'Eusebio; Cortona; Arezzo; Tuscany; 52044; Italy,hotel,cameraforensics
https://q-cf.bstatic.com/images/hotel/max1280x900/106/106496530.jpg,43.28828281,11.96504056,,,,,,Italy,San Martino a Bocena; Tavarnelle-Sant'Eusebio; Cortona; Arezzo; Tuscany; 52044; Italy,hotel,cameraforensics
https://q-cf.bstatic.com/images/hotel/max1280x900/212/212550949.jpg,43.28848,11.962963,,,,,,Italy,Cegliolo; Tavarnelle-Sant'Eusebio; Cortona; Arezzo; Tuscany; 52044; Italy,hotel,cameraforensics
https://q-cf.bstatic.com/images/hotel/max1280x900/182/182202051.jpg,43.293659999999996,11.96686,,,,,,Italy,Cegliolo; Tavarnelle-Sant'Eusebio; Cortona; Arezzo; Tuscany; 52044; Italy,hotel,cameraforensics
https://live.staticflickr.com/452/19776770059_01e9e512f2_o.jpg,40.71780277777777,13.866144444444439,,,,,,Italy,Cuotto; Forio; Napoli; Campania; 80075; Italy,hotel,cameraforensics
https://live.staticflickr.com/7418/9543861139_1e8471440a_o.jpg,40.724522368972224,13.863416891527779,,,,,,Italy,Cuotto; Forio; Napoli; Campania; 80075; Italy,hotel,cameraforensics
https://q-cf.bstatic.com/images/hotel/max1280x900/212/212648827.jpg,40.7181,13.866557,,,,,,Italy,Cuotto; Forio; Napoli; Campania; 80075; Italy,hotel,cameraforensics
https://r-cf.bstatic.com/images/hotel/max1280x900/205/205532869.jpg,40.72340360000001,13.8616861,,,,,,Italy,Hotel Riva del Sole; Via Giovanni Mazzella; Cuotto; Forio; Napoli; Campania; 80075; Italy,hotel,cameraforensics
https://q-cf.bstatic.com/images/hotel/max1280x900/198/198538455.jpg,40.72340360000001,13.8616861,,,,,,Italy,Hotel Riva del Sole; Via Giovanni Mazzella; Cuotto; Forio; Napoli; Campania; 80075; Italy,hotel,cameraforensics
https://live.staticflickr.com/65535/49626163202_7da8b3ed91_o.jpg,40.72134017916667,13.86106109611111,,,,,,Italy,Gabbiano Beach; Via Giovanni Mazzella; Cuotto; Forio; Napoli; Campania; 80075; Italy,hotel,cameraforensics
https://q-cf.bstatic.com/images/hotel/max1280x900/102/102220827.jpg,40.7175461,13.870790099999999,,,,,,Italy,Via San Giuseppe; Cuotto; Forio; Napoli; Campania; 80075; Italy,hotel,cameraforensics
https://q-cf.bstatic.com/images/hotel/max1280x900/169/16951978.jpg,40.71927,13.87128532,,,,,,Italy,Agriturismo La Pergola; 24; Via San Giuseppe; Cuotto; Forio; Napoli; Campania; 80075; Italy,hotel,cameraforensics
https://q-cf.bstatic.com/images/hotel/max1280x900/175/175590905.jpg,40.72572614,13.86116534,,,,,,Italy,Baia dell Sirena Cast Hotel; Via Giovanni Mazzella; Cuotto; Forio; Napoli; Campania; 80075; Italy,hotel,cameraforensics
https://r-cf.bstatic.com/images/hotel/max1280x900/138/138477127.jpg,40.72224,13.873737,,,,,,Italy,Montecorvo; Via Bocca; Cuotto; Forio; Napoli; Campania; 80075; Italy,hotel,cameraforensics
https://live.staticflickr.com/5715/23765112520_5196762abd_o.jpg,40.83194444444445,14.23333333333333,,,,,,Italy,Pista Ciclabile Napoli; Chiaia; Municipalità 1; Naples; Napoli; Campania; 80122; Italy,hotel,cameraforensics
https://live.staticflickr.com/615/23270141600_7dfa92d554_o.jpg,40.83680277777777,14.24004444444444,,,,,,Italy,Palazzo Spinelli; Largo Luisa Conte; San Ferdinando; Municipalità 1; Naples; Napoli; Campania; Italy,hotel,cameraforensics
https://live.staticflickr.com/4536/38846684512_ec84326cb8_o.jpg,40.837119444444454,14.230436111111107,,,,,,Italy,Rampa privata di Parco Grifeo; Chiaia; Municipalità 1; Naples; Napoli; Campania; 80127; Italy,hotel,cameraforensics
https://live.staticflickr.com/5581/14985210458_f9d4001b6c_o.jpg,40.83908888888889,14.23010555555556,,,,,,Italy,Villa Floridiana; Ingresso Floridiana - Falcone; Vomero; Municipalità 5; Naples; Napoli; Campania; 80127; Italy,hotel,cameraforensics
https://q-cf.bstatic.com/images/hotel/max1280x900/233/233409860.jpg,40.8378222,14.240260500000002,,,,,,Italy,Viale Nicola Fornelli; San Ferdinando; Municipalità 1; Naples; Napoli; Campania; 80121; Italy,hotel,cameraforensics
https://q-cf.bstatic.com/images/hotel/max1280x900/151/151774005.jpg,40.838955,14.239522000000001,,,,,,Italy,Via Filippo Rega; San Ferdinando; Municipalità 1; Naples; Napoli; Campania; 80121; Italy,hotel,cameraforensics
https://live.staticflickr.com/8394/8686006884_039c45f7fe_o.jpg,40.8315,14.242,,,,,,Italy,Piazza Vittoria; Pista Ciclabile Napoli; Chiaia; Municipalità 1; Naples; Napoli; Campania; 80122; Italy,hotel,cameraforensics
https://live.staticflickr.com/7450/9036506497_8f67f9114e_o.jpg,40.84233333333334,14.2365,,,,,,Italy,Via Francesco Paolo Michetti; Vomero; Municipalità 5; Naples; Napoli; Campania; 80129; Italy,hotel,cameraforensics
https://live.staticflickr.com/8365/8452088980_df90253896_o.jpg,40.83429336547221,14.23128604888889,,,,,,Italy,Garage Morelli; Via Santa Maria in Portico; Chiaia; Municipalità 1; Naples; Napoli; Campania; 80121; Italy,hotel,cameraforensics
https://live.staticflickr.com/4532/37937150314_a2d425a2c1_o.jpg,40.83248611111111,14.23045277777778,,,,,,Italy,Dohrn; Viale Anton Dohrn; Chiaia; Municipalità 1; Naples; Napoli; Campania; 80122; Italy,hotel,cameraforensics
https://live.staticflickr.com/1662/24191679446_fa73c02ca1_o.jpg,43.350477777777776,12.58359166666667,,,,,,Italy,Via Dante; Gubbio; Perugia; Umbria; 06024; Italy,hotel,cameraforensics
https://live.staticflickr.com/4200/34842318891_37d8b94806_o.jpg,43.35238833333333,12.57896166666667,,,,,,Italy,Dulcis in fundo; Corso Garibaldi; Gubbio; Perugia; Umbria; 06024; Italy,hotel,cameraforensics
https://live.staticflickr.com/4244/34586946010_60ffe95e83_o.jpg,43.35238833333333,12.57896166666667,,,,,,Italy,Dulcis in fundo; Corso Garibaldi; Gubbio; Perugia; Umbria; 06024; Italy,hotel,cameraforensics
https://live.staticflickr.com/5244/5287151846_6d448269ff_o.jpg,43.351131,12.584492,,,,,,Italy,Funivia; Via Appennino; Gubbio; Perugia; Umbria; 06024; Italy,hotel,cameraforensics
https://live.staticflickr.com/7288/16791024365_4299b8a854_o.jpg,43.35308666666667,12.57963666666667,,,,,,Italy,cuor di pizza; Via Venti Settembre; Gubbio; Perugia; Umbria; 06024; Italy,hotel,cameraforensics
https://live.staticflickr.com/397/18560660938_2bb22a61e9_o.jpg,43.35269165039055,12.57936668396111,,,,,,Italy,Ascensore pubblico; Via Savelli Della Porta; Gubbio; Perugia; Umbria; 06024; Italy,hotel,cameraforensics
https://live.staticflickr.com/5550/11178382126_4b80ff1556_o.jpg,43.35392777777778,12.57993333333333,,,,,,Italy,Cattedrale dei Santi Mariano e Giacomo; Via Sant'Ubaldo; Gubbio; Perugia; Umbria; 06024; Italy,hotel,cameraforensics
https://live.staticflickr.com/7544/16000364659_6e62b8968d_o.jpg,43.35312269444444,12.57890222222222,,,,,,Italy,Palazzo del Podestà; Via Baldassini; Gubbio; Perugia; Umbria; 06024; Italy,hotel,cameraforensics
https://live.staticflickr.com/4357/37153625462_2a87dd2db7_o.jpg,43.35209722222222,12.57711666666667,,,,,,Italy,Santa Maria dei Laici; Via Camillo Benso Conte di Cavour; Gubbio; Perugia; Umbria; 06024; Italy,hotel,cameraforensics
https://live.staticflickr.com/2851/9919849665_94a65cb9c9_o.jpg,43.35183333333333,12.58483333333333,,,,,,Italy,Balipedio; Strada San Girolamo; Gubbio; Perugia; Umbria; 06024; Italy,hotel,cameraforensics
https://live.staticflickr.com/4394/36412919445_ff8984e4e2_o.jpg,41.90158166666667,12.46641666666667,,,,,,Italy,Ponte Sant'Angelo; Pista ciclabile del Tevere; Rione XIV Borgo; Municipio Roma I; Rome; Roma Capitale; Lazio; 00193; Italy,hotel,cameraforensics
https://live.staticflickr.com/7579/28308078476_19e00be9cf_o.jpg,41.90173333333333,12.466402777777779,,,,,,Italy,Ponte Sant'Angelo; Pista ciclabile del Tevere; Rione XIV Borgo; Municipio Roma I; Rome; Roma Capitale; Lazio; 00193; Italy,hotel,cameraforensics
https://live.staticflickr.com/8510/8470776772_c200579218_o.jpg,41.90151111111111,12.460775,,,,,,Italy,Palazzo della Rovere; Via Scossacavalli; Rione XIV Borgo; Municipio Roma I; Rome; Roma Capitale; Lazio; 00193; Italy,hotel,cameraforensics
https://live.staticflickr.com/2935/14251199695_a35f6ea4cc_o.jpg,45.45959444444443,9.18861666666667,,,,,,Italy,Just Fit 2.0; Via Maddalena; Duomo; Municipio 1; Milan; Lombardy; 20122; Italy,hotel,cameraforensics
https://live.staticflickr.com/473/32632854350_3c3ed0de3b_o.jpg,45.4638638888889,9.18977222222222,,,,,,Italy,Duomo; 1_33051; Duomo; Municipio 1; Milan; Lombardy; 20122; Italy,hotel,cameraforensics
https://live.staticflickr.com/5607/15569047471_6e91982b81_o.jpg,45.464236111111106,9.191144444444447,,,,,,Italy,Milan Cathedral; 1_33051; Duomo; Municipio 1; Milan; Lombardy; 20122; Italy,hotel,cameraforensics
https://live.staticflickr.com/7663/17112291486_8e369716d9_o.jpg,45.464034999999996,9.18962833333333,,,,,,Italy,Monumento a Vittorio Emanuele II; 1_33051; Duomo; Municipio 1; Milan; Lombardy; Italy,hotel,cameraforensics
https://live.staticflickr.com/5606/15645086280_fb75c8cc71_o.jpg,45.46423833333333,9.18933666666667,,,,,,Italy,Monumento a Vittorio Emanuele II; 1_33051; Duomo; Municipio 1; Milan; Lombardy; Italy,hotel,cameraforensics
https://live.staticflickr.com/8801/17884808082_dec30249a1_o.jpg,45.4580888888889,9.19591388888889,,,,,,Italy,Policlinico di Milano; 4036_37858; Guastalla; Municipio 1; Milan; Lombardy; 20135; Italy,hotel,cameraforensics
https://live.staticflickr.com/5763/23542642939_099f6db0ae_o.jpg,40.6325,14.600277777777775,,,,,,Italy,Chiosco Bar S. Francesco; Lungomare dei Cavalieri di San Giovanni di Gelusalemme; Pogerola; Amalfi; Salerno; Campania; 84011; Italy,hotel,cameraforensics
https://live.staticflickr.com/4194/33403877524_f607d28279_o.jpg,40.63285063888889,14.598827361111107,,,,,,Italy,5; Lungomare dei Cavalieri di San Giovanni di Gelusalemme; Pogerola; Amalfi; Salerno; Campania; 84011; Italy,hotel,cameraforensics
https://live.staticflickr.com/3936/33317121232_f561b4e608_o.jpg,40.63356666666667,14.599491666666667,,,,,,Italy,La Bussola; Via Matteo Camera; Pogerola; Amalfi; Salerno; Campania; 84011; Italy,hotel,cameraforensics
https://live.staticflickr.com/1502/25046675295_916d827b7f_o.jpg,40.63295277777778,14.59861666666667,,,,,,Italy,5; Lungomare dei Cavalieri di San Giovanni di Gelusalemme; Pogerola; Amalfi; Salerno; Campania; 84011; Italy,hotel,cameraforensics
https://live.staticflickr.com/8244/8504206460_f7cb5db30a_o.jpg,40.63105277777778,14.5999,,,,,,Italy,Amalfi Harbour; Lungomare dei Cavalieri di San Giovanni di Gelusalemme; Pogerola; Amalfi; Salerno; Campania; 84011; Italy,hotel,cameraforensics
https://live.staticflickr.com/5609/15505882376_178386bef6_o.jpg,40.63193333333334,14.600633333333333,,,,,,Italy,Amalfi; Lungomare dei Cavalieri di San Giovanni di Gelusalemme; Pogerola; Amalfi; Salerno; Campania; 84011; Italy,hotel,cameraforensics
https://live.staticflickr.com/5441/9039308399_fa6a2c89b3_o.jpg,45.801497222222224,9.0946,,,,,,Italy,10; Via Valleggio; Garzola; Civiglio; Como; Lombardy; 22100; Italy,hotel,cameraforensics
https://live.staticflickr.com/7213/7346153654_b5b59a25cf_o.jpg,45.7967138888889,9.092025,,,,,,Italy,Via Carlo De Cristoforis; Caserme; Como; Lombardy; 22100; Italy,hotel,cameraforensics
https://live.staticflickr.com/1598/25573871272_bc036baa58_o.jpg,45.80175277777778,9.086427777777779,,,,,,Italy,Via Milano (Santa Chiara); Via Milano; Sant'Abbondio; San Rocco; Como; Lombardy; 22100; Italy,hotel,cameraforensics
https://live.staticflickr.com/8555/30256355835_5172d9ba4a_o.jpg,45.80241388888889,9.08580833333333,,,,,,Italy,23; Viale Franklin Delano Roosevelt; Sant'Abbondio; San Bartolomeo; Como; Lombardy; 22100; Italy,hotel,cameraforensics
https://live.staticflickr.com/4171/34223655766_4b2afcce61_o.jpg,45.808611111111105,9.089166666666667,,,,,,Italy,Via Giorgio Perlasca; San Vitale; San Martino; Como; Lombardy; 22100; Italy,hotel,cameraforensics
https://r-cf.bstatic.com/images/hotel/max1280x900/196/196442016.jpg,45.805532299999996,9.08571247,,,,,,Italy,Piazza Vittoria - Via Milano; Via Milano; San Vitale; San Bartolomeo; Como; Lombardy; 22100; Italy,hotel,cameraforensics
https://live.staticflickr.com/7332/9500068437_0310821bcd_o.jpg,45.801497222222224,9.0946,,,,,,Italy,10; Via Valleggio; Garzola; Civiglio; Como; Lombardy; 22100; Italy,hotel,cameraforensics
https://live.staticflickr.com/8449/8069854049_52139e17b3_o.jpg,45.79655833333333,9.091769444444449,,,,,,Italy,Sala del Regno; 13; Via Gabriele Castellini; Caserme; Como; Lombardy; 22100; Italy,hotel,cameraforensics
https://live.staticflickr.com/8320/8069800474_299a0b9551_o.jpg,45.79655833333333,9.091769444444449,,,,,,Italy,Sala del Regno; 13; Via Gabriele Castellini; Caserme; Como; Lombardy; 22100; Italy,hotel,cameraforensics
https://q-cf.bstatic.com/images/hotel/max1280x900/179/179055518.jpg,40.73451897,13.95377666,,,,,,Italy,Hotel Europa; Via Antonio Sogliuzzo; Ischia; Napoli; Campania; 80077; Italy,hotel,cameraforensics
https://q-cf.bstatic.com/images/hotel/max1280x900/215/215031892.jpg,40.7382141,13.946497,,,,,,Italy,Via Casciaro; Ischia; Napoli; Campania; 80077; Italy,hotel,cameraforensics
