url,latitude,longitude,date,height,width,media,copyRight,country,address,keyword,source
https://live.staticflickr.com/1373/4608734676_cfe67cbc33_o.jpg,43.046744,141.353608,,,,,,Japan,カツラ; 中島橋; 中島公園; Chuo; Sapporo; Ishikari Subprefecture; Hokkaido Prefecture; 064-8561; Japan,hotel,cameraforensics
https://q-cf.bstatic.com/images/hotel/max1280x900/220/220623116.jpg,43.04890570000001,141.3535105,,,,,,Japan,7-Eleven; 4; Kikusui asahiyamakoen dori; 南9条西4; Chuo; Sapporo; Ishikari Subprefecture; Hokkaido Prefecture; 064-0809; Japan,hotel,cameraforensics
https://q-cf.bstatic.com/images/hotel/max1280x900/165/165469787.jpg,43.04890570000001,141.3535105,,,,,,Japan,7-Eleven; 4; Kikusui asahiyamakoen dori; 南9条西4; Chuo; Sapporo; Ishikari Subprefecture; Hokkaido Prefecture; 064-0809; Japan,hotel,cameraforensics
https://live.staticflickr.com/6057/6219858292_cdc8955fb8_o.jpg,43.0457,141.3496,,,,,,Japan,南11条西7; Chuo; Sapporo; Ishikari Subprefecture; Hokkaido Prefecture; 064-8561; Japan,hotel,cameraforensics
https://live.staticflickr.com/732/23279499794_007baccb50_o.jpg,43.046475,141.35415555555556,,,,,,Japan,中島公園; Chuo; Sapporo; Ishikari Subprefecture; Hokkaido Prefecture; 064-0931; Japan,hotel,cameraforensics
https://live.staticflickr.com/8209/8276460857_4238e2081b_o.jpg,43.043172222222225,141.3545,,,,,,Japan,札幌市 中島体育センター; 5; 中島公園 自由広場; 中島公園; Chuo; Sapporo; Ishikari Subprefecture; Hokkaido Prefecture; 064-0931; Japan,hotel,cameraforensics
https://q-cf.bstatic.com/images/hotel/max1280x900/206/206147586.jpg,43.03664256,141.35952348,,,,,,Japan,中の島2条2; Toyohira Ward; Sapporo; Ishikari Subprefecture; Hokkaido Prefecture; 062-0922; Japan,hotel,cameraforensics
https://q-cf.bstatic.com/images/hotel/max1280x900/204/204835463.jpg,43.0376349,141.3587996,,,,,,Japan,中の島2条2; Toyohira Ward; Sapporo; Ishikari Subprefecture; Hokkaido Prefecture; 062-8602; Japan,hotel,cameraforensics
https://r-cf.bstatic.com/images/hotel/max1280x900/217/217498104.jpg,43.04299738,141.34703026,,,,,,Japan,138-011655; 行啓通商店街; 南14条西9; Chuo; Sapporo; Ishikari Subprefecture; Hokkaido Prefecture; 064-0915; Japan,hotel,cameraforensics
https://r-cf.bstatic.com/images/hotel/max1280x900/201/201541149.jpg,43.0489081,141.35349130000003,,,,,,Japan,7-Eleven; 4; Kikusui asahiyamakoen dori; 南9条西4; Chuo; Sapporo; Ishikari Subprefecture; Hokkaido Prefecture; 064-0809; Japan,hotel,cameraforensics
https://live.staticflickr.com/5338/7044975813_80242d4d5d_o.jpg,43.03683333333333,141.47233333333332,,,,,,Japan,札幌市青少年科学館; Nango dori; 厚別中央1条5; Atsubetsu Ward; Sapporo; Ishikari Subprefecture; Hokkaido Prefecture; 004-0052; Japan,hotel,cameraforensics
https://live.staticflickr.com/4306/36068188262_2dec0e5c0c_o.jpg,43.04048416666667,141.4731725,,,,,,Japan,厚別中央2条5; Atsubetsu Ward; Sapporo; Ishikari Subprefecture; Hokkaido Prefecture; 004-0051; Japan,hotel,cameraforensics
https://live.staticflickr.com/4326/36119739212_f346a5a603_o.jpg,43.03877222222222,141.47233055555554,,,,,,Japan,Shin-Sapporo; 新札幌バスターミナル; 厚別中央2条5; Atsubetsu Ward; Sapporo; Ishikari Subprefecture; Hokkaido Prefecture; 004-0051; Japan,hotel,cameraforensics
https://live.staticflickr.com/4028/4690678331_7ea2c1025a_o.jpg,43.04116666666667,141.47299999999996,,,,,,Japan,太陽生命新札幌ビル; Sapporo Ebetsu-dori; 大谷地東1; 厚別中央3条6; Atsubetsu Ward; Sapporo; Ishikari Subprefecture; Hokkaido Prefecture; 004-0042; Japan,hotel,cameraforensics
https://live.staticflickr.com/7096/7384589200_1fddf6075c_o.jpg,43.0396,141.4732,,,,,,Japan,厚別中央2条5; Atsubetsu Ward; Sapporo; Ishikari Subprefecture; Hokkaido Prefecture; 004-0051; Japan,hotel,cameraforensics
https://live.staticflickr.com/7096/7185633699_e28fdde5d2_o.jpg,43.0399,141.4735,,,,,,Japan,Hotel emisia SAPPORO; Atsubetsuaoba dori; 厚別中央2条5; Atsubetsu Ward; Sapporo; Ishikari Subprefecture; Hokkaido Prefecture; 004-0054; Japan,hotel,cameraforensics
https://live.staticflickr.com/2451/3847790044_e3fc9d7460_o.jpg,43.03783333333333,141.47316666666666,,,,,,Japan,厚別中央2条5; Atsubetsu Ward; Sapporo; Ishikari Subprefecture; Hokkaido Prefecture; 004-0051; Japan,hotel,cameraforensics
https://live.staticflickr.com/5465/9480451230_f11cf27ef9_o.jpg,43.03683333333333,141.47233333333332,,,,,,Japan,札幌市青少年科学館; Nango dori; 厚別中央1条5; Atsubetsu Ward; Sapporo; Ishikari Subprefecture; Hokkaido Prefecture; 004-0052; Japan,hotel,cameraforensics
https://live.staticflickr.com/3778/13101758695_1d725b3d81_o.jpg,43.04615783333333,141.47386169444445,,,,,,Japan,Atsubetsuhigashi dori; Atsubetsu Ward; Sapporo; Ishikari Subprefecture; Hokkaido Prefecture; 004-0054; Japan,hotel,cameraforensics
https://live.staticflickr.com/5276/7384622026_a5f3794d59_o.jpg,43.04,141.4735,,,,,,Japan,Hotel emisia SAPPORO; Atsubetsuaoba dori; 厚別中央2条5; Atsubetsu Ward; Sapporo; Ishikari Subprefecture; Hokkaido Prefecture; 004-0054; Japan,hotel,cameraforensics
https://live.staticflickr.com/274/31903046312_4b427f29ec_o.jpg,43.06091388888889,141.35240277777774,,,,,,Japan,Odori Station 6; Odori; 大通西3; Chuo; Sapporo; Ishikari Subprefecture; Hokkaido Prefecture; 060-8611; Japan,hotel,cameraforensics
https://live.staticflickr.com/419/32737478765_bf2c577732_o.jpg,43.06115833333333,141.35551,,,,,,Japan,希望; Odori; Odori nishi 1; Chuo; Sapporo; Ishikari Subprefecture; Hokkaido Prefecture; 060-8611; Japan,hotel,cameraforensics
https://live.staticflickr.com/5580/29982865933_cfd6e9120e_o.jpg,43.0673,141.3523722222222,,,,,,Japan,Esta; Middle Lane; Kita 5 Jōnishi 2 Chome; Chuo; Sapporo; Ishikari Subprefecture; Hokkaido Prefecture; 060-0005; Japan,hotel,cameraforensics
https://live.staticflickr.com/1481/25101682341_079642d363_o.jpg,43.06209166666667,141.349975,,,,,,Japan,Minami 1jo nishi 4; Chuo; Sapporo; Ishikari Subprefecture; Hokkaido Prefecture; 064-8509; Japan,hotel,cameraforensics
https://live.staticflickr.com/5568/31510584392_4ed06180a3_o.jpg,43.06027777777778,141.35111111111112,,,,,,Japan,Odori nishi 4; Odori; 大通西4; Chuo; Sapporo; Ishikari Subprefecture; Hokkaido Prefecture; 060-0042; Japan,hotel,cameraforensics
https://live.staticflickr.com/5441/29881051944_57b43cb8cd_o.jpg,43.063726,141.349735,,,,,,Japan,Minami 1jo nishi 4; Chuo; Sapporo; Ishikari Subprefecture; Hokkaido Prefecture; 064-8509; Japan,hotel,cameraforensics
https://live.staticflickr.com/8858/17934567561_8d4bbf77ce_o.jpg,43.069169444444455,141.3499611111111,,,,,,Japan,北6条西4; Kita Ward; Sapporo; Ishikari Subprefecture; Hokkaido Prefecture; 060-0806; Japan,hotel,cameraforensics
https://live.staticflickr.com/823/41299065154_827ddce0af_o.jpg,43.06084722222222,141.35490555555555,,,,,,Japan,Munich Christmas Venue; Aurora Town Underground Footpath; Odori nishi 2; Chuo; Sapporo; Ishikari Subprefecture; Hokkaido Prefecture; 060-8611; Japan,hotel,cameraforensics
https://live.staticflickr.com/1614/24429183991_d09fa6e4d3_o.jpg,43.0661,141.35054444444444,,,,,,Japan,Sapporo International Building; Sapporo Underground Street; Kita 4jo nishi 4; Chuo; Sapporo; Ishikari Subprefecture; Hokkaido Prefecture; 060-8502; Japan,hotel,cameraforensics
https://live.staticflickr.com/1525/25886289522_e30fc2fa6c_o.jpg,43.06729166666667,141.35040277777782,,,,,,Japan,Apia Dome; Sapporo Underground Street; 大通西4; Chuo; Sapporo; Ishikari Subprefecture; Hokkaido Prefecture; 060-8502; Japan,hotel,cameraforensics
https://live.staticflickr.com/4407/36440805195_e6809fda81_o.jpg,35.17218,136.908425,,,,,,Japan,Nagoya TV Tower; 久屋大通; 錦三丁目; Naka Ward; Nagoya; Aichi Prefecture; 460-0005; Japan,hotel,cameraforensics
https://live.staticflickr.com/3799/19797296571_02cf0a97ab_o.jpg,35.17126944444444,136.90951666666666,,,,,,Japan,水の宇宙船; 久屋大通; 新栄町; Naka Ward; Nagoya; Aichi Prefecture; 460-0005; Japan,hotel,cameraforensics
https://live.staticflickr.com/4383/36439176125_870f23121b_o.jpg,35.17122166666667,136.90992,,,,,,Japan,Oasis 21; 1; ソラマチ; Higashi Ward; Nagoya; Aichi Prefecture; Japan,hotel,cameraforensics
https://live.staticflickr.com/4339/36439702955_da6c52478b_o.jpg,35.17098,136.90958833333335,,,,,,Japan,Oasis 21; 1; ソラマチ; Higashi Ward; Nagoya; Aichi Prefecture; Japan,hotel,cameraforensics
https://live.staticflickr.com/4361/36270829962_a4f8ee5dfa_o.jpg,35.17122166666667,136.90992,,,,,,Japan,Oasis 21; 1; ソラマチ; Higashi Ward; Nagoya; Aichi Prefecture; Japan,hotel,cameraforensics
https://live.staticflickr.com/3703/12867392905_1d809b5349_o.jpg,35.17083333333333,136.91716666666667,,,,,,Japan,東桜一丁目; Higashi Ward; Nagoya; Aichi Prefecture; 460-0004; Japan,hotel,cameraforensics
https://live.staticflickr.com/1616/24961948140_70de880407_o.jpg,35.16273611111111,136.91038611111108,,,,,,Japan,栄五丁目; Naka Ward; Nagoya; Aichi Prefecture; 460-8787; Japan,hotel,cameraforensics
https://live.staticflickr.com/3845/14390745659_0beedf3a40_o.jpg,35.16861666666667,136.90588333333332,,,,,,Japan,メルサ; Ise-chō-dōri; 栄三丁目; Naka Ward; Nagoya; Aichi Prefecture; 460-8688; Japan,hotel,cameraforensics
https://live.staticflickr.com/2876/9878715895_97a650432d_o.jpg,35.17018055555555,136.90829444444444,,,,,,Japan,Nishiki dōri; 錦三丁目; Naka Ward; Nagoya; Aichi Prefecture; 460-008; Japan,hotel,cameraforensics
https://live.staticflickr.com/7372/9830939364_04df3064a1_o.jpg,35.16766666666667,136.909,,,,,,Japan,栄四丁目; Naka Ward; Nagoya; Aichi Prefecture; 460-008; Japan,hotel,cameraforensics
https://live.staticflickr.com/365/19913067821_aa42e5fefd_o.jpg,42.8465805,140.68389891666666,,,,,,Japan,Hilton Niseko Village; Niseko Panorama Line; Higashiyama; Niseko; Abuta County; Shiribeshi Subprefecture; Hokkaido Prefecture; 048-1592; Japan,hotel,cameraforensics
https://live.staticflickr.com/1499/25511276075_8e53966b11_o.jpg,42.84693055555555,140.67599444444446,,,,,,Japan,The Green Leaf Hotel; Niseko Panorama Line; Higashiyama; Niseko; Abuta County; Shiribeshi Subprefecture; Hokkaido Prefecture; 048-1592; Japan,hotel,cameraforensics
https://live.staticflickr.com/4338/36777863112_0c52590d32_o.jpg,42.845513694444435,140.68390069444445,,,,,,Japan,Yang Shu Ten; Niseko Panorama Line; Higashiyama; Niseko; Abuta County; Shiribeshi Subprefecture; Hokkaido Prefecture; 048-1592; Japan,hotel,cameraforensics
https://live.staticflickr.com/4352/36949125375_b1eae8accd_o.jpg,42.84582069444443,140.68320569444444,,,,,,Japan,Yang Shu Ten; Niseko Panorama Line; Higashiyama; Niseko; Abuta County; Shiribeshi Subprefecture; Hokkaido Prefecture; 048-1592; Japan,hotel,cameraforensics
https://live.staticflickr.com/7184/6922792529_10b2e480b6_o.jpg,42.84764444444443,140.68497222222223,,,,,,Japan,Niseko; Abuta County; Shiribeshi Subprefecture; Hokkaido Prefecture; 048-1592; Japan,hotel,cameraforensics
https://live.staticflickr.com/4427/36949140565_382ba3654e_o.jpg,42.84556819444445,140.68373488888892,,,,,,Japan,Yang Shu Ten; Niseko Panorama Line; Higashiyama; Niseko; Abuta County; Shiribeshi Subprefecture; Hokkaido Prefecture; 048-1592; Japan,hotel,cameraforensics
https://live.staticflickr.com/4406/36777860532_a29e51f161_o.jpg,42.84577127777778,140.6831343888889,,,,,,Japan,Yang Shu Ten; Niseko Panorama Line; Higashiyama; Niseko; Abuta County; Shiribeshi Subprefecture; Hokkaido Prefecture; 048-1592; Japan,hotel,cameraforensics
https://q-cf.bstatic.com/images/hotel/max1280x900/200/200293488.jpg,42.84657533,140.68466306,,,,,,Japan,Hilton Niseko Village; Niseko Panorama Line; Higashiyama; Niseko; Abuta County; Shiribeshi Subprefecture; Hokkaido Prefecture; 048-1592; Japan,hotel,cameraforensics
https://live.staticflickr.com/5749/22733406404_aa6619463b_o.jpg,42.846825694444455,140.68464588888892,,,,,,Japan,Hilton Niseko Village; Niseko Panorama Line; Higashiyama; Niseko; Abuta County; Shiribeshi Subprefecture; Hokkaido Prefecture; 048-1592; Japan,hotel,cameraforensics
https://r-cf.bstatic.com/images/hotel/max1280x900/408/40814600.jpg,42.84573391,140.67702949,,,,,,Japan,Kasara Townhouses; Niseko Panorama Line; Higashiyama; Niseko; Abuta County; Shiribeshi Subprefecture; Hokkaido Prefecture; 048-1592; Japan,hotel,cameraforensics
https://live.staticflickr.com/2869/32336129474_2e7ce96d02_o.jpg,35.10024722222221,139.07891944444444,,,,,,Japan,Lawson; national route 135; Atami; Shizuoka Prefecture; 413-0012; Japan,hotel,cameraforensics
https://live.staticflickr.com/7310/11024730546_b3f20c04e8_o.jpg,35.09633333333333,139.0765,,,,,,Japan,Lovers’ Sacred Grounds; national route 135; Atami; Shizuoka Prefecture; 413-0013; Japan,hotel,cameraforensics
https://live.staticflickr.com/8121/29713032062_04deb7d46b_o.jpg,35.0975,139.07611166666666,,,,,,Japan,Atami; Shizuoka Prefecture; 413-0012; Japan,hotel,cameraforensics
https://live.staticflickr.com/305/32520574030_425ab72952_o.jpg,35.09357,139.074465,,,,,,Japan,Atami; Shizuoka Prefecture; 413-0014; Japan,hotel,cameraforensics
http://static.panoramio.com/photos/original/33578690.jpg,35.10300277777777,139.07767222222222,,,,,,Japan,LUSCA; 熱海停車場線; Atami; Shizuoka Prefecture; 413-0005; Japan,hotel,cameraforensics
https://live.staticflickr.com/8584/15857226242_44c6e287d1_o.jpg,35.09301098333334,139.07105598333334,,,,,,Japan,起雲閣前; 旭橋; Atami; Shizuoka Prefecture; 413-0021; Japan,hotel,cameraforensics
https://live.staticflickr.com/1585/25252978834_23a161e0d7_o.jpg,35.09754333333333,139.067095,,,,,,Japan,Atami; Shizuoka Prefecture; 413-0034; Japan,hotel,cameraforensics
https://live.staticflickr.com/3769/9598168088_39833fcec6_o.jpg,35.10216666666667,139.07666666666665,,,,,,Japan,熱海駅前郵便局; 平和通り名店街; Atami; Shizuoka Prefecture; 413-0011; Japan,hotel,cameraforensics
https://live.staticflickr.com/388/18752338812_a92867a7e7_o.jpg,35.091590000000004,139.074905,,,,,,Japan,Atami; Shizuoka Prefecture; 413-0014; Japan,hotel,cameraforensics
https://live.staticflickr.com/977/42151174541_2e87169ed9_o.jpg,35.09422333333333,139.07516,,,,,,Japan,親水公園; national route 135; Atami; Shizuoka Prefecture; 413-0014; Japan,hotel,cameraforensics
https://live.staticflickr.com/7450/11252829165_4968219d25_o.jpg,35.68885555555556,139.700075,,,,,,Japan,Eggslut; Koshu-kaido Avenue; Nishi-Shinjuku 1-chome; Shinjuku; Tokyo; 151-8580; Japan,hotel,cameraforensics
https://live.staticflickr.com/7300/11253118186_d479f6e032_o.jpg,35.6864,139.7007,,,,,,Japan,Odakyu Southern Tower; 四谷角筈線; Nishi-Shinjuku 1-chome; Shibuya; Tokyo; 151-8583; Japan,hotel,cameraforensics
https://live.staticflickr.com/7681/26304469943_1dd42bf18d_o.jpg,35.690552777777775,139.69988888888892,,,,,,Japan,Shinjuku; Koshu-kaido Avenue; Nishi-Shinjuku 1-chome; Shinjuku; Tokyo; 151-8580; Japan,hotel,cameraforensics
https://live.staticflickr.com/4326/35429822354_77b379bc5d_o.jpg,35.692294444444435,139.70204166666667,,,,,,Japan,新宿22; MOA 4th street; Kabukicho; Shinjuku; Tokyo; 160-8484; Japan,hotel,cameraforensics
https://live.staticflickr.com/7613/17026592561_d382912616_o.jpg,35.68524166666667,139.70852777777782,,,,,,Japan,Shinjuku Gyoen National Garden; 新宿区内藤町１１; Koshu-kaido Avenue; Yotsuya 4-chome; Shinjuku; Tokyo; 162-0067; Japan,hotel,cameraforensics
https://live.staticflickr.com/637/31260625673_38316aa5ac_o.jpg,35.689902777777775,139.700225,,,,,,Japan,Shinjuku; Koshu-kaido Avenue; Nishi-Shinjuku 1-chome; Shinjuku; Tokyo; 151-8580; Japan,hotel,cameraforensics
https://live.staticflickr.com/8513/29339317196_63179a3d08_o.jpg,35.68138888888889,139.70591666666667,,,,,,Japan,渋谷区千駄ヶ谷出張所; Route 4 Shinjuku Line; Kasumigaokamachi; Shibuya; Tokyo; 160-0015; Japan,hotel,cameraforensics
https://live.staticflickr.com/7709/26845578273_1b924fdf1b_o.jpg,35.688611111111115,139.70777777777778,,,,,,Japan,Shinjuku Gyoen National Garden; 新宿区内藤町１１; Koshu-kaido Avenue; Yotsuya 4-chome; Shinjuku; Tokyo; 162-0067; Japan,hotel,cameraforensics
https://live.staticflickr.com/1634/24792765710_2d20365ffe_o.jpg,35.691344444444454,139.69836388888888,,,,,,Japan,東京都道新宿副都心四号線; Nishi-Shinjuku 1-chome; Shinjuku; Tokyo; 160-8001; Japan,hotel,cameraforensics
https://live.staticflickr.com/1644/25155149506_37f1a28528_o.jpg,35.69044166666666,139.70010277777777,,,,,,Japan,Shinjuku; Koshu-kaido Avenue; Nishi-Shinjuku 1-chome; Shinjuku; Tokyo; 151-8580; Japan,hotel,cameraforensics
https://live.staticflickr.com/1446/24634008319_ca2ee016b1_o.jpg,26.531734000000004,127.93383100000001,,,,,,Japan,Okinawa Marriott Resort & Spa; 1490-1; Kise; Nago; Okinawa Prefecture; 905-0026; Japan,hotel,cameraforensics
https://q-cf.bstatic.com/images/hotel/max1280x900/135/13503927.jpg,26.52964203,127.93369889,,,,,,Japan,Kise; Nago; Okinawa Prefecture; 905-8540; Japan,hotel,cameraforensics
https://q-cf.bstatic.com/images/hotel/max1280x900/172/172578254.jpg,26.52621029,127.92982712,,,,,,Japan,Kariyushi Beach Resort Ocean Spa; National Highway Route 58; Onna; Kunigami; Okinawa Prefecture; 904-0401; Japan,hotel,cameraforensics
https://r-cf.bstatic.com/images/hotel/max1280x900/175/175492543.jpg,26.53056729,127.93017165,,,,,,Japan,National Highway Route 58; Onna; Kunigami; Okinawa Prefecture; 905-0026; Japan,hotel,cameraforensics
https://live.staticflickr.com/7575/27708679785_8397741f3d_o.jpg,26.52999444444444,127.93366944444445,,,,,,Japan,Okinawa Marriott Resort & Spa; 1490-1; Kise; Nago; Okinawa Prefecture; 905-0026; Japan,hotel,cameraforensics
https://live.staticflickr.com/3883/14569717162_1a7a4d0b17_o.jpg,26.52835,127.93948333333331,,,,,,Japan,Kise; Nago; Okinawa Prefecture; 905-8540; Japan,hotel,cameraforensics
https://live.staticflickr.com/8525/8605828026_8cd9a81d02_o.jpg,26.526961100000005,127.92935,,,,,,Japan,Onna; Kunigami; Okinawa Prefecture; 905-0026; Japan,hotel,cameraforensics
https://live.staticflickr.com/1520/24907974281_f04a28a7f2_o.jpg,26.530216999999997,127.933856,,,,,,Japan,Okinawa Marriott Resort & Spa; 1490-1; Kise; Nago; Okinawa Prefecture; 905-0026; Japan,hotel,cameraforensics
https://live.staticflickr.com/65535/48886329782_65f37650f1_o.jpg,26.53040666666667,127.93312666666668,,,,,,Japan,Okinawa Marriott Resort & Spa; 1490-1; Kise; Nago; Okinawa Prefecture; 905-0026; Japan,hotel,cameraforensics
https://q-cf.bstatic.com/images/hotel/max1280x900/156/15698840.jpg,26.52621029,127.92982712,,,,,,Japan,Kariyushi Beach Resort Ocean Spa; National Highway Route 58; Onna; Kunigami; Okinawa Prefecture; 904-0401; Japan,hotel,cameraforensics
https://live.staticflickr.com/509/19914244521_c2b8c61509_o.jpg,35.43998166666667,139.36515833333334,,,,,,Japan,厚木MYLOAD EAST; 厚木なかちょう通り; Izumichō; Atsugi; Kanagawa Prefecture; 〒243-0018; Japan,hotel,cameraforensics
https://live.staticflickr.com/7350/27494528672_20890065eb_o.jpg,35.441875,139.36627222222222,,,,,,Japan,AEON; 厚木サンパーク; Izumichō; Atsugi; Kanagawa Prefecture; Japan,hotel,cameraforensics
https://live.staticflickr.com/1596/25604717071_ba09dedf9e_o.jpg,35.4493,139.36251944444444,,,,,,Japan,元町; Atsugi; Kanagawa Prefecture; 243-8511; Japan,hotel,cameraforensics
https://live.staticflickr.com/863/41610482032_b7b3bd334a_o.jpg,35.444055,139.36261833333333,,,,,,Japan,石のかたち—コスモス—; 市役所中央公園通り; 寿町; Atsugi; Kanagawa Prefecture; 243-8511; Japan,hotel,cameraforensics
https://live.staticflickr.com/65535/40914408743_05c339ab1d_o.jpg,35.44381794410278,139.37088657190554,,,,,,Japan,相模大橋; Kawaraguchi 1; Satsukichō; Ebina; Kanagawa Prefecture; 243-0013; Japan,hotel,cameraforensics
https://live.staticflickr.com/8186/8081871511_982e3ef614_o.jpg,35.4407,139.3642,,,,,,Japan,Izumichō; Atsugi; Kanagawa Prefecture; 〒243-0018; Japan,hotel,cameraforensics
https://q-cf.bstatic.com/images/hotel/max1280x900/103/103133982.jpg,35.44185314,139.35985297,,,,,,Japan,中町; Atsugi; Kanagawa Prefecture; 243-0018; Japan,hotel,cameraforensics
https://q-cf.bstatic.com/images/hotel/max1280x900/160/160458172.jpg,35.44120841,139.36272304,,,,,,Japan,HOTEL TOHKAI; あつぎ大通り; 中町; Atsugi; Kanagawa Prefecture; 243-0018; Japan,hotel,cameraforensics
https://live.staticflickr.com/4423/36938024345_85067b2597_o.jpg,35.43998333333333,139.36415833333334,,,,,,Japan,Izumichō; Atsugi; Kanagawa Prefecture; 〒243-0018; Japan,hotel,cameraforensics
https://live.staticflickr.com/3866/14644686907_f49ef669c1_o.jpg,35.449306388888886,139.36795,,,,,,Japan,厚木テニスコート; あつぎふるさと散歩道; 厚木; Atsugi; Kanagawa Prefecture; 243-8511; Japan,hotel,cameraforensics
https://live.staticflickr.com/748/30791359314_6b7bc7d031_o.jpg,35.657002777777784,139.74842777777778,,,,,,Japan,Zojo-ji; Iwaida Dori; Azabudai 2-chome; Higashi-Azabu 1-chome; Azabu; Minato; Tokyo; 105-0011; Japan,hotel,cameraforensics
https://live.staticflickr.com/4293/35143766893_3cd107cc4f_o.jpg,35.65452222222222,139.74848888888894,,,,,,Japan,Shiba Toshogu; 環状三号線; Azabudai 2-chome; Shiba 3-chome; Azabu; Minato; Tokyo; 105-8582; Japan,hotel,cameraforensics
https://live.staticflickr.com/4144/4846439870_6d632d4493_o.jpg,35.653,139.745,,,,,,Japan,Mita Kokusai Building; Sakurada-dori; Azabudai 2-chome; Shiba 3-chome; Azabu; Minato; Tokyo; 108-0073; Japan,hotel,cameraforensics
https://live.staticflickr.com/3740/8787396790_238bc1035b_o.jpg,35.657577777777774,139.7503,,,,,,Japan,Kumano Shrine; Hibiya-dori; Azabudai 2-chome; Shiba 3-chome; Azabu; Minato; Tokyo; 105-0014; Japan,hotel,cameraforensics
https://live.staticflickr.com/5334/8757720487_46a88b0158_o.jpg,35.6555,139.7495,,,,,,Japan,Memorial Peace Flame; Hibiya-dori; Azabudai 2-chome; Shiba 3-chome; Azabu; Minato; Tokyo; 105-0014; Japan,hotel,cameraforensics
https://live.staticflickr.com/4377/36437816055_a9a19a0a97_o.jpg,35.658419444444455,139.74899166666665,,,,,,Japan,Azabudai 2-chome; Shibakoen 4-chome; Azabu; Minato; Tokyo; 105-0011; Japan,hotel,cameraforensics
https://live.staticflickr.com/2899/33866145312_c6ab579ff2_o.jpg,35.65664722222222,139.74572777777777,,,,,,Japan,Tokyo Tower; Iwaida-dori; Azabudai 2-chome; Shibakoen 3-chome; Azabu; Minato; Tokyo; 105-0011; Japan,hotel,cameraforensics
https://live.staticflickr.com/4056/4641050460_bdd292899b_o.jpg,35.6479,139.7418,,,,,,Japan,Dear; Sakurada-dori; Azabu-Juban 4-chome; Mita 5-chome; Azabu; Minato; Tokyo; 1080074; Japan,hotel,cameraforensics
https://live.staticflickr.com/8504/29904180051_7e321be01f_o.jpg,35.65155791666667,139.7561035,,,,,,Japan,港区立障害保健福祉センター; 旧海岸通り; Shibaura 1-chome; Minato; Tokyo; 105-0023; Japan,hotel,cameraforensics
https://live.staticflickr.com/325/31739416502_2102724db0_o.jpg,35.65802777777778,139.74560555555556,,,,,,Japan,Tokyo Tower; Tokyo Tower Street; Azabudai 2-chome; Shibakoen 3-chome; Azabu; Minato; Tokyo; 105-0011; Japan,hotel,cameraforensics
https://live.staticflickr.com/5577/18239513823_f47dcd470a_o.jpg,43.05961111111111,141.34530555555554,,,,,,Japan,Odori nishi 8; Odori; Odori nishi 8; Chuo; Sapporo; Ishikari Subprefecture; Hokkaido Prefecture; 060-0042; Japan,hotel,cameraforensics
https://live.staticflickr.com/8246/8626796752_c7ae1a1f61_o.jpg,43.05916666666667,141.3405,,,,,,Japan,Odori; Odori nishi 7; Chuo; Sapporo; Ishikari Subprefecture; Hokkaido Prefecture; 060-0042; Japan,hotel,cameraforensics
https://live.staticflickr.com/5601/15248357689_0efdb9dbdc_o.jpg,43.0584638888889,141.34945555555555,,,,,,Japan,Aiseikan Building; Fukuzumi soen dori; Minami 1jo nishi 5; Chuo; Sapporo; Ishikari Subprefecture; Hokkaido Prefecture; 060-0061; Japan,hotel,cameraforensics
https://live.staticflickr.com/8011/7383154656_50d36f0190_o.jpg,43.0651,141.3392,,,,,,Japan,大金畜産（株）; kita gozyo teine dori; Kita 5jo nishi 6; Chuo; Sapporo; Ishikari Subprefecture; Hokkaido Prefecture; 060-0004; Japan,hotel,cameraforensics
https://r-cf.bstatic.com/images/hotel/max1280x900/227/227200068.jpg,43.053819299999994,141.3433511,,,,,,Japan,南4条西9; Chuo; Sapporo; Ishikari Subprefecture; Hokkaido Prefecture; 064-0806; Japan,hotel,cameraforensics
https://q-cf.bstatic.com/images/hotel/max1280x900/194/194635264.jpg,43.05844570000001,141.33539209999995,,,,,,Japan,ユニエトワール札幌大通; 26; Fukuzumi soen dori; Kita 1jo nishi 15; Chuo; Sapporo; Ishikari Subprefecture; Hokkaido Prefecture; 060-0042; Japan,hotel,cameraforensics
https://r-cf.bstatic.com/images/hotel/max1280x900/194/194622788.jpg,43.054449,141.3379755,,,,,,Japan,Minami 3jo nishi 18; Chuo; Sapporo; Ishikari Subprefecture; Hokkaido Prefecture; 060-8612; Japan,hotel,cameraforensics
https://r-cf.bstatic.com/images/hotel/max1280x900/217/217411301.jpg,43.05779502,141.34557637,,,,,,Japan,クリスタルタワー; Fukuzumi soen dori; Minami 1jo nishi 8; Chuo; Sapporo; Ishikari Subprefecture; Hokkaido Prefecture; 060-0061; Japan,hotel,cameraforensics
https://r-cf.bstatic.com/images/hotel/max1280x900/235/235332244.jpg,43.055248999999996,141.34378999999996,,,,,,Japan,Minami 3jo nishi 10; Chuo; Sapporo; Ishikari Subprefecture; Hokkaido Prefecture; 060-0061; Japan,hotel,cameraforensics
https://live.staticflickr.com/2889/8789539709_4fe6052a9f_o.jpg,43.06433333333333,141.34783333333334,,,,,,Japan,Kita 2jo nishi 5; Chuo; Sapporo; Ishikari Subprefecture; Hokkaido Prefecture; Japan,hotel,cameraforensics
https://live.staticflickr.com/401/31898754582_99a204dece_o.jpg,42.84990277777778,140.62872222222222,,,,,,Japan,Niseko; Abuta County; Shiribeshi Subprefecture; Hokkaido Prefecture; 048-1511; Japan,hotel,cameraforensics
https://q-cf.bstatic.com/images/hotel/max1280x900/118/118478597.jpg,42.8478902,140.6277986,,,,,,Japan,Niseko Backcountry Lodge; 岩内洞爺線; Niseko; Abuta County; Shiribeshi Subprefecture; Hokkaido Prefecture; 048-1511; Japan,hotel,cameraforensics
https://live.staticflickr.com/745/32046921265_e682bb132e_o.jpg,42.84775833333333,140.62631111111108,,,,,,Japan,Moiwa Lodge; 岩内洞爺線; Niseko; Abuta County; Shiribeshi Subprefecture; Hokkaido Prefecture; 048-1511; Japan,hotel,cameraforensics
https://q-cf.bstatic.com/images/hotel/max1280x900/141/14151739.jpg,42.84759792,140.62438712,,,,,,Japan,Niseko; Abuta County; Shiribeshi Subprefecture; Hokkaido Prefecture; 048-1511; Japan,hotel,cameraforensics
https://q-cf.bstatic.com/images/hotel/max1280x900/604/60466335.jpg,42.84642194,140.6233263,,,,,,Japan,Niseko; Abuta County; Shiribeshi Subprefecture; Hokkaido Prefecture; 048-1511; Japan,hotel,cameraforensics
https://q-cf.bstatic.com/images/hotel/max1280x900/591/59136888.jpg,42.84642194,140.6233263,,,,,,Japan,Niseko; Abuta County; Shiribeshi Subprefecture; Hokkaido Prefecture; 048-1511; Japan,hotel,cameraforensics
https://r-cf.bstatic.com/images/hotel/max1280x900/204/20432732.jpg,42.84126546,140.62327802,,,,,,Japan,旅館千秋館; 岩内洞爺線; Niseko; Abuta County; Shiribeshi Subprefecture; Hokkaido Prefecture; 048-1511; Japan,hotel,cameraforensics
https://live.staticflickr.com/7152/6722764929_05261fe25c_o.jpg,42.84633333333333,140.623,,,,,,Japan,Kanro No Mori; 岩内洞爺線; Niseko; Abuta County; Shiribeshi Subprefecture; Hokkaido Prefecture; 048-1511; Japan,hotel,cameraforensics
https://live.staticflickr.com/8671/16445966729_2e17427110_o.jpg,42.84836666666666,140.6297,,,,,,Japan,Niseko; Abuta County; Shiribeshi Subprefecture; Hokkaido Prefecture; 048-1511; Japan,hotel,cameraforensics
https://r-cf.bstatic.com/images/hotel/max1280x900/213/213111794.jpg,42.84642194,140.6233263,,,,,,Japan,Niseko; Abuta County; Shiribeshi Subprefecture; Hokkaido Prefecture; 048-1511; Japan,hotel,cameraforensics
https://live.staticflickr.com/606/23662033232_566c80bc87_o.jpg,33.08160277777777,129.78569166666668,,,,,,Japan,Marine Terninal; Delftsebrug; Sasebo; Nagasaki Prefecture; 859-3243; Japan,hotel,cameraforensics
https://live.staticflickr.com/3955/15314995457_48ff67a99a_o.jpg,33.084605555555555,129.78678888888888,,,,,,Japan,Huis Ten Bosch; Delftsebrug; Sasebo; Nagasaki Prefecture; 859-3243; Japan,hotel,cameraforensics
https://live.staticflickr.com/3939/15315025610_499c2741a2_o.jpg,33.086269444444454,129.78797777777777,,,,,,Japan,Huis Ten Bosch; Delftsebrug; Sasebo; Nagasaki Prefecture; 859-3243; Japan,hotel,cameraforensics
https://live.staticflickr.com/8404/29166731585_d923f959cc_o.jpg,33.08561666666667,129.78973333333334,,,,,,Japan,Huis Ten Bosch; Delftsebrug; Sasebo; Nagasaki Prefecture; 859-3243; Japan,hotel,cameraforensics
https://live.staticflickr.com/1482/24956475921_dc8f60d690_o.jpg,33.08444166666666,129.78800833333332,,,,,,Japan,Huis Ten Bosch; Delftsebrug; Sasebo; Nagasaki Prefecture; 859-3243; Japan,hotel,cameraforensics
https://live.staticflickr.com/8680/16402413097_82729f19c6_o.jpg,33.08417666666666,129.78882,,,,,,Japan,Huis Ten Bosch; Delftsebrug; Sasebo; Nagasaki Prefecture; 859-3243; Japan,hotel,cameraforensics
https://live.staticflickr.com/7884/46121621675_f037532a98_o.jpg,33.08450277777778,129.78645277777778,,,,,,Japan,Huis Ten Bosch; Delftsebrug; Sasebo; Nagasaki Prefecture; 859-3243; Japan,hotel,cameraforensics
https://live.staticflickr.com/8595/16172443777_1e82291d6b_o.jpg,33.084525,129.786624,,,,,,Japan,Huis Ten Bosch; Delftsebrug; Sasebo; Nagasaki Prefecture; 859-3243; Japan,hotel,cameraforensics
https://live.staticflickr.com/6230/6367659041_abba5c91e0_o.jpg,33.08406527777777,129.78732031944443,,,,,,Japan,Huis Ten Bosch; Delftsebrug; Sasebo; Nagasaki Prefecture; 859-3243; Japan,hotel,cameraforensics
https://live.staticflickr.com/6043/6367506459_a2f96f037d_o.jpg,33.08662748888889,129.789632,,,,,,Japan,Huis Ten Bosch; Delftsebrug; Sasebo; Nagasaki Prefecture; 859-3243; Japan,hotel,cameraforensics
https://live.staticflickr.com/3953/15317427559_853d74172c_o.jpg,34.67051388888889,135.5019388888889,,,,,,Japan,文具店; 三津寺筋; 心斎橋筋二丁目; Chuo; Osaka; Osaka Prefecture; 542-0084; Japan,hotel,cameraforensics
https://live.staticflickr.com/5669/31076968776_363659e22e_o.jpg,34.66938888888889,135.50118888888892,,,,,,Japan,H&M EBISUBASHI MEN'S; Soemoncho; Soemon-Cho; Chuo; Osaka; Osaka Prefecture; 542 0084; Japan,hotel,cameraforensics
https://live.staticflickr.com/7352/27628909671_eb7073f908_o.jpg,34.665377777777785,135.50463888888888,,,,,,Japan,Koirori; 南海通; 千日前二丁目; Chuo; Osaka; Osaka Prefecture; 5420075; Japan,hotel,cameraforensics
https://live.staticflickr.com/1620/24839916502_0947ecd4a9_o.jpg,34.66960277777778,135.50118611111108,,,,,,Japan,Shinsaibashi Gate; 5; Shin Sai Bashi-Suji; Dōtonbori; Chuo; Osaka; Osaka Prefecture; 542-0071; Japan,hotel,cameraforensics
https://live.staticflickr.com/1576/26704236066_6e1d081c40_o.jpg,34.66929166666667,135.503145,,,,,,Japan,びん蛸; Soemoncho; Soemon-Cho; Chuo; Osaka; Osaka Prefecture; 542 0084; Japan,hotel,cameraforensics
https://live.staticflickr.com/4256/35644378631_5bd6d01f7b_o.jpg,34.66889138888889,135.49833805555556,,,,,,Japan,増永ビル; Dotonbori; Minatomachi 1-chome; Chuo; Osaka; Osaka Prefecture; 5420071; Japan,hotel,cameraforensics
https://live.staticflickr.com/3920/33099215262_9666898d1a_o.jpg,34.668347222222216,135.50036666666668,,,,,,Japan,道頓堀橋南詰; Midosuji; 難波一丁目; Chuo; Osaka; Osaka Prefecture; 5420071; Japan,hotel,cameraforensics
https://live.staticflickr.com/739/32242852826_481586a746_o.jpg,34.6632,135.50372222222222,,,,,,Japan,Sennichimae Dogguya-Suji Mall; 難波中二丁目; Naniwa Ward; Osaka; Osaka Prefecture; 5560011; Japan,hotel,cameraforensics
https://live.staticflickr.com/2879/9382992608_146092cf8b_o.jpg,34.67183333333333,135.50033333333334,,,,,,Japan,Midosuji-Suomachi; Suōmachi-dori; 心斎橋筋二丁目; Chuo; Osaka; Osaka Prefecture; 542-0085; Japan,hotel,cameraforensics
https://live.staticflickr.com/7162/14034025453_fb81462d1d_o.jpg,34.66611002777778,135.50166428333333,,,,,,Japan,EDION; Ebisubashi-suji Shopping Street; Namba 3-chome; Chuo; Osaka; Osaka Prefecture; 542-0076; Japan,hotel,cameraforensics
https://live.staticflickr.com/2944/32791126094_f70d1f82cc_o.jpg,37.049543472222226,140.02345758333334,,,,,,Japan,ホテルエピナール那須; 散歩道; 一ツ樅; Nasu; Nasu County; Tochigi Prefecture; 3250397; Japan,hotel,cameraforensics
https://q-cf.bstatic.com/images/hotel/max1280x900/713/71382763.jpg,37.04532752,140.02132692,,,,,,Japan,25那須ゴルフガーデン; Nasu Greenline; 広谷地; Nasu; Nasu County; Tochigi Prefecture; 325-0304; Japan,hotel,cameraforensics
https://live.staticflickr.com/2874/33250110330_f9e95de372_o.jpg,37.049705194444435,140.02385869444444,,,,,,Japan,ホテルエピナール那須; 散歩道; 一ツ樅; Nasu; Nasu County; Tochigi Prefecture; 3250397; Japan,hotel,cameraforensics
https://live.staticflickr.com/2823/33477289862_9751a2af82_o.jpg,37.04993766666666,140.02370413888895,,,,,,Japan,ホテルエピナール那須; 散歩道; 一ツ樅; Nasu; Nasu County; Tochigi Prefecture; 3250397; Japan,hotel,cameraforensics
https://live.staticflickr.com/2892/33477284912_fac4b49d8c_o.jpg,37.04987897222222,140.02393888888892,,,,,,Japan,ホテルエピナール那須; 散歩道; 一ツ樅; Nasu; Nasu County; Tochigi Prefecture; 3250397; Japan,hotel,cameraforensics
https://live.staticflickr.com/2904/33250072160_1dce524f38_o.jpg,37.04979508333334,140.02381858333334,,,,,,Japan,ホテルエピナール那須; 散歩道; 一ツ樅; Nasu; Nasu County; Tochigi Prefecture; 3250397; Japan,hotel,cameraforensics
https://q-cf.bstatic.com/images/hotel/max1280x900/899/89971720.jpg,37.04961147,140.0238204,,,,,,Japan,ホテルエピナール那須; 散歩道; 一ツ樅; Nasu; Nasu County; Tochigi Prefecture; 3250397; Japan,hotel,cameraforensics
https://r-cf.bstatic.com/images/hotel/max1280x900/682/68209462.jpg,37.04961147,140.0238204,,,,,,Japan,ホテルエピナール那須; 散歩道; 一ツ樅; Nasu; Nasu County; Tochigi Prefecture; 3250397; Japan,hotel,cameraforensics
https://live.staticflickr.com/2751/5859321728_36a423041d_o.jpg,37.044833333333344,140.02083333333334,,,,,,Japan,25那須ゴルフガーデン; Nasu Greenline; 広谷地; Nasu; Nasu County; Tochigi Prefecture; 325-0304; Japan,hotel,cameraforensics
https://live.staticflickr.com/2889/33250045170_e4142ce4eb_o.jpg,37.05028713888889,140.02448719444445,,,,,,Japan,ホテルエピナール那須; 散歩道; 一ツ樅; Nasu; Nasu County; Tochigi Prefecture; 3250397; Japan,hotel,cameraforensics
https://live.staticflickr.com/4363/36286354921_6df3839754_o.jpg,34.99811366666667,135.89451738888894,,,,,,Japan,近江大橋; Marunouchicho; Otsu; Shiga Prefecture; 520-0814; Japan,hotel,cameraforensics
https://live.staticflickr.com/3215/2859866476_a719d2ceb0_o.jpg,35.004870000000004,135.88849,,,,,,Japan,びわ湖大津プリンスホテル; なぎさ通り; Nionohama 4-chome; Otsu; Shiga Prefecture; 520-0818; Japan,hotel,cameraforensics
https://live.staticflickr.com/5597/31367730065_fe98dac3be_o.jpg,35.00529833333334,135.891105,,,,,,Japan,Yumihama; Otsu; Shiga Prefecture; 520-0818; Japan,hotel,cameraforensics
https://live.staticflickr.com/1315/1336890487_d926c318e5_o.jpg,35.00436111111111,135.89241666666666,,,,,,Japan,ブラックバス回収ボックス; なぎさ通り; Nionohama 4-chome; Otsu; Shiga Prefecture; 520-0818; Japan,hotel,cameraforensics
https://live.staticflickr.com/3233/2859007829_8fc8bcd116_o.jpg,35.004870000000004,135.88849,,,,,,Japan,びわ湖大津プリンスホテル; なぎさ通り; Nionohama 4-chome; Otsu; Shiga Prefecture; 520-0818; Japan,hotel,cameraforensics
https://live.staticflickr.com/7232/7238010276_f7066bc73f_o.jpg,35.0065,135.88333333333333,,,,,,Japan,ブラックバス回収ボックス; なぎさ通り; Nionohama 3-chome; Otsu; Shiga Prefecture; 520-0806; Japan,hotel,cameraforensics
https://live.staticflickr.com/3172/2855814142_56af72a62c_o.jpg,35.00489,135.88848000000002,,,,,,Japan,びわ湖大津プリンスホテル; なぎさ通り; Nionohama 4-chome; Otsu; Shiga Prefecture; 520-0818; Japan,hotel,cameraforensics
https://live.staticflickr.com/5654/23506625350_b36991c77c_o.jpg,35.00503166666667,135.89084166666666,,,,,,Japan,Yumihama; Otsu; Shiga Prefecture; 520-0818; Japan,hotel,cameraforensics
https://live.staticflickr.com/753/23171383614_b50554dc27_o.jpg,35.00583833333334,135.89012333333332,,,,,,Japan,ブラックバス回収ボックス; なぎさ通り; Nionohama 4-chome; Otsu; Shiga Prefecture; 520-0818; Japan,hotel,cameraforensics
https://live.staticflickr.com/646/23690917872_116c1080f0_o.jpg,35.00597,135.889515,,,,,,Japan,ブラックバス回収ボックス; なぎさ通り; Nionohama 4-chome; Otsu; Shiga Prefecture; 520-0818; Japan,hotel,cameraforensics
https://live.staticflickr.com/1567/24347895374_663250b69b_o.jpg,34.67496388888889,135.498425,,,,,,Japan,南16東; Nagahori-dori; 西心斎橋一丁目; Chuo; Osaka; Osaka Prefecture; 〒542-0081; Japan,hotel,cameraforensics
https://live.staticflickr.com/7356/11474000806_b103793f2e_o.jpg,34.66876111111111,135.49568055555557,,,,,,Japan,Ukiniwa Bridge; Minatomachi Entrance; Minatomachi 1-chome; Naniwa Ward; Osaka; Osaka Prefecture; 〒556-0017; Japan,hotel,cameraforensics
https://live.staticflickr.com/4329/35214823853_7eac7ee292_o.jpg,34.668775,135.5033861111111,,,,,,Japan,Octopus Balls; Dōtonbori; Dotonbori 1; Chuo; Osaka; Osaka Prefecture; 542-0071; Japan,hotel,cameraforensics
https://live.staticflickr.com/3894/14714306402_ac23529f50_o.jpg,34.66471138888889,133.91934638888893,,,,,,Japan,Takashimaya; オペラ通り; 本町; Kita Ward; Okayama; Okayama Prefecture; 700-8520; Japan,hotel,cameraforensics
https://live.staticflickr.com/8576/28675666312_da89f28859_o.jpg,34.66651799943611,133.91848600003445,,,,,,Japan,マツモトキヨシ; 東西連絡通路; 駅前町; Kita Ward; Okayama; Okayama Prefecture; 700-0024; Japan,hotel,cameraforensics
https://live.staticflickr.com/534/19495956701_a6c3608f31_o.jpg,34.66206666666667,133.92363055555555,,,,,,Japan,磨屋町; Kita Ward; Okayama; Okayama Prefecture; 700-8575; Japan,hotel,cameraforensics
https://live.staticflickr.com/5783/30608324886_1b853f703f_o.jpg,34.66447777777778,133.91920555555555,,,,,,Japan,高島屋前; Shiyakusho-suji Avenue; 柳町二丁目; Kita Ward; Okayama; Okayama Prefecture; 700-8634; Japan,hotel,cameraforensics
https://live.staticflickr.com/3698/12867711195_38e5991675_o.jpg,34.66366666666666,133.92083333333332,,,,,,Japan,服部パーキング P1; Kencho Dori; 錦町; Kita Ward; Okayama; Okayama Prefecture; 700-0903; Japan,hotel,cameraforensics
https://live.staticflickr.com/3933/15000309174_f18c7e66c1_o.jpg,34.65856666666667,133.92710833333334,,,,,,Japan,表町三丁目; Kita Ward; Okayama; Okayama Prefecture; 700-0822; Japan,hotel,cameraforensics
https://live.staticflickr.com/606/23290684296_d249daa801_o.jpg,34.662333333333336,133.92716666666666,,,,,,Japan,Cred Okayama; Kencho Dori; 磨屋町; Kita Ward; Okayama; Okayama Prefecture; 700-8799; Japan,hotel,cameraforensics
https://live.staticflickr.com/7229/7155440099_3f37b1a4f4_o.jpg,34.66583333333333,133.91816666666668,,,,,,Japan,マクドナルド; 東西連絡通路; 駅前町; Kita Ward; Okayama; Okayama Prefecture; 700-0024; Japan,hotel,cameraforensics
https://live.staticflickr.com/3845/33424775282_da0931bbf3_o.jpg,34.66545,133.92370555555556,,,,,,Japan,渡辺勇商店; 桃太郎大通り; 平和町; Kita Ward; Okayama; Okayama Prefecture; 700-0826; Japan,hotel,cameraforensics
https://live.staticflickr.com/5577/13984595233_df8273ac15_o.jpg,34.65831666666666,133.92286666666666,,,,,,Japan,田町; Kita Ward; Okayama; Okayama Prefecture; 700-8677; Japan,hotel,cameraforensics
https://live.staticflickr.com/7281/16333893550_d9d29ec7ee_o.jpg,43.05283333333333,141.35333333333332,,,,,,Japan,LAWSON; 4; Hanakouji; 南6条西4; Chuo; Sapporo; Ishikari Subprefecture; Hokkaido Prefecture; 064-0806; Japan,hotel,cameraforensics
https://live.staticflickr.com/1457/24453229934_f93f8f9d16_o.jpg,43.05598333333333,141.35508611111112,,,,,,Japan,Hokkaido Kani shogun; 6; Tsukisamu Avenue; 南4条西2; Chuo; Sapporo; Ishikari Subprefecture; Hokkaido Prefecture; 064-0804; Japan,hotel,cameraforensics
https://live.staticflickr.com/4374/36520559382_853a330153_o.jpg,43.0502361111111,141.3548277777778,,,,,,Japan,Lawson; Sapporo Station Road; 南6条西3; Chuo; Sapporo; Ishikari Subprefecture; Hokkaido Prefecture; 064-0808; Japan,hotel,cameraforensics
https://live.staticflickr.com/1658/24338658893_07c68585e8_o.jpg,43.0550888888889,141.353425,,,,,,Japan,Sapporo Snow Festival Ice Sculptures; Sapporo Station Road; 南6条西3; Chuo; Sapporo; Ishikari Subprefecture; Hokkaido Prefecture; 064-0607; Japan,hotel,cameraforensics
http://static.panoramio.com/photos/original/16129296.jpg,43.05544166666667,141.35325,,,,,,Japan,中央区 108-4; ポールタウン地下歩行空間; 南4条西4; Chuo; Sapporo; Ishikari Subprefecture; Hokkaido Prefecture; 060-8502; Japan,hotel,cameraforensics
https://live.staticflickr.com/5263/13979494092_9e1f57b300_o.jpg,43.05435833333333,141.35614444444445,,,,,,Japan,サイバーシティービル; Tsukisamu dori; 南4条西2; Chuo; Sapporo; Ishikari Subprefecture; Hokkaido Prefecture; 060-0054; Japan,hotel,cameraforensics
https://live.staticflickr.com/3/2629/4241694154_6c2b0c091a_o_d.jpg,43.055816900002775,141.35305344999722,,,,,,Japan,夜空のジンギスカン; ポールタウン地下歩行空間; 南4条西4; Chuo; Sapporo; Ishikari Subprefecture; Hokkaido Prefecture; 060-8502; Japan,hotel,cameraforensics
https://live.staticflickr.com/2519/4191988560_f7e60e6149_o.jpg,34.48729083333333,136.84344611111112,,,,,,Japan,Toba; Mie Prefecture; 517-0011; Japan,hotel,cameraforensics
https://r-cf.bstatic.com/images/hotel/max1280x900/121/121379839.jpg,34.48638294,136.83607058,,,,,,Japan,ロードイン鳥羽; National Highway Route 42; Toba; Mie Prefecture; 517-0011; Japan,hotel,cameraforensics
https://r-cf.bstatic.com/images/hotel/max1280x900/112/112135155.jpg,34.49173963,136.84167176,,,,,,Japan,Toba; Mie Prefecture; 517-0011; Japan,hotel,cameraforensics
https://live.staticflickr.com/8084/28719006851_2f5d37e00a_o.jpg,34.486875,136.84291111111108,,,,,,Japan,Toba; National Highway Route 42; Toba; Mie Prefecture; 517-0011; Japan,hotel,cameraforensics
https://live.staticflickr.com/7178/6966184784_0c1862a1be_o.jpg,34.488535,136.84191638888888,,,,,,Japan,鳥羽ビジターセンター; National Highway Route 42; Toba; Mie Prefecture; 517-0011; Japan,hotel,cameraforensics
https://drscdn.500px.org/photo/242410401/m%3D2048_k%3D1_a%3D1/v2?client_application_id=36673&webp=true&sig=ac70a30d3a09e8fd8f4ee99707d46f53e70fea2fea3518866da9ec9166344df7,34.49175,136.84595833333333,,,,,,Japan,Toba; Mie Prefecture; 517-0011; Japan,hotel,cameraforensics
https://live.staticflickr.com/4011/4307110444_44de954cba_o.jpg,34.48701916666667,136.84187833333334,,,,,,Japan,Toba; Mie Prefecture; 517-0011; Japan,hotel,cameraforensics
https://r-cf.bstatic.com/images/hotel/max1280x900/389/38953090.jpg,34.494898600000006,136.83647139,,,,,,Japan,Toba; Mie Prefecture; 517-0011; Japan,hotel,cameraforensics
https://r-cf.bstatic.com/images/hotel/max1280x900/112/112137862.jpg,34.49059570000001,136.84005414,,,,,,Japan,Toba; Mie Prefecture; 517-0011; Japan,hotel,cameraforensics
https://live.staticflickr.com/4665/40221507451_6607b27011_o.jpg,34.488530555555556,136.84155277777776,,,,,,Japan,鳥羽ビジターセンター; National Highway Route 42; Toba; Mie Prefecture; 517-0011; Japan,hotel,cameraforensics
https://live.staticflickr.com/5715/22514815455_0448e9cf82_o.jpg,26.213880555555548,127.68977222222222,,,,,,Japan,Makishi 3-chome; Naha; Okinawa Prefecture; 900-8585; Japan,hotel,cameraforensics
https://live.staticflickr.com/8716/28309617733_baf83841b4_o.jpg,26.21590277777778,127.68656944444444,,,,,,Japan,Blue Seal Parlor Owan; 沖縄県那覇市牧志１丁目３−６３; Kokusai-dori; Kumoji; Naha; Okinawa Prefecture; 900-0013; Japan,hotel,cameraforensics
https://live.staticflickr.com/1601/26095117531_58f170368f_o.jpg,26.21891111111111,127.68588333333334,,,,,,Japan,TORCIDA; Okiei-odori; Makishi 1-chome; Naha; Okinawa Prefecture; 900-8585; Japan,hotel,cameraforensics
https://live.staticflickr.com/4326/36147868655_33b8b9e920_o.jpg,26.216275,127.688125,,,,,,Japan,Starbucks; Kokusai-dori; Kumoji; Naha; Okinawa Prefecture; 900-8585; Japan,hotel,cameraforensics
https://live.staticflickr.com/8621/15708159494_cd006fc5d7_o.jpg,26.21642,127.68573833333332,,,,,,Japan,Makishi 1-chome; Naha; Okinawa Prefecture; 900-8585; Japan,hotel,cameraforensics
https://live.staticflickr.com/1472/26065154964_41c582f364_o.jpg,26.21746944444445,127.69226111111112,,,,,,Japan,南西観光ホテル; Kokusai-dori; Kumoji; Naha; Okinawa Prefecture; 900-8585; Japan,hotel,cameraforensics
https://live.staticflickr.com/1651/26577892932_852cd60794_o.jpg,26.21746944444445,127.69226111111112,,,,,,Japan,南西観光ホテル; Kokusai-dori; Kumoji; Naha; Okinawa Prefecture; 900-8585; Japan,hotel,cameraforensics
https://live.staticflickr.com/2868/32586119324_12a10738b8_o.jpg,26.215015388888887,127.68819425,,,,,,Japan,Cafe' Street; Ichiba-hon-dori; Matsuo 2-chome; Naha; Okinawa Prefecture; 900-8585; Japan,hotel,cameraforensics
https://live.staticflickr.com/4171/34685666491_24ba4afebd_o.jpg,26.214444444444453,127.68833333333332,,,,,,Japan,Urara Second Hand Bookstore; Ichiba-hon-dori; Matsuo 2-chome; Naha; Okinawa Prefecture; 900-8585; Japan,hotel,cameraforensics
https://live.staticflickr.com/7288/16833524422_11be465e7b_o.jpg,26.21696852777778,127.69069669444444,,,,,,Japan,KID HOUSE; Kokusai-dori; Kumoji; Naha; Okinawa Prefecture; 900-8585; Japan,hotel,cameraforensics
https://live.staticflickr.com/2896/14140450086_71f90bb054_o.jpg,35.023525,135.76175,,,,,,Japan,Kyoto Imperial Palace; 3; South Garden; Kyōto-Gyoen; Kamigyo Ward; Kyoto; Kyoto Prefecture; 602-0881; Japan,hotel,cameraforensics
https://live.staticflickr.com/419/19922778916_c94c5836a6_o.jpg,35.02913284301667,135.75695800781108,,,,,,Japan,弁財天町; Kamigyo Ward; Kyoto; Kyoto Prefecture; 602-0953; Japan,hotel,cameraforensics
https://live.staticflickr.com/7389/26264988163_1ce200bbc7_o.jpg,35.02441388888889,135.76217777777777,,,,,,Japan,Kyoto Imperial Palace; 3; South Garden; Kyōto-Gyoen; Kamigyo Ward; Kyoto; Kyoto Prefecture; 602-0881; Japan,hotel,cameraforensics
https://live.staticflickr.com/701/22357193006_77fb4c0027_o.jpg,35.019194444444445,135.7622111111111,,,,,,Japan,Kyoto Imperial Palace Park; 荒神口通; 中御霊町; Kamigyo Ward; Kyoto; Kyoto Prefecture; 602-0853; Japan,hotel,cameraforensics
https://live.staticflickr.com/7677/17926744705_3a5bb43eff_o.jpg,35.02381944444444,135.76126111111108,,,,,,Japan,Kyoto Imperial Palace; 3; South Garden; Kyōto-Gyoen; Kamigyo Ward; Kyoto; Kyoto Prefecture; 602-0881; Japan,hotel,cameraforensics
http://static.panoramio.com/photos/original/106674183.jpg,35.02866666666667,135.7575,,,,,,Japan,掘出シ町; Kamigyo Ward; Kyoto; Kyoto Prefecture; 602-8580; Japan,hotel,cameraforensics
https://live.staticflickr.com/3798/9761282003_3648b963dd_o.jpg,35.02133333333333,135.7605,,,,,,Japan,Kyoto Imperial Palace Park; 荒神口通; 中御霊町; Kamigyo Ward; Kyoto; Kyoto Prefecture; 602-0853; Japan,hotel,cameraforensics
https://live.staticflickr.com/4456/37869675871_c24971975e_o.jpg,35.02947222222222,135.75816944444443,,,,,,Japan,SAKURA BLD.今出川Ⅱ; Muromachi street; 蒔烏屋町; Kamigyo Ward; Kyoto; Kyoto Prefecture; 602-0914; Japan,hotel,cameraforensics
https://live.staticflickr.com/3835/14589128628_1141b4b214_o.jpg,35.021228790283324,135.7555236816417,,,,,,Japan,Kyoto Prefectural Office Former Building; Nishinotoin street; 元図子町; Kamigyo Ward; Kyoto; Kyoto Prefecture; 602-8570; Japan,hotel,cameraforensics
https://live.staticflickr.com/8814/17926711655_896b2593d3_o.jpg,35.02346111111111,135.76185555555554,,,,,,Japan,Kyoto Imperial Palace; 3; South Garden; Kyōto-Gyoen; Kamigyo Ward; Kyoto; Kyoto Prefecture; 602-0881; Japan,hotel,cameraforensics
https://live.staticflickr.com/7364/13956507253_7d704e548f_o.jpg,35.01168822222222,135.77053830555556,,,,,,Japan,佐久間象山・大村益次郎遭難之碑; Kiyamachi Street; 清水町; Nakagyo Ward; Kyoto; Kyoto Prefecture; 604-8005; Japan,hotel,cameraforensics
https://live.staticflickr.com/8629/28374691126_9325cc7f28_o.jpg,35.00960277777778,135.76886111111108,,,,,,Japan,7-Eleven; 姉小路通; 橘町; Nakagyo Ward; Kyoto; Kyoto Prefecture; 604-8005; Japan,hotel,cameraforensics
https://live.staticflickr.com/7326/11024401244_0e140986a2_o.jpg,35.01095138888889,135.76985,,,,,,Japan,Seria; Oike-dori; 神明町; Nakagyo Ward; Kyoto; Kyoto Prefecture; 6040034; Japan,hotel,cameraforensics
https://live.staticflickr.com/5451/30523384542_b9108e0e9b_o.jpg,35.01703888888889,135.7725,,,,,,Japan,Lawson Store 100; Kawabata dori; 下堤町; Sakyo Ward; Kyoto; Kyoto Prefecture; 602-0858; Japan,hotel,cameraforensics
https://live.staticflickr.com/5704/23796843460_462a8d7275_o.jpg,35.014561111111114,135.76246666666665,,,,,,Japan,Machiya house; Takakura street; 中町; Nakagyo Ward; Kyoto; Kyoto Prefecture; 604-0965; Japan,hotel,cameraforensics
https://live.staticflickr.com/4159/34272620710_442dfee94c_o.jpg,35.009036111111115,135.77064444444446,,,,,,Japan,ootoya; Sanjo Street; 榎木町; Nakagyo Ward; Kyoto; Kyoto Prefecture; 604-8004; Japan,hotel,cameraforensics
https://live.staticflickr.com/7578/29040274331_4dc4195ea5_o.jpg,35.009605555555545,135.76722777777778,,,,,,Japan,天性寺; 姉小路通; 橘町; Nakagyo Ward; Kyoto; Kyoto Prefecture; 604-8005; Japan,hotel,cameraforensics
https://live.staticflickr.com/8749/17267716948_9622699422_o.jpg,35.008923055555556,135.76724416666667,,,,,,Japan,三条寺町交番; Teramachi street; 妙満寺前町; Nakagyo Ward; Kyoto; Kyoto Prefecture; 〒604-8036; Japan,hotel,cameraforensics
https://live.staticflickr.com/8538/15646043479_1fb59983d5_o.jpg,35.015769444444445,135.77842777777778,,,,,,Japan,京都ゲストハウス 忍者; Higashioji dori; 聖護院山王町; Sakyo Ward; Kyoto; Kyoto Prefecture; 606-8391; Japan,hotel,cameraforensics
https://live.staticflickr.com/5627/22585296899_32eaf65f90_o.jpg,35.01116941666667,135.7704315,,,,,,Japan,YaMaYa World Liquor System; Kiyamachi Street; 清水町; Nakagyo Ward; Kyoto; Kyoto Prefecture; 604-8005; Japan,hotel,cameraforensics
https://live.staticflickr.com/3935/15443208206_d8cdbfcd96_o.jpg,43.18819166666667,141.03096111111108,,,,,,Japan,Wakatakecho; Otaru; Shiribeshi Subprefecture; Hokkaido Prefecture; 047-0008; Japan,hotel,cameraforensics
https://live.staticflickr.com/8181/7982458384_50e8810ba9_o.jpg,43.18609493333334,141.02099199999995,,,,,,Japan,小樽シーポートマーケット; 勝納跨線橋; Katsunaicho; Otaru; Shiribeshi Subprefecture; Hokkaido Prefecture; 047-0008; Japan,hotel,cameraforensics
https://r-cf.bstatic.com/images/hotel/max1280x900/210/210860381.jpg,43.1787771,141.02041930000001,,,,,,Japan,Shiomidai 1-chome; Otaru; Shiribeshi Subprefecture; Hokkaido Prefecture; 047-0001; Japan,hotel,cameraforensics
https://live.staticflickr.com/5147/5642518421_6a812808e8_o.jpg,43.18540638888889,141.02338833333334,,,,,,Japan,Yujiro Ishihara Memorial; National Highway Route 5; Shintomicho; Otaru; Shiribeshi Subprefecture; Hokkaido Prefecture; 047-0008; Japan,hotel,cameraforensics
https://r-cf.bstatic.com/images/hotel/max1280x900/563/56324893.jpg,43.1831772,141.02389276,,,,,,Japan,ウイングベイ小樽; National Highway Route 5; Shintomicho; Otaru; Shiribeshi Subprefecture; Hokkaido Prefecture; 047-0008; Japan,hotel,cameraforensics
https://live.staticflickr.com/5671/23355546582_e20d461194_o.jpg,43.18299166666667,141.02347,,,,,,Japan,Chikko; Otaru; Shiribeshi Subprefecture; Hokkaido Prefecture; 047-0008; Japan,hotel,cameraforensics
https://live.staticflickr.com/5665/20759481653_063aec8b20_o.jpg,43.18630555555556,141.02131666666668,,,,,,Japan,Chikko; Otaru; Shiribeshi Subprefecture; Hokkaido Prefecture; 047-0008; Japan,hotel,cameraforensics
https://q-cf.bstatic.com/images/hotel/max1280x900/224/224548466.jpg,43.1787771,141.02041930000001,,,,,,Japan,Shiomidai 1-chome; Otaru; Shiribeshi Subprefecture; Hokkaido Prefecture; 047-0001; Japan,hotel,cameraforensics
https://live.staticflickr.com/4683/39264308991_16851c8564_o.jpg,43.18383333333333,141.02400277777778,,,,,,Japan,Wing Bay Otaru; National Highway Route 5; Chikko; Otaru; Shiribeshi Subprefecture; Hokkaido Prefecture; 047-0008; Japan,hotel,cameraforensics
https://live.staticflickr.com/65535/49477439143_fe7b9c91b1_o.jpg,43.1858896,141.021811,,,,,,Japan,Chikko; Otaru; Shiribeshi Subprefecture; Hokkaido Prefecture; 047-0008; Japan,hotel,cameraforensics
https://live.staticflickr.com/7336/27127505824_9997b63532_o.jpg,34.66145419444445,135.505897,,,,,,Japan,トヤマ電機; Sakaisuji; Nippombashi 3; Naniwa Ward; Osaka; Osaka Prefecture; 556-0005; Japan,hotel,cameraforensics
https://live.staticflickr.com/5347/17921118585_b19c7089d6_o.jpg,35.68525,139.7856,,,,,,Japan,Nihonbashi-Ningyocho 2-chome; Chuo; Tokyo; 1030013; Japan,hotel,cameraforensics
https://live.staticflickr.com/712/21354777895_4f09447e00_o.jpg,35.68470833333333,139.78665277777782,,,,,,Japan,7-Eleven; Shin-ohashi-dori; Nihonbashi-Kakigaracho 1-chome; Chuo; Tokyo; 103-0014; Japan,hotel,cameraforensics
https://live.staticflickr.com/5636/30616962655_bbdd486cc5_o.jpg,35.68648055555555,139.78968888888892,,,,,,Japan,Hamacho-nichome; Shin-ohashi-dori; Nihonbashi-Hamacho 3-chome; Chuo; Tokyo; 103-0007; Japan,hotel,cameraforensics
https://live.staticflickr.com/417/20002157812_2ee517a504_o.jpg,35.679244444444436,139.78511944444443,,,,,,Japan,Nihonbashi-Hakozakicho; Chuo; Tokyo; 103-8510; Japan,hotel,cameraforensics
https://live.staticflickr.com/4388/36533086381_bdf0184c51_o.jpg,35.6769,139.79096944444444,,,,,,Japan,Nihonbashi-Hakozakicho; 門前仲町一丁目; Koto; Tokyo; 135-0031; Japan,hotel,cameraforensics
https://live.staticflickr.com/7459/16392483025_01838c5c72_o.jpg,35.68667222222222,139.78256111111108,,,,,,Japan,浅草線; Ningyōchō Dori; Nihonbashi-Ningyocho 3-chome; Chuo; Tokyo; 103-0012; Japan,hotel,cameraforensics
https://live.staticflickr.com/8292/7763692506_cbdac497fb_o.jpg,35.67716666666666,139.78633333333335,,,,,,Japan,Shinkawa 1-chome; Chuo; Tokyo; 103-8510; Japan,hotel,cameraforensics
https://67.media.tumblr.com/80dd568c1c8ed944b950b76b82f48030/tumblr_ofgcwdy64r1uimrjwo1_1280.jpg,35.68335,139.78227222222222,,,,,,Japan,Nihonbashi-Koamicho; Chuo; Tokyo; 1030013; Japan,hotel,cameraforensics
https://live.staticflickr.com/1596/25749961296_c5fd0b1daf_o.jpg,35.680019444444454,139.77792222222223,,,,,,Japan,Kayabacho; ; Ginza 1-chome; Nihonbashi-Kabutocho; Chuo; Tokyo; 103-0026; Japan,hotel,cameraforensics
https://live.staticflickr.com/8448/7997859528_288e877d05_o.jpg,35.67966666666667,139.77983333333333,,,,,,Japan,茅場町駅 5番出口; Shin-ohashi-dori; Ginza 1-chome; Nihonbashi-Kayabacho 2-chome; Chuo; Tokyo; 103-0025; Japan,hotel,cameraforensics
https://live.staticflickr.com/7184/13934031098_6e8cac60b2_o.jpg,35.00761388888889,135.76017777777778,,,,,,Japan,頂法寺; Rokkaku-dori; 鍛冶屋町; Nakagyo Ward; Kyoto; Kyoto Prefecture; 604-8113; Japan,hotel,cameraforensics
https://live.staticflickr.com/5501/9717279920_5c8efb7b76_o.jpg,35.00033333333333,135.7595,,,,,,Japan,General; Takatsuji-dori; 錦大宮町; Shimogyo Ward; Kyoto; Kyoto Prefecture; 600-8483; Japan,hotel,cameraforensics
https://live.staticflickr.com/636/23742563046_c8cb5a2d4a_o.jpg,35.00215277777778,135.76197777777782,,,,,,Japan,市立洛央小学校; Bukkouji-dori; 西田町; Shimogyo Ward; Kyoto; Kyoto Prefecture; 600-8099; Japan,hotel,cameraforensics
https://live.staticflickr.com/1665/25625175314_3b3539e27d_o.jpg,35.003747222222216,135.75320555555555,,,,,,Japan,四条堀川; Shijo-dori; 西田町; Shimogyo Ward; Kyoto; Kyoto Prefecture; 600-8009; Japan,hotel,cameraforensics
https://live.staticflickr.com/337/19498485990_b23f0096a5_o.jpg,35.00360833333333,135.76061111111107,,,,,,Japan,Tokyu Hands; Shijo-dori; Shimogyo Ward; Kyoto; Kyoto Prefecture; 600-8411; Japan,hotel,cameraforensics
https://live.staticflickr.com/5756/22163169045_cd7b936c31_o.jpg,35.00501388888889,135.76265,,,,,,Japan,寺子屋本舗; Nishikikoji-dori; 七観音町; Nakagyo Ward; Kyoto; Kyoto Prefecture; 604-8045; Japan,hotel,cameraforensics
https://live.staticflickr.com/7504/16085448216_d9e7206d28_o.jpg,35.001484999999995,135.761405,,,,,,Japan,市立洛央小学校; Bukkouji-dori; 西田町; Shimogyo Ward; Kyoto; Kyoto Prefecture; 600-8099; Japan,hotel,cameraforensics
https://live.staticflickr.com/7447/27513351722_ddd090d9d3_o.jpg,35.004852777777785,135.75564444444444,,,,,,Japan,宗（sou）; Nishikikoji-dori; 吉野町; Nakagyo Ward; Kyoto; Kyoto Prefecture; 604-8152; Japan,hotel,cameraforensics
https://live.staticflickr.com/3779/12823830533_31899010eb_o.jpg,35.0045,135.76266666666666,,,,,,Japan,Daimaru; Takakura street; 七観音町; Nakagyo Ward; Kyoto; Kyoto Prefecture; 604-8141; Japan,hotel,cameraforensics
https://live.staticflickr.com/1283/4675282746_c312eb2bda_o.jpg,35.001838,135.759073,,,,,,Japan,HOPPA; Ayano-koji dori; Shimogyo Ward; Kyoto; Kyoto Prefecture; 600-8412; Japan,hotel,cameraforensics
http://static.panoramio.com/photos/original/113454844.jpg,26.21838055555556,127.67148611111112,,,,,,Japan,辻村址; 波之上通り; Tsuji 2-chome; Naha; Okinawa Prefecture; 900-8585; Japan,hotel,cameraforensics
https://live.staticflickr.com/1666/24655950210_a70fe9378b_o.jpg,26.212985,127.67076611111106,,,,,,Japan,7-Eleven; Uenokura-odori; Nishi; Naha; Okinawa Prefecture; 900-8585; Japan,hotel,cameraforensics
https://live.staticflickr.com/1811/43091673875_3ff9aaa880_o.jpg,26.21368666666667,127.66998333333332,,,,,,Japan,Nishi 2-chome; Naha; Okinawa Prefecture; 900-8585; Japan,hotel,cameraforensics
https://live.staticflickr.com/1625/24670759159_8154d605b8_o.jpg,26.213658,127.66521999999999,,,,,,Japan,ロワジールホテル沖縄; 沖縄ガス通り; Tondocho; Naha; Okinawa Prefecture; 900-8585; Japan,hotel,cameraforensics
https://q-cf.bstatic.com/images/hotel/max1280x900/188/188229503.jpg,26.212657,127.673827,,,,,,Japan,Higashimachi; Naha; Okinawa Prefecture; 900-8585; Japan,hotel,cameraforensics
https://r-cf.bstatic.com/images/hotel/max1280x900/175/175541721.jpg,26.21730800000001,127.670718,,,,,,Japan,Tsuji 1-chome; Naha; Okinawa Prefecture; 900-8585; Japan,hotel,cameraforensics
https://r-cf.bstatic.com/images/hotel/max1280x900/206/206622338.jpg,26.21332025,127.6709017,,,,,,Japan,7-Eleven; Uenokura-odori; Nishi; Naha; Okinawa Prefecture; 900-8585; Japan,hotel,cameraforensics
https://q-cf.bstatic.com/images/hotel/max1280x900/210/210065119.jpg,26.21825997,127.67118591,,,,,,Japan,Tsuji 2-chome; Naha; Okinawa Prefecture; 900-8585; Japan,hotel,cameraforensics
https://r-cf.bstatic.com/images/hotel/max1280x900/175/175541695.jpg,26.21730100000001,127.67071999999999,,,,,,Japan,Tsuji 1-chome; Naha; Okinawa Prefecture; 900-8585; Japan,hotel,cameraforensics
https://q-cf.bstatic.com/images/hotel/max1280x900/114/114286365.jpg,26.21332025,127.6709017,,,,,,Japan,7-Eleven; Uenokura-odori; Nishi; Naha; Okinawa Prefecture; 900-8585; Japan,hotel,cameraforensics
https://live.staticflickr.com/4387/36284398474_154dc2bcf1_o.jpg,34.68511666666667,135.5218361111111,,,,,,Japan,West outer moat; Uemachi-suji; 大手前2丁目; Chuo; Osaka; Osaka Prefecture; 540-0008; Japan,hotel,cameraforensics
https://live.staticflickr.com/7318/11459109744_4dff3a7e17_o.jpg,34.67874722222222,135.51058888888892,,,,,,Japan,東警察署南久宝寺町交番; 東横堀筋; 農人橋三丁目; Chuo; Osaka; Osaka Prefecture; 540-0017; Japan,hotel,cameraforensics
https://live.staticflickr.com/2849/33284513783_d921f86454_o.jpg,34.68529891666667,135.52268980555556,,,,,,Japan,West outer moat; Uemachi-suji; 大手前2丁目; Chuo; Osaka; Osaka Prefecture; 540-0008; Japan,hotel,cameraforensics
https://live.staticflickr.com/3892/14247693977_8e903efe2e_o.jpg,34.6805,135.5247,,,,,,Japan,法円坂一丁目; Chuo; Osaka; Osaka Prefecture; 540-0006; Japan,hotel,cameraforensics
https://q-cf.bstatic.com/images/hotel/max1280x900/468/46896665.jpg,34.67896811,135.51270211,,,,,,Japan,錠前卸売りセンター; 内久宝寺町通; 内久宝寺町四丁目; Chuo; Osaka; Osaka Prefecture; 540-0017; Japan,hotel,cameraforensics
https://q-cf.bstatic.com/images/hotel/max1280x900/205/205588648.jpg,34.68075020000001,135.51370500000002,,,,,,Japan,Alex's room minamisenba; 南農人町通; 谷町四丁目; Chuo; Osaka; Osaka Prefecture; 540-0011; Japan,hotel,cameraforensics
https://r-cf.bstatic.com/images/hotel/max1280x900/222/222293580.jpg,34.6797631,135.5081359,,,,,,Japan,北久宝寺町通; 北久宝寺町二丁目; Chuo; Osaka; Osaka Prefecture; 541-0057; Japan,hotel,cameraforensics
https://live.staticflickr.com/7583/15631112784_fed7a9a3b5_o.jpg,34.68645833333333,135.52101111111108,,,,,,Japan,West outer moat; Uemachi-suji; 大手前2丁目; Chuo; Osaka; Osaka Prefecture; 540-0008; Japan,hotel,cameraforensics
https://live.staticflickr.com/7356/9839545805_7cf99fe95c_o.jpg,34.6815,135.51866666666666,,,,,,Japan,Chuo-odori; 常盤町一丁目; Chuo; Osaka; Osaka Prefecture; 540-0011; Japan,hotel,cameraforensics
https://live.staticflickr.com/5059/5456004102_9c66a23ebd_o.jpg,34.68270333333334,135.52049166666666,,,,,,Japan,Osaka Museum of History; Honmachi-dori; Tanimachi 3-chome; Chuo; Osaka; Osaka Prefecture; 540-0012; Japan,hotel,cameraforensics
https://live.staticflickr.com/5692/29662614963_9b02db8779_o.jpg,34.67184805555556,138.94288972222222,,,,,,Japan,cofee; ペリーロード; 間戸ヶ浜; Shimoda; Shizuoka Prefecture; 415-8501; Japan,hotel,cameraforensics
https://live.staticflickr.com/2901/33831466740_46dcd4d04d_o.jpg,34.66834833333333,138.93963833333333,,,,,,Japan,多々戸; Shimoda; Shizuoka Prefecture; 415-8501; Japan,hotel,cameraforensics
https://live.staticflickr.com/8113/8609111244_52ee2237af_o.jpg,34.665333333333336,138.9425,,,,,,Japan,Shimoda; Shizuoka Prefecture; 415-8501; Japan,hotel,cameraforensics
https://live.staticflickr.com/65535/48231532642_ff857f20c2_o.jpg,34.66623069666667,138.94615148333332,,,,,,Japan,Shimoda Sea Aquarium; 22-31; 下田港線; 間戸ヶ浜; Shimoda; Shizuoka Prefecture; 415-0023; Japan,hotel,cameraforensics
https://live.staticflickr.com/7731/18335838861_1fce981076_o.jpg,34.67194444444444,138.94264166666667,,,,,,Japan,了仙寺宝物館; Perry Road; 間戸ヶ浜; Shimoda; Shizuoka Prefecture; 415-0023; Japan,hotel,cameraforensics
https://live.staticflickr.com/8168/7588074920_23053cfc2c_o.jpg,34.671746999999996,138.943261,,,,,,Japan,Shimoda; Shizuoka Prefecture; 415-8501; Japan,hotel,cameraforensics
https://live.staticflickr.com/1370/4606554258_ba5cde2173_o.jpg,34.67216666666667,138.9415,,,,,,Japan,RYOSENJI; 12-12; Perry Road; 間戸ヶ浜; Shimoda; Shizuoka Prefecture; 415-0023; Japan,hotel,cameraforensics
https://live.staticflickr.com/4639/39574594151_d4ab608a58_o.jpg,34.67119666666667,138.94427166666668,,,,,,Japan,間戸ヶ浜; Shimoda; Shizuoka Prefecture; 415-8501; Japan,hotel,cameraforensics
https://live.staticflickr.com/8663/30258558296_98b5aebccf_o.jpg,34.67139527777778,138.94439305555557,,,,,,Japan,9; Perry Road; 間戸ヶ浜; Shimoda; Shizuoka Prefecture; 415-0023; Japan,hotel,cameraforensics
https://live.staticflickr.com/587/32336328414_f34535ac57_o.jpg,34.67140833333333,138.94593888888892,,,,,,Japan,The monument of the arrival of U. S. N. Commodore Perry's squadron; 下田港線; 間戸ヶ浜; Shimoda; Shizuoka Prefecture; 415-8501; Japan,hotel,cameraforensics
https://live.staticflickr.com/5831/23202973982_dfe4f96851_o.jpg,34.39828055555556,132.47271666666666,,,,,,Japan,Osugacho; Minami Ward; Hiroshima; Hiroshima Prefecture; 7320821; Japan,hotel,cameraforensics
https://live.staticflickr.com/1667/24546974820_395e269827_o.jpg,34.39324444444444,132.47860833333334,,,,,,Japan,東荒神町; 広島海田線; Kojin-machi; Minami Ward; Hiroshima; Hiroshima Prefecture; 7320807; Japan,hotel,cameraforensics
https://live.staticflickr.com/1659/24846238985_13e87548e4_o.jpg,34.398425,132.4767,,,,,,Japan,Matsubara-cho; Minami Ward; Hiroshima; Hiroshima Prefecture; 7320822; Japan,hotel,cameraforensics
https://live.staticflickr.com/8024/7691881290_8c3e81cb14_o.jpg,34.39733333333334,132.47583333333333,,,,,,Japan,Hiroshima Station; Carp Road; Enkobashi-cho; Minami Ward; Hiroshima; Hiroshima Prefecture; 7320823; Japan,hotel,cameraforensics
https://r-cf.bstatic.com/images/hotel/max1280x900/222/222912170.jpg,34.389125,132.470997,,,,,,Japan,ホテルスターダスト; Hijiyama Dori Avenue; 段原1; Minami Ward; Hiroshima; Hiroshima Prefecture; 7320811; Japan,hotel,cameraforensics
https://live.staticflickr.com/4015/4549624179_877121108a_o.jpg,34.3925,132.48433333333332,,,,,,Japan,MAZDA Zoom-Zoom Stadium Hiroshima; 北220; Higashiekimachi; Minami Ward; Hiroshima; Hiroshima Prefecture; 7320801; Japan,hotel,cameraforensics
https://live.staticflickr.com/5559/13794352133_8f2431e49a_o.jpg,34.39508055555556,132.47665277777782,,,,,,Japan,Akicafe Inn; 広島中島線; Enkobashi-cho; Minami Ward; Hiroshima; Hiroshima Prefecture; 7320823; Japan,hotel,cameraforensics
https://live.staticflickr.com/8304/7879160852_d2721b8243_o.jpg,34.39193638888889,132.48361833333334,,,,,,Japan,MAZDA Zoom-Zoom Stadium Hiroshima; 北220; Higashiekimachi; Minami Ward; Hiroshima; Hiroshima Prefecture; 7320801; Japan,hotel,cameraforensics
https://live.staticflickr.com/4499/38026434592_1152f3625d_o.jpg,34.39420277777778,132.47016944444445,,,,,,Japan,Kyobashi; Minami Ward; Hiroshima; Hiroshima Prefecture; 7320828; Japan,hotel,cameraforensics
https://live.staticflickr.com/7010/6410511697_2c6985d4b9_o.jpg,34.397391999999996,132.471039,,,,,,Japan,Matsubara-cho; Minami Ward; Hiroshima; Hiroshima Prefecture; 7320822; Japan,hotel,cameraforensics
https://live.staticflickr.com/4325/35865170930_0e9b6cb241_o.jpg,43.0571638888889,141.352525,,,,,,Japan,アルシュビル; ポールタウン地下歩行空間; Minami 3jo nishi 4; Chuo; Sapporo; Ishikari Subprefecture; Hokkaido Prefecture; 060-0063; Japan,hotel,cameraforensics
https://live.staticflickr.com/4424/36284595196_8998a87944_o.jpg,43.0570861111111,141.35299722222226,,,,,,Japan,Tanukikoji; Sapporo ekimae dori; Minami 2jo nishi 3; Chuo; Sapporo; Ishikari Subprefecture; Hokkaido Prefecture; 060-8502; Japan,hotel,cameraforensics
https://live.staticflickr.com/4317/36234177175_9fbbd6bf40_o.jpg,43.05710166666667,141.35184305555555,,,,,,Japan,Vegagio; 狸小路4丁目; 南2条西4; Chuo; Sapporo; Ishikari Subprefecture; Hokkaido Prefecture; 060-8502; Japan,hotel,cameraforensics
https://live.staticflickr.com/5494/30447412496_9dffd25d90_o.jpg,43.05714944444443,141.35218472222226,,,,,,Japan,BEEF IMPACT; 狸小路4丁目; 南2条西4; Chuo; Sapporo; Ishikari Subprefecture; Hokkaido Prefecture; 060-8502; Japan,hotel,cameraforensics
https://live.staticflickr.com/8237/8583967827_77b39d708e_o.jpg,36.69787833333334,137.21545333333333,,,,,,Japan,Sakuramachi 1-chome; Toyama; Toyama Prefecture; 930-0004; Japan,hotel,cameraforensics
https://live.staticflickr.com/8765/18111280418_ca8d37f917_o.jpg,36.701097499999996,137.21295527777778,,,,,,Japan,富山駅前４番乗場; ; Shintomicho 1-chome; Toyama; Toyama Prefecture; 〒930-0001; Japan,hotel,cameraforensics
https://live.staticflickr.com/437/31817560156_aec1076941_o.jpg,36.68838833333334,137.21505833333333,,,,,,Japan,TOYAMAキラリ; 富山立山公園線; Honmaru; Toyama; Toyama Prefecture; 930-0062; Japan,hotel,cameraforensics
https://live.staticflickr.com/5816/30994153100_7656d32a35_o.jpg,36.69779166666667,137.21048555555555,,,,,,Japan,Bistro de Marche GOZZONI; 小竹諏訪川原線; Jinzumachi 3-chome; Toyama; Toyama Prefecture; 930-0003; Japan,hotel,cameraforensics
https://live.staticflickr.com/4144/5035793690_7bc8711aa4_o.jpg,36.69,137.21166666666667,,,,,,Japan,ユウタウン総曲輪駐車場; 総曲輪通り; Honmaru; Toyama; Toyama Prefecture; 930-0062; Japan,hotel,cameraforensics
https://live.staticflickr.com/7651/17010371936_a6c838c32b_o.jpg,36.688896388888885,137.214985,,,,,,Japan,シクロシティ　ステーションNo14; 富山立山公園線; Honmaru; Toyama; Toyama Prefecture; 930-0062; Japan,hotel,cameraforensics
https://live.staticflickr.com/1819/29094083777_7f129afdb0_o.jpg,36.688780555555546,137.21530277777777,,,,,,Japan,TOYAMAキラリ; 富山立山公園線; Honmaru; Toyama; Toyama Prefecture; 930-0062; Japan,hotel,cameraforensics
https://live.staticflickr.com/65535/48016868528_d3a4b5563b_o.jpg,36.700980555555546,137.21389722222222,,,,,,Japan,エスタ; 富山駅地下道; Shintomicho 1-chome; Toyama; Toyama Prefecture; 〒930-0001; Japan,hotel,cameraforensics
https://q-cf.bstatic.com/images/hotel/max1280x900/342/34265972.jpg,36.69777365,137.21189708,,,,,,Japan,Shintomicho 2-chome; Toyama; Toyama Prefecture; 930-0003; Japan,hotel,cameraforensics
https://live.staticflickr.com/1562/23410066874_5614b08772_o.jpg,36.69196666666667,137.2117472222222,,,,,,Japan,野面積み; 富山高岡線; Honmaru; Toyama; Toyama Prefecture; 930-0062; Japan,hotel,cameraforensics
https://live.staticflickr.com/3818/9839903083_699fea55c6_o.jpg,35.1895,139.02733333333333,,,,,,Japan,夕霧荘; Tokaido; Hakone; Ashigarashimo County; Kanagawa Prefecture; 250-0521; Japan,hotel,cameraforensics
https://live.staticflickr.com/1529/26119183303_19f77d4687_o.jpg,35.19254722222222,139.02639722222222,,,,,,Japan,Hakone checkpoint; 旧東海道; Hakone; Ashigarashimo County; Kanagawa Prefecture; 250-0521; Japan,hotel,cameraforensics
https://live.staticflickr.com/3955/15403288860_a9b87964c1_o.jpg,35.19222222222222,139.02472222222218,,,,,,Japan,Hakone-Machi Seibu Ferry Port; Old Tokaido; Hakone; Ashigarashimo County; Kanagawa Prefecture; 250-0521; Japan,hotel,cameraforensics
https://live.staticflickr.com/5540/10433122736_d95aca15bc_o.jpg,35.189433333333334,139.02504166666668,,,,,,Japan,箱根駅伝ミュージアム; Tokaido; Hakone; Ashigarashimo County; Kanagawa Prefecture; 250-0521; Japan,hotel,cameraforensics
https://live.staticflickr.com/7080/7353009926_ed829def8c_o.jpg,35.19096500000001,139.02318300000002,,,,,,Japan,Hakone-Machi Pirate Ship Ferry Port; Tokaido; Hakone; Ashigarashimo County; Kanagawa Prefecture; 250-0521; Japan,hotel,cameraforensics
https://live.staticflickr.com/2783/4088367781_5b7fc98205_o.jpg,35.1922185,139.0261755,,,,,,Japan,Hakone checkpoint; 旧東海道; Hakone; Ashigarashimo County; Kanagawa Prefecture; 250-0521; Japan,hotel,cameraforensics
https://live.staticflickr.com/8521/8668019664_b10f621168_o.jpg,35.18933333333333,139.025,,,,,,Japan,箱根駅伝ミュージアム; Tokaido; Hakone; Ashigarashimo County; Kanagawa Prefecture; 250-0521; Japan,hotel,cameraforensics
https://live.staticflickr.com/4082/4890156507_bfc7a7d106_o.jpg,35.19092833333333,139.02685,,,,,,Japan,山木つり具店; Tokaido; Hakone; Ashigarashimo County; Kanagawa Prefecture; 250-0521; Japan,hotel,cameraforensics
https://live.staticflickr.com/1773/42245020064_f33b95eb20_o.jpg,35.191505555555565,139.02613888888888,,,,,,Japan,伊豆箱根鉄道(株)箱根関所旅物語館; 旧東海道; Hakone; Ashigarashimo County; Kanagawa Prefecture; 250-0521; Japan,hotel,cameraforensics
https://r-cf.bstatic.com/images/hotel/max1280x900/953/95324104.jpg,35.18915007,139.02557318,,,,,,Japan,ジェムスティーイン箱根芦ノ湖; Tokaido; Hakone; Ashigarashimo County; Kanagawa Prefecture; 250-0521; Japan,hotel,cameraforensics
https://live.staticflickr.com/7665/16976751120_d328e468da_o.jpg,33.672519444444454,135.33473333333333,,,,,,Japan,浜千鳥の湯 海舟; 1698-1; 海舟の道; Yuzaki; Shirahama; Nishimuro County; Wakayama Prefecture; 649-2211; Japan,hotel,cameraforensics
https://r-cf.bstatic.com/images/hotel/max1280x900/945/94540627.jpg,33.672331899999996,135.34256637,,,,,,Japan,ホテルグリーンヒル白浜; 白浜温泉線; Yuzaki; Shirahama; Nishimuro County; Wakayama Prefecture; 6492211; Japan,hotel,cameraforensics
https://q-cf.bstatic.com/images/hotel/max1280x900/383/38344439.jpg,33.67923803,135.34509301,,,,,,Japan,Hotel Sanrakuso; 3078; 白浜温泉線; Yuzaki; Shirahama; Nishimuro County; Wakayama Prefecture; 6492211; Japan,hotel,cameraforensics
https://r-cf.bstatic.com/images/hotel/max1280x900/967/96755104.jpg,33.672331899999996,135.34256637,,,,,,Japan,ホテルグリーンヒル白浜; 白浜温泉線; Yuzaki; Shirahama; Nishimuro County; Wakayama Prefecture; 6492211; Japan,hotel,cameraforensics
https://r-cf.bstatic.com/images/hotel/max1280x900/191/191092609.jpg,33.67824614,135.34420366,,,,,,Japan,Yuzaki; Shirahama; Nishimuro County; Wakayama Prefecture; 6492211; Japan,hotel,cameraforensics
https://live.staticflickr.com/8708/17162675872_4a61dc4061_o.jpg,33.675688888888885,135.33555555555554,,,,,,Japan,Yuzaki; Shirahama; Nishimuro County; Wakayama Prefecture; 6492211; Japan,hotel,cameraforensics
https://live.staticflickr.com/8783/17163696701_fd99f9bb29_o.jpg,33.67676111111111,135.33947777777777,,,,,,Japan,白浜温泉線; Yuzaki; Shirahama; Nishimuro County; Wakayama Prefecture; 6492211; Japan,hotel,cameraforensics
https://live.staticflickr.com/3016/2812859240_67589d1371_o.jpg,33.67318333333333,135.3344,,,,,,Japan,浜千鳥の湯 海舟; 1698-1; 海舟の道; Yuzaki; Shirahama; Nishimuro County; Wakayama Prefecture; 649-2211; Japan,hotel,cameraforensics
https://r-cf.bstatic.com/images/hotel/max1280x900/789/78956649.jpg,33.67923803,135.34509301,,,,,,Japan,Hotel Sanrakuso; 3078; 白浜温泉線; Yuzaki; Shirahama; Nishimuro County; Wakayama Prefecture; 6492211; Japan,hotel,cameraforensics
https://q-cf.bstatic.com/images/hotel/max1280x900/191/191091097.jpg,33.67824614,135.34420366,,,,,,Japan,Yuzaki; Shirahama; Nishimuro County; Wakayama Prefecture; 6492211; Japan,hotel,cameraforensics
https://live.staticflickr.com/7813/46226655274_31379888da_o.jpg,26.164661111111112,127.7697972222222,,,,,,Japan,ユインチホテル南城; 佐敷玉城線; Tamagusuku-Oyakebaru; Nanjo; Okinawa Prefecture; 901-1414; Japan,hotel,cameraforensics
https://live.staticflickr.com/7137/7837435904_61ba98b16d_o.jpg,26.16619916666667,127.76874138888887,,,,,,Japan,ユインチホテル南城; 佐敷玉城線; Tamagusuku-Oyakebaru; Nanjo; Okinawa Prefecture; 901-1414; Japan,hotel,cameraforensics
https://live.staticflickr.com/4419/36954211500_cc89c77411_o.jpg,26.16516111111111,127.7698277777778,,,,,,Japan,ユインチホテル南城; 佐敷玉城線; Tamagusuku-Oyakebaru; Nanjo; Okinawa Prefecture; 901-1414; Japan,hotel,cameraforensics
https://live.staticflickr.com/7893/40634498843_acd3f3030a_o.jpg,26.164380555555557,127.77045555555556,,,,,,Japan,Tennenonsen Sashikinoenjin Hot Spring; 佐敷玉城線; Tamagusuku-Oyakebaru; Nanjo; Okinawa Prefecture; 901-1414; Japan,hotel,cameraforensics
https://live.staticflickr.com/4433/36954213030_3e74bd8c35_o.jpg,26.16478055555556,127.76943333333334,,,,,,Japan,ユインチホテル南城; 佐敷玉城線; Tamagusuku-Oyakebaru; Nanjo; Okinawa Prefecture; 901-1414; Japan,hotel,cameraforensics
https://r-cf.bstatic.com/images/hotel/max1280x900/232/232522727.jpg,26.16984293,127.77104408,,,,,,Japan,Sashiki-Shinzato; Nanjo; Okinawa Prefecture; 901-1414; Japan,hotel,cameraforensics
https://r-cf.bstatic.com/images/hotel/max1280x900/232/232522661.jpg,26.16984293,127.77104408,,,,,,Japan,Sashiki-Shinzato; Nanjo; Okinawa Prefecture; 901-1414; Japan,hotel,cameraforensics
https://q-cf.bstatic.com/images/hotel/max1280x900/144/144810458.jpg,26.16538315,127.7692312,,,,,,Japan,ユインチホテル南城; 佐敷玉城線; Tamagusuku-Oyakebaru; Nanjo; Okinawa Prefecture; 901-1414; Japan,hotel,cameraforensics
https://r-cf.bstatic.com/images/hotel/max1280x900/847/84767510.jpg,26.16980718,127.77115166,,,,,,Japan,Sashiki-Shinzato; Nanjo; Okinawa Prefecture; 901-1414; Japan,hotel,cameraforensics
https://q-cf.bstatic.com/images/hotel/max1280x900/232/232522736.jpg,26.16984293,127.77104408,,,,,,Japan,Sashiki-Shinzato; Nanjo; Okinawa Prefecture; 901-1414; Japan,hotel,cameraforensics
https://live.staticflickr.com/4154/34856933083_6554ec391a_o.jpg,33.944189444444454,130.95690083333332,,,,,,Japan,Moji Ward; Kitakyushu; Fukuoka Prefecture; 801-0852; Japan,hotel,cameraforensics
https://live.staticflickr.com/743/23156708023_47c4eb244c_o.jpg,33.94415388888889,130.95933777777782,,,,,,Japan,Moji Ward; Kitakyushu; Fukuoka Prefecture; 801-0852; Japan,hotel,cameraforensics
https://live.staticflickr.com/7713/17119402019_3cf7247e21_o.jpg,33.94401666666667,130.95652777777778,,,,,,Japan,Moji Ward; Kitakyushu; Fukuoka Prefecture; 801-0852; Japan,hotel,cameraforensics
https://live.staticflickr.com/314/18056304744_6faa2a5309_o.jpg,33.94390833333333,130.95663333333334,,,,,,Japan,Moji Ward; Kitakyushu; Fukuoka Prefecture; 801-0852; Japan,hotel,cameraforensics
https://live.staticflickr.com/7313/12365471083_95d230fb7b_o.jpg,33.941005,130.95229472222223,,,,,,Japan,ホテルルートイン門司港; National Highway Route 199; Moji Ward; Kitakyushu; Fukuoka Prefecture; 801-0852; Japan,hotel,cameraforensics
https://r-cf.bstatic.com/images/hotel/max1280x900/280/28036106.jpg,33.94001996,130.9527424,,,,,,Japan,ホテルルートイン門司港; National Highway Route 199; Moji Ward; Kitakyushu; Fukuoka Prefecture; 801-0852; Japan,hotel,cameraforensics
https://r-cf.bstatic.com/images/hotel/max1280x900/213/213927972.jpg,33.94001996,130.9527424,,,,,,Japan,ホテルルートイン門司港; National Highway Route 199; Moji Ward; Kitakyushu; Fukuoka Prefecture; 801-0852; Japan,hotel,cameraforensics
https://r-cf.bstatic.com/images/hotel/max1280x900/102/102160474.jpg,33.94001996,130.9527424,,,,,,Japan,ホテルルートイン門司港; National Highway Route 199; Moji Ward; Kitakyushu; Fukuoka Prefecture; 801-0852; Japan,hotel,cameraforensics
https://live.staticflickr.com/7156/6400747315_c706633bee_o.jpg,33.94366666666667,130.95233333333334,,,,,,Japan,Moji Ward; Kitakyushu; Fukuoka Prefecture; 801-0852; Japan,hotel,cameraforensics
https://live.staticflickr.com/7199/6844354381_b579e635e5_o.jpg,33.94483333333334,130.957,,,,,,Japan,停車場; National Highway Route 199; Moji Ward; Kitakyushu; Fukuoka Prefecture; 801-0852; Japan,hotel,cameraforensics
https://drscdn.500px.org/photo/19817403/q%3D80_m%3D2000/12072324a4e1382c649130197e343531,35.6935,139.70116666666667,,,,,,Japan,SHINJUKU PANDRA BUILDING; MOA 1st street; Kabukicho; Shinjuku; Tokyo; 〒160-0021; Japan,hotel,cameraforensics
https://live.staticflickr.com/7647/17027168385_151f1a7437_o.jpg,35.69186388888889,139.70068333333333,,,,,,Japan,Lumine EST Shinjuku; Shinjuku Rambling Road; Shinjuku 4-chome; Shinjuku; Tokyo; 151-8580; Japan,hotel,cameraforensics
https://live.staticflickr.com/1589/26487833456_59416844b4_o.jpg,35.689552777777784,139.70031666666668,,,,,,Japan,Shinjuku Station; Koshu-kaido Avenue; Nishi-Shinjuku 1-chome; Shinjuku; Tokyo; 151-8580; Japan,hotel,cameraforensics
https://live.staticflickr.com/3934/15399119900_a0c6797475_o.jpg,34.98772,135.75918666666666,,,,,,Japan,Kyoto Tower Building; Karasuma Underground Passage; Shimogyo Ward; Kyoto; Kyoto Prefecture; 6008216; Japan,hotel,cameraforensics
http://static.panoramio.com/photos/original/92291545.jpg,34.98527666666666,135.75911333333335,,,,,,Japan,JR京都駅4・5番のりば; North-South Free Passage; Shimogyo Ward; Kyoto; Kyoto Prefecture; 600-8555; Japan,hotel,cameraforensics
https://live.staticflickr.com/5632/22944001475_b7371f0937_o.jpg,34.98678333333334,135.75924444444445,,,,,,Japan,Kyoto Station; Shio-koji dori; Shimogyo Ward; Kyoto; Kyoto Prefecture; 600-8216; Japan,hotel,cameraforensics
https://live.staticflickr.com/7406/11472618826_6f9263796a_o.jpg,34.98616666666667,135.75783333333334,,,,,,Japan,Kyoto Station Building; Hachijo-dori; Shimogyo Ward; Kyoto; Kyoto Prefecture; 6018003; Japan,hotel,cameraforensics
https://live.staticflickr.com/3861/14831291941_99bbb0e29f_o.jpg,34.986561111111115,135.75916944444444,,,,,,Japan,Dのりば; Shio-koji dori; Shimogyo Ward; Kyoto; Kyoto Prefecture; 600-8216; Japan,hotel,cameraforensics
https://live.staticflickr.com/5709/30562084081_8016980e7e_o.jpg,34.984475,135.75385833333334,,,,,,Japan,YAYOIKEN; Hachijo-dori; 和気町; Minami Ward; Kyoto; Kyoto Prefecture; 6018002; Japan,hotel,cameraforensics
https://live.staticflickr.com/5808/23065711012_5894114d1f_o.jpg,34.98495,135.75932222222218,,,,,,Japan,JR京都駅8・9・10番のりば; East Underground Walkway; Shimogyo Ward; Kyoto; Kyoto Prefecture; 600-8215; Japan,hotel,cameraforensics
https://live.staticflickr.com/3872/14306257308_9d502c6257_o.jpg,34.982669805555545,135.75686644444446,,,,,,Japan,くるっとパーク; Shinmachi street; 東九条南烏丸町; Minami Ward; Kyoto; Kyoto Prefecture; 〒601-8047; Japan,hotel,cameraforensics
https://live.staticflickr.com/8737/17317173105_eaf73157f1_o.jpg,34.98568055555555,135.75721666666666,,,,,,Japan,Kyoto Station Building; Hachijo-dori; Shimogyo Ward; Kyoto; Kyoto Prefecture; 6018003; Japan,hotel,cameraforensics
https://live.staticflickr.com/4235/35743926406_0564885541_o.jpg,34.98709166666666,135.759475,,,,,,Japan,Shimogyo Ward; Kyoto; Kyoto Prefecture; Japan,hotel,cameraforensics
https://live.staticflickr.com/688/22664785304_c4ff2f32af_o.jpg,35.73016111111111,139.71105833333334,,,,,,Japan,Ikebukuro; Main Footway; 1-chome; South Ikebukuro; Toshima; Tokyo; 171-8569; Japan,hotel,cameraforensics
https://live.staticflickr.com/7400/26770914036_9f150f4c5b_o.jpg,35.73048055555557,139.71324166666668,,,,,,Japan,Meiji Shoten Bookstore; Sunshine Street; Minami-Ikebukuro 1-chome; Higashi-Ikebukuro 1-chome; Toshima; Tokyo; 170-0013; Japan,hotel,cameraforensics
https://live.staticflickr.com/594/31871627685_6f2f1f0320_o.jpg,35.73005555555557,139.71086111111111,,,,,,Japan,Ikebukuro; Main Footway; 1-chome; South Ikebukuro; Toshima; Tokyo; 171-8569; Japan,hotel,cameraforensics
https://live.staticflickr.com/7524/26907760605_7616012aee_o.jpg,35.72945277777778,139.71054166666667,,,,,,Japan,Ikebukuro; Main Footway; 1-chome; South Ikebukuro; Toshima; Tokyo; 171-8569; Japan,hotel,cameraforensics
https://live.staticflickr.com/7438/26909175985_c607544cb4_o.jpg,35.729694444444455,139.71231111111112,,,,,,Japan,1-chome; South Ikebukuro; Toshima; Tokyo; 171-8569; Japan,hotel,cameraforensics
https://live.staticflickr.com/7489/26636486730_87892105fe_o.jpg,35.72913333333333,139.71234166666667,,,,,,Japan,Donki Ikebukuro; Main Footway; 1-chome; South Ikebukuro; Toshima; Tokyo; 171-8569; Japan,hotel,cameraforensics
https://live.staticflickr.com/311/30654407354_455fcfd9e8_o.jpg,35.72952777777778,139.71060277777778,,,,,,Japan,Ikebukuro; Main Footway; 1-chome; South Ikebukuro; Toshima; Tokyo; 171-8569; Japan,hotel,cameraforensics
https://live.staticflickr.com/5679/31068663376_8eb31e0bf3_o.jpg,35.729777777777784,139.71273888888888,,,,,,Japan,1-chome; South Ikebukuro; Toshima; Tokyo; 171-8557; Japan,hotel,cameraforensics
https://live.staticflickr.com/4296/35715944480_2f8d855254_o.jpg,35.730111111111114,139.711625,,,,,,Japan,池袋; Main Footway; 1-chome; South Ikebukuro; Toshima; Tokyo; 171-8569; Japan,hotel,cameraforensics
https://live.staticflickr.com/313/33013777835_d86d27806b_o.jpg,35.72831225,139.71731936111112,,,,,,Japan,Minami-Ikebukuro 2-chome; Higashi-Ikebukuro 4-chome; Toshima; Tokyo; 170-6002; Japan,hotel,cameraforensics
https://live.staticflickr.com/4367/36621458856_cc56841b74_o.jpg,35.003995,135.77716333333333,,,,,,Japan,Izuju Sushi; Higashioji-dori; Giommachi-Kitagawa; Higashiyama Ward; Kyoto; Kyoto Prefecture; 6050073; Japan,hotel,cameraforensics
https://live.staticflickr.com/7707/16939346067_44e0f3ebf2_o.jpg,35.004536111111115,135.76921111111108,,,,,,Japan,Shijo Kawaramachi; Bus #5;10;15;37;51;59; Kawaramachi avenue; 榎木町; Nakagyo Ward; Kyoto; Kyoto Prefecture; 604-8031; Japan,hotel,cameraforensics
https://drscdn.500px.org/photo/215766561/m%3D2048_k%3D1_a%3D1/a1ac8964b36c0389f5d2c166802aaf8d,35.000775,135.781555,,,,,,Japan,Kodai-ji; 維新の道; 下弁天町; Higashiyama Ward; Kyoto; Kyoto Prefecture; 605-0826; Japan,hotel,cameraforensics
https://live.staticflickr.com/3936/14913276353_8027ef3ed6_o.jpg,35.004195,135.77418,,,,,,Japan,254-9; 切り通し; Giommachi-Kitagawa; Higashiyama Ward; Kyoto; Kyoto Prefecture; 605-0073; Japan,hotel,cameraforensics
https://live.staticflickr.com/8604/28242882011_13c9ca98b3_o.jpg,35.00723611111111,135.76864722222223,,,,,,Japan,ガスト; Rokkaku-dori; 橘町; Nakagyo Ward; Kyoto; Kyoto Prefecture; 604-8034; Japan,hotel,cameraforensics
https://live.staticflickr.com/605/21269485240_480a2f55e0_o.jpg,35.00107833333333,135.78108833333334,,,,,,Japan,Kodai-ji; 維新の道; 下弁天町; Higashiyama Ward; Kyoto; Kyoto Prefecture; 605-0826; Japan,hotel,cameraforensics
https://live.staticflickr.com/5805/22877132877_f6c6a4392b_o.jpg,35.00237777777778,135.78041111111108,,,,,,Japan,Maruyamacho; Higashiyama Ward; Kyoto; Kyoto Prefecture; 605-0821; Japan,hotel,cameraforensics
https://live.staticflickr.com/5505/9827263993_66b370c2c3_o.jpg,35.00383333333333,135.77433333333335,,,,,,Japan,Tsujiri Tea House; Shijō Street; Giommachi-Minamigawa; Higashiyama Ward; Kyoto; Kyoto Prefecture; 605-0073; Japan,hotel,cameraforensics
https://live.staticflickr.com/5615/15190659333_ccff630b87_o.jpg,35.00339444444445,135.77825833333333,,,,,,Japan,Yasaka Shrine; Higashioji-dori; Giommachi-Kitagawa; Higashiyama Ward; Kyoto; Kyoto Prefecture; 6050073; Japan,hotel,cameraforensics
https://live.staticflickr.com/7379/14035398746_936f788552_o.jpg,34.999233333333336,135.77981666666668,,,,,,Japan,Omen; 維新の道; 下弁天町; Higashiyama Ward; Kyoto; Kyoto Prefecture; 605-0826; Japan,hotel,cameraforensics
https://live.staticflickr.com/4336/36161680660_f568f6f862_o.jpg,26.212172222222208,127.67565277777778,,,,,,Japan,Higashimachi; Naha; Okinawa Prefecture; 900-8585; Japan,hotel,cameraforensics
https://live.staticflickr.com/5660/22632983717_f51bfc4140_o.jpg,26.20561216666667,127.67863463888894,,,,,,Japan,mercure HOTEL; 那覇東バイパス; Tsubogawa 2-chome; Naha; Okinawa Prefecture; 900-8585; Japan,hotel,cameraforensics
https://live.staticflickr.com/759/32207655962_0fa24fbe0a_o.jpg,26.20333888888889,127.67476666666668,,,,,,Japan,護国神社; 那覇内環状線; Kanagusuku 5-chome; Naha; Okinawa Prefecture; 900-8585; Japan,hotel,cameraforensics
https://live.staticflickr.com/4343/36891684756_6fc1626705_o.jpg,26.20527777777778,127.68083333333334,,,,,,Japan,エープライス; Tsubogawa-dori; Tsubogawa 3-chome; Naha; Okinawa Prefecture; 900-8585; Japan,hotel,cameraforensics
https://live.staticflickr.com/8618/16113388180_9a86585742_o.jpg,26.211805555555557,127.676925,,,,,,Japan,Bus Terminal; ; Asahimachi; Naha; Okinawa Prefecture; 900-8585; Japan,hotel,cameraforensics
https://live.staticflickr.com/5573/14876650370_25946a4f6a_o.jpg,26.21169444444445,127.67816944444445,,,,,,Japan,Izumizaki 1-chome; Naha; Okinawa Prefecture; 900-8585; Japan,hotel,cameraforensics
https://live.staticflickr.com/2914/33448258346_094c53f1f4_o.jpg,26.21136944444445,127.67561388888888,,,,,,Japan,Higashimachi; Naha; Okinawa Prefecture; 900-8585; Japan,hotel,cameraforensics
https://live.staticflickr.com/7261/13984344705_e55a77e143_o.jpg,26.2124004364,127.68093109130837,,,,,,Japan,Okinawa Prefectural Government Office; Kencho-mae-dori; Izumizaki; Naha; Okinawa Prefecture; 900-8585; Japan,hotel,cameraforensics
https://r-cf.bstatic.com/images/hotel/max1280x900/127/127141415.jpg,26.20514606,127.68065217,,,,,,Japan,Tsubogawa 1-chome; Naha; Okinawa Prefecture; 900-8585; Japan,hotel,cameraforensics
https://live.staticflickr.com/65535/48430081827_85a506ece3_o.jpg,26.21196833333333,127.67548333333332,,,,,,Japan,旭橋; National Highway Route 58; Kumoji 1-chome; Naha; Okinawa Prefecture; 900-8585; Japan,hotel,cameraforensics
https://live.staticflickr.com/3819/13508587844_75409d6d7d_o.jpg,43.06195833333334,141.35488888888892,,,,,,Japan,Odori nishi 1; Chuo; Sapporo; Ishikari Subprefecture; Hokkaido Prefecture; 0600062; Japan,hotel,cameraforensics
https://live.staticflickr.com/445/19869300242_3391ebc4c5_o.jpg,34.706586111111115,135.50128055555555,,,,,,Japan,梅田ゲートタワー; Shin-Midōsuji; Tsurunomachi; Kita Ward; Osaka; Osaka Prefecture; 530-8304; Japan,hotel,cameraforensics
https://live.staticflickr.com/5611/15675111236_2e20a7c81f_o.jpg,34.706027777777784,135.49409444444444,,,,,,Japan,North; Sozo no Michi; Grand Front Osaka; Kita Ward; Osaka; Osaka Prefecture; 530-0011; Japan,hotel,cameraforensics
http://static.panoramio.com/photos/original/125328496.jpg,34.70532333333333,135.49005166666666,,,,,,Japan,Umeda Sky Building; Naniwa suji; Oyodonaka 2-chome; Kita Ward; Osaka; Osaka Prefecture; 531-6035; Japan,hotel,cameraforensics
https://live.staticflickr.com/7394/14035177226_9c0579cf3c_o.jpg,34.704475,135.49644444444445,,,,,,Japan,Yodobashi Umeda Tower; B Deck; Grand Front Osaka; Kita Ward; Osaka; Osaka Prefecture; 530-0011; Japan,hotel,cameraforensics
https://live.staticflickr.com/4027/34965360483_cc756e6289_o.jpg,34.705124722222216,135.49007,,,,,,Japan,Umeda Sky Building; Naniwa suji; Oyodonaka 2-chome; Kita Ward; Osaka; Osaka Prefecture; 531-6035; Japan,hotel,cameraforensics
https://live.staticflickr.com/2760/32982436825_2596f9df9e_o.jpg,34.70139611111111,135.50279333333333,,,,,,Japan,太融寺町; Kita Ward; Osaka; Osaka Prefecture; 530-0056; Japan,hotel,cameraforensics
https://live.staticflickr.com/719/23323562769_1fd17aa8df_o.jpg,34.705358333333336,135.49499722222222,,,,,,Japan,North; Sozo no Michi; Grand Front Osaka; Kita Ward; Osaka; Osaka Prefecture; 530-0011; Japan,hotel,cameraforensics
https://live.staticflickr.com/8414/29885231695_a236f921ae_o.jpg,34.70799,135.49207972222223,,,,,,Japan,中津5丁目; Kita Ward; Osaka; Osaka Prefecture; 531-0076; Japan,hotel,cameraforensics
https://live.staticflickr.com/5779/21606889812_a1a88985db_o.jpg,34.70207222222222,135.49621666666667,,,,,,Japan,Osaka Station; National Highway Route 176; Kakudacho; Kita Ward; Osaka; Osaka Prefecture; 530-0017; Japan,hotel,cameraforensics
https://live.staticflickr.com/8399/8626641744_d9abe15d09_o.jpg,34.70333333333333,135.50466666666668,,,,,,Japan,Banzaicho; Kita Ward; Osaka; Osaka Prefecture; 530-0055; Japan,hotel,cameraforensics
http://static.panoramio.com/photos/original/125785916.jpg,43.05512666666666,141.36527833333332,,,,,,Japan,Lawson; 1; Tsukisamu Avenue; 月寒中央通7; 美園3条1; Toyohira Ward; Sapporo; Ishikari Subprefecture; Hokkaido Prefecture; 062-0903; Japan,hotel,cameraforensics
https://live.staticflickr.com/8889/17263684829_50c96f48f2_o.jpg,35.01633333333334,135.78216666666665,,,,,,Japan,Heian-jingu Shrine; Marutamachi dori; 岡崎入江町; Sakyo Ward; Kyoto; Kyoto Prefecture; 606-8341; Japan,hotel,cameraforensics
https://live.staticflickr.com/5813/22741952427_5d98341111_o.jpg,35.02479166666667,135.77908055555557,,,,,,Japan,Kyoto University; Konoe dori; 吉田下阿達町; Sakyo Ward; Kyoto; Kyoto Prefecture; 606-8391; Japan,hotel,cameraforensics
https://live.staticflickr.com/7310/12377109314_9a8354c3a3_o.jpg,35.01666666666667,135.7825,,,,,,Japan,Heian-jingu Shrine; Marutamachi dori; 岡崎入江町; Sakyo Ward; Kyoto; Kyoto Prefecture; 606-8341; Japan,hotel,cameraforensics
https://live.staticflickr.com/2900/13819882153_0801121382_o.jpg,35.014469444444444,135.7821361111111,,,,,,Japan,Kyoto Municipal Museum of Art (Annex Building); Reisen dōri; 岡崎西天王町; Sakyo Ward; Kyoto; Kyoto Prefecture; 606-8334; Japan,hotel,cameraforensics
https://live.staticflickr.com/7507/15916472910_3760313419_o.jpg,35.01555,135.77586388888892,,,,,,Japan,Reisen dōri; 聖護院蓮華蔵町; Sakyo Ward; Kyoto; Kyoto Prefecture; 606-8357; Japan,hotel,cameraforensics
https://live.staticflickr.com/5546/11023488056_a664ca36fc_o.jpg,35.019025,135.77185277777778,,,,,,Japan,Kawabata dori; 田中下柳町; Sakyo Ward; Kyoto; Kyoto Prefecture; 606-8204; Japan,hotel,cameraforensics
https://live.staticflickr.com/1627/26078118966_cf6a0ee2d9_o.jpg,35.01735277777778,135.76966944444445,,,,,,Japan,Farmers; 536; 中町通; 大文字町; Nakagyo Ward; Kyoto; Kyoto Prefecture; 602-8072; Japan,hotel,cameraforensics
https://live.staticflickr.com/8563/15991531376_3b51a6446a_o.jpg,35.01301333333333,135.78098,,,,,,Japan,Kyoto International Exhibition Hall; Miyako messe; 二条通; 岡崎最勝寺町; Sakyo Ward; Kyoto; Kyoto Prefecture; 606-8352; Japan,hotel,cameraforensics
https://live.staticflickr.com/4356/36924191695_d61a7f51fe_o.jpg,34.398564,132.453972,,,,,,Japan,5-Daysこども文化科学館; Jonan-dori; Honkawacho 3-chome; Naka Ward; Hiroshima; Hiroshima Prefecture; 7300802; Japan,hotel,cameraforensics
https://live.staticflickr.com/1502/25444763606_e2b1de5409_o.jpg,34.39279166666667,132.46028055555556,,,,,,Japan,せらかぐ本通ビル; Hondori; 本通; Naka Ward; Hiroshima; Hiroshima Prefecture; 7300035; Japan,hotel,cameraforensics
https://live.staticflickr.com/4458/23836681688_e79bd1e555_o.jpg,34.398564,132.453972,,,,,,Japan,5-Daysこども文化科学館; Jonan-dori; Honkawacho 3-chome; Naka Ward; Hiroshima; Hiroshima Prefecture; 7300802; Japan,hotel,cameraforensics
https://live.staticflickr.com/7376/13966377949_f1bc0fd63a_o.jpg,34.395181388888886,132.45396499999998,,,,,,Japan,大手町一丁目; Naka Ward; Hiroshima; Hiroshima Prefecture; 7300051; Japan,hotel,cameraforensics
https://live.staticflickr.com/4349/35560098433_a8d40ce3d2_o.jpg,34.398564,132.453972,,,,,,Japan,5-Daysこども文化科学館; Jonan-dori; Honkawacho 3-chome; Naka Ward; Hiroshima; Hiroshima Prefecture; 7300802; Japan,hotel,cameraforensics
https://live.staticflickr.com/398/19781381869_aa2ccc595c_o.jpg,34.39649200439445,132.45806884765557,,,,,,Japan,shareo; Aioi dori Avenue; 紙屋町一丁目; Naka Ward; Hiroshima; Hiroshima Prefecture; 7300031; Japan,hotel,cameraforensics
https://live.staticflickr.com/4205/35492910666_0c8970fce8_o.jpg,34.398564,132.453972,,,,,,Japan,5-Daysこども文化科学館; Jonan-dori; Honkawacho 3-chome; Naka Ward; Hiroshima; Hiroshima Prefecture; 7300802; Japan,hotel,cameraforensics
https://live.staticflickr.com/2832/34005104371_fc71cb699f_o.jpg,34.398564,132.453972,,,,,,Japan,5-Daysこども文化科学館; Jonan-dori; Honkawacho 3-chome; Naka Ward; Hiroshima; Hiroshima Prefecture; 7300802; Japan,hotel,cameraforensics
https://live.staticflickr.com/1669/23995513423_549b319b0c_o.jpg,34.39152222222222,132.46283055555554,,,,,,Japan,Bakudan-ya Honten; Chuo-dori; 新天地; Naka Ward; Hiroshima; Hiroshima Prefecture; 7300034; Japan,hotel,cameraforensics
https://live.staticflickr.com/4449/37643147666_63e045d944_o.jpg,34.39411111111111,132.45399444444445,,,,,,Japan,大手町一丁目; Naka Ward; Hiroshima; Hiroshima Prefecture; 7300051; Japan,hotel,cameraforensics
https://live.staticflickr.com/670/31005843913_7f2eb0fbc2_o.jpg,43.19854444444444,141.00337222222225,,,,,,Japan,FamilyMart; Otaru Port Jukan Street; Minatomachi; Otaru; Shiribeshi Subprefecture; Hokkaido Prefecture; 〒047-0031; Japan,hotel,cameraforensics
https://live.staticflickr.com/3686/12695047584_2a3fc423b4_o.jpg,43.198172222222226,141.00277777777774,,,,,,Japan,集合写真; Otaru-Port Line; Ironai 1-chome; Otaru; Shiribeshi Subprefecture; Hokkaido Prefecture; 〒047-0031; Japan,hotel,cameraforensics
https://live.staticflickr.com/320/31628882802_12fc1c8a9f_o.jpg,43.1975888888889,141.00274722222218,,,,,,Japan,Sawasakisuisan Kaisenshokudo; 1-17 小樽出抜小路 1F; Nichigin dori; Ironai 1-chome; Otaru; Shiribeshi Subprefecture; Hokkaido Prefecture; 047-0031; Japan,hotel,cameraforensics
https://live.staticflickr.com/1482/23906589363_161734d897_o.jpg,43.19861666666667,140.99381944444445,,,,,,Japan,三角市場; 小樽三角市場; Inaho 3-chome; Otaru; Shiribeshi Subprefecture; Hokkaido Prefecture; 〒047-0032; Japan,hotel,cameraforensics
https://live.staticflickr.com/3871/33296910990_696abace62_o.jpg,43.199130999877774,140.99919599999996,,,,,,Japan,岡島薬局; 中央通; Ironai; Otaru; Shiribeshi Subprefecture; Hokkaido Prefecture; 〒047-0031; Japan,hotel,cameraforensics
https://live.staticflickr.com/733/21939014725_96c5ac6c36_o.jpg,43.19909166666667,141.003175,,,,,,Japan,びっくりドンキー; Otaru Port Jukan Street; Minatomachi; Otaru; Shiribeshi Subprefecture; Hokkaido Prefecture; 〒047-0031; Japan,hotel,cameraforensics
https://live.staticflickr.com/8145/28845697055_f546649dec_o.jpg,43.1983,141.00263888888892,,,,,,Japan,集合写真; Otaru-Port Line; Ironai 1-chome; Otaru; Shiribeshi Subprefecture; Hokkaido Prefecture; 〒047-0031; Japan,hotel,cameraforensics
https://live.staticflickr.com/9/8035/8043870933_0d613c8e22_o_d.jpg,43.196999999999996,140.996,,,,,,Japan,Inaho 2-chome; Otaru; Shiribeshi Subprefecture; Hokkaido Prefecture; 047-0032; Japan,hotel,cameraforensics
https://live.staticflickr.com/5696/30834028246_800242fc58_o.jpg,43.198032222222224,141.00304652777774,,,,,,Japan,集合写真; Otaru-Port Line; Ironai 1-chome; Otaru; Shiribeshi Subprefecture; Hokkaido Prefecture; 〒047-0031; Japan,hotel,cameraforensics
https://live.staticflickr.com/8329/8372421055_c93f40ba93_o.jpg,43.19436333333334,141.00615638888888,,,,,,Japan,北の漁場; Sakaimachi dori Street; Sakaimachi; Otaru; Shiribeshi Subprefecture; Hokkaido Prefecture; 047-0028; Japan,hotel,cameraforensics
https://live.staticflickr.com/7450/27174338206_4e4888e9a5_o.jpg,35.00518888888889,135.76721111111112,,,,,,Japan,ヴィレッジ(面白い雑貨); Shinkyogoku street; 橘町; Nakagyo Ward; Kyoto; Kyoto Prefecture; 〒604-8036; Japan,hotel,cameraforensics
https://live.staticflickr.com/4237/35421691991_fb11d86f82_o.jpg,35.00801111111111,135.77043055555555,,,,,,Japan,材木橋; 榎木町; Nakagyo Ward; Kyoto; Kyoto Prefecture; 604-8002; Japan,hotel,cameraforensics
https://live.staticflickr.com/5462/29673736264_86c5ac69f6_o.jpg,35.00683333333333,135.77050833333334,,,,,,Japan,Dashi Douraku; Kiyamachi Street; 榎木町; Nakagyo Ward; Kyoto; Kyoto Prefecture; 604-8004; Japan,hotel,cameraforensics
https://live.staticflickr.com/2916/13956755233_e0097b09d9_o.jpg,34.99052808333333,135.76271055555554,,,,,,Japan,Shoseien; 下珠数屋町通; Shimogyo Ward; Kyoto; Kyoto Prefecture; 6008216; Japan,hotel,cameraforensics
https://live.staticflickr.com/8236/29004176441_fee10d4f94_o.jpg,33.69054166666667,135.33938611111108,,,,,,Japan,白浜温泉線; Shirahama; Nishimuro County; Wakayama Prefecture; 649-2211; Japan,hotel,cameraforensics
https://r-cf.bstatic.com/images/hotel/max1280x900/748/74872502.jpg,33.68318793,135.34903512,,,,,,Japan,Shirahama; Nishimuro County; Wakayama Prefecture; 649-2211; Japan,hotel,cameraforensics
https://live.staticflickr.com/4418/37069870771_d480cc5c22_o.jpg,33.68416666666667,135.34472222222223,,,,,,Japan,Shirahama; Nishimuro County; Wakayama Prefecture; 649-2211; Japan,hotel,cameraforensics
https://q-cf.bstatic.com/images/hotel/max1280x900/215/215138881.jpg,33.68509464,135.34440637,,,,,,Japan,紀州・白浜温泉 むさし; 868; 白浜温泉線; Shirahama; Nishimuro County; Wakayama Prefecture; 649-2211; Japan,hotel,cameraforensics
https://live.staticflickr.com/65535/48204258022_9caa11e03a_o.jpg,33.683545,135.344726,,,,,,Japan,Family Mart; 白浜温泉線; Yuzaki; Shirahama; Nishimuro County; Wakayama Prefecture; 6492211; Japan,hotel,cameraforensics
https://live.staticflickr.com/3360/3262360198_8b33c91071_o.jpg,33.681999999999995,135.3455,,,,,,Japan,Shirarahama Beach; 白浜温泉線; Yuzaki; Shirahama; Nishimuro County; Wakayama Prefecture; 6492211; Japan,hotel,cameraforensics
https://live.staticflickr.com/8219/28751405715_579f56f221_o.jpg,35.65953833333333,139.75513166666667,,,,,,Japan,Minato Social Insurance Office; Daiichi Keihin; Shibadaimon 2-chome; Minato; Tokyo; 105-0012; Japan,hotel,cameraforensics
https://live.staticflickr.com/2907/14496566882_ae797a84cb_o.jpg,35.65783333333334,139.7555,,,,,,Japan,Shibadaimon 1-chome; Minato; Tokyo; 105-0013; Japan,hotel,cameraforensics
https://live.staticflickr.com/8410/28467160850_fa20aa9ac1_o.jpg,35.65887,139.75503500000002,,,,,,Japan,7-Eleven; Daiichi Keihin; Shibadaimon 2-chome; Minato; Tokyo; 105-0013; Japan,hotel,cameraforensics
https://live.staticflickr.com/731/21362959248_819f9ae005_o.jpg,35.65798166666666,139.76394666666667,,,,,,Japan,The Site of Salt Farm; Umite Otsutaibashi Bridge; Kachidoki 5-chome; Hamarikyu-Teien; Chuo; Tokyo; 105-7337; Japan,hotel,cameraforensics
https://live.staticflickr.com/7786/17553780394_06f8bdc54f_o.jpg,35.66361666666667,139.76033055555556,,,,,,Japan,Studio Ghibli Large Clock; Kanni-dori; 8-chome; Shiodome Sio-Site; Minato; Tokyo; 105-0021; Japan,hotel,cameraforensics
https://live.staticflickr.com/7478/15849867205_4b680268f3_o.jpg,35.65985555555555,139.75122222222222,,,,,,Japan,御成門A2; Onarimon; Shibakoen 1-chome; Minato; Tokyo; 105-8511; Japan,hotel,cameraforensics
https://live.staticflickr.com/7617/16841836055_b6c9992b1d_o.jpg,35.665475,139.75738611111112,,,,,,Japan,Shinbashi; Shinbashi 4-chome; Minato; Tokyo; 110-8549; Japan,hotel,cameraforensics
https://live.staticflickr.com/5468/8987713972_69c0f43361_o.jpg,35.65878,139.76346,,,,,,Japan,Ochin'yama Hill; Umite Otsutaibashi Bridge; Kachidoki 5-chome; Hamarikyu-Teien; Chuo; Tokyo; 105-7337; Japan,hotel,cameraforensics
https://live.staticflickr.com/2310/1635068090_204e164486_o.jpg,35.66538888888889,139.76038888888888,,,,,,Japan,Shiodome City Center; Metropolitan Road 481 Shimbashi-Hinodefuto Line; Shiodome Sio-Site; Minato; Tokyo; 105-0021; Japan,hotel,cameraforensics
https://live.staticflickr.com/8675/30441932702_d0c7faf547_o.jpg,35.664950277777784,139.75612083333334,,,,,,Japan,Shinbashi; Shinbashi 3-chome; Minato; Tokyo; 105-0004; Japan,hotel,cameraforensics
https://live.staticflickr.com/8726/28006553433_c751ff5312_o.jpg,41.771919444444435,140.73081111111108,,,,,,Japan,Misuzu Coffee Hakodate; 北海道函館市松風町7-1; National Route 278; Matsukazecho; Hakodate; Oshima Subprefecture; Hokkaido Prefecture; 040-0063; Japan,hotel,cameraforensics
https://live.staticflickr.com/7056/27208002581_8c1906abc1_o.jpg,41.77173333333333,140.72482222222223,,,,,,Japan,Sakura Tourist Market A; 北海道函館市大手町22-2; Nakarinkosen; Otemachi; Hakodate; Oshima Subprefecture; Hokkaido Prefecture; 040-0064; Japan,hotel,cameraforensics
https://live.staticflickr.com/4238/35240073366_0822fbe360_o.jpg,41.773234,140.72798999999998,,,,,,Japan,Hokuto Kōtsū Hakodate Station information desk; National Highway Route 5; Kaigancho; Hakodate; Oshima Subprefecture; Hokkaido Prefecture; 040-0063; Japan,hotel,cameraforensics
https://live.staticflickr.com/4237/34892468630_4a94979771_o.jpg,41.77355697222222,140.72664,,,,,,Japan,駅前広場案内; Hosha 3go-sen; Wakamatsucho; Hakodate; Oshima Subprefecture; Hokkaido Prefecture; 〒040-0063; Japan,hotel,cameraforensics
https://live.staticflickr.com/5745/30616897735_224692bc70_o.jpg,41.77220277777778,140.72465555555556,,,,,,Japan,Otemachi; Hakodate; Oshima Subprefecture; Hokkaido Prefecture; 040-0064; Japan,hotel,cameraforensics
https://live.staticflickr.com/5609/18832750635_289a5d2d2b_o.jpg,41.77270555555555,140.72401388888892,,,,,,Japan,Otemachi; Hakodate; Oshima Subprefecture; Hokkaido Prefecture; 〒040-0063; Japan,hotel,cameraforensics
https://live.staticflickr.com/1549/26254739395_8f677425fc_o.jpg,41.77449163888889,140.72547775,,,,,,Japan,Hakodate Station; 北海道函館市若松町12; Hosha 3go-sen; Wakamatsucho; Hakodate; Oshima Subprefecture; Hokkaido Prefecture; 〒040-0063; Japan,hotel,cameraforensics
http://static.panoramio.com/photos/original/76830265.jpg,41.773746,140.7263989,,,,,,Japan,Hakodate Station; 北海道函館市若松町12; Hosha 3go-sen; Wakamatsucho; Hakodate; Oshima Subprefecture; Hokkaido Prefecture; 〒040-0063; Japan,hotel,cameraforensics
https://live.staticflickr.com/8430/7812567448_3d07a0dfd2_o.jpg,41.77033333333333,140.722,,,,,,Japan,Otemachi; Hakodate; Oshima Subprefecture; Hokkaido Prefecture; 〒040-0063; Japan,hotel,cameraforensics
https://live.staticflickr.com/395/32147853150_cc1de48bb4_o.jpg,41.77131333333333,140.73439166666665,,,,,,Japan,Hotel Sun City Hakodate 1st parking lot; Omori Ichiban Dori; Matsukazecho; Hakodate; Oshima Subprefecture; Hokkaido Prefecture; 040-0063; Japan,hotel,cameraforensics
https://live.staticflickr.com/7397/10429906513_7e2abab342_o.jpg,41.766994472222216,140.71693419444443,,,,,,Japan,Suehirocho; Hakodate; Oshima Subprefecture; Hokkaido Prefecture; 040-0053; Japan,hotel,cameraforensics
https://live.staticflickr.com/2912/14432115244_d7aeb50cde_o.jpg,35.16981111111111,136.88348333333334,,,,,,Japan,郵便ポスト; タワーズテラス; 1-Chome Meieki; Nakamura Ward; Nagoya; Aichi Prefecture; 453-0002; Japan,hotel,cameraforensics
