url,latitude,longitude,date,height,width,media,copyRight,country,address,keyword,source
https://live.staticflickr.com/318/31684649946_bff5302b50_o.jpg,3.1472277777777795,101.71224166666669,,,,,,Malaysia,Bukit Bintang; Kuala Lumpur; 50200; Malaysia,hotel,cameraforensics
https://live.staticflickr.com/4358/36842117565_4d221f034e_o.jpg,3.1488861111111097,101.70809166666666,,,,,,Malaysia,The Mesui; 9; Jalan Mesui; Bukit Bintang; Kuala Lumpur; 50200; Malaysia,hotel,cameraforensics
https://live.staticflickr.com/5799/23128713033_ed3e43351a_o.jpg,3.14248055555556,101.70935833333333,,,,,,Malaysia,Time Square Tower B; Lorong 1/77A; Bukit Bintang; Kuala Lumpur; 50150; Malaysia,hotel,cameraforensics
http://static.panoramio.com/photos/original/103409599.jpg,3.147733333,101.71248666700001,,,,,,Malaysia,Grand Millenium; Jalan Bukit Bintang; Bukit Bintang; Kuala Lumpur; 50200; Malaysia,hotel,cameraforensics
https://live.staticflickr.com/522/32449506131_e3c5938a4e_o.jpg,3.14798611111111,101.71331111111112,,,,,,Malaysia,Pavilion; Jalan Bukit Bintang; Bukit Bintang; Kuala Lumpur; 50540; Malaysia,hotel,cameraforensics
https://live.staticflickr.com/275/32301079791_c155705884_o.jpg,3.14537777777778,101.7081,,,,,,Malaysia,Jalan Alor - night market; Jalan Bukit Bintang; Bukit Bintang; Kuala Lumpur; 50200; Malaysia,hotel,cameraforensics
https://live.staticflickr.com/5673/23262767655_b43cf90d58_o.jpg,3.1479611111111097,101.7123,,,,,,Malaysia,Grand Millenium; Jalan Bukit Bintang; Bukit Bintang; Kuala Lumpur; 50200; Malaysia,hotel,cameraforensics
https://live.staticflickr.com/5473/30816658312_bce897f890_o.jpg,3.14753333333333,101.71170833333332,,,,,,Malaysia,Food Basket; Jalan Bukit Bintang; Bukit Bintang; Kuala Lumpur; 50200; Malaysia,hotel,cameraforensics
https://live.staticflickr.com/4323/36063588471_219f98fe76_o.jpg,3.14878892888889,101.7133026122222,,,,,,Malaysia,Pavilion Kuala Lumpur; Jalan Bukit Bintang; Bukit Bintang; Kuala Lumpur; 50540; Malaysia,hotel,cameraforensics
https://live.staticflickr.com/6099/6283367979_457661cb95_o.jpg,3.14133333333333,101.70733333333334,,,,,,Malaysia,Eco World International; Jalan Hang Tuah; Bukit Bintang; Kuala Lumpur; 50150; Malaysia,hotel,cameraforensics
https://live.staticflickr.com/8503/8304802165_ed5bae729b_o.jpg,5.78444166666667,103.00688888888894,,,,,,Malaysia,Terengganu; Malaysia,hotel,cameraforensics
https://r-cf.bstatic.com/images/hotel/max1280x900/956/95644529.jpg,5.78096271,103.01674962,,,,,,Malaysia,Terengganu; Malaysia,hotel,cameraforensics
https://live.staticflickr.com/8223/8306280918_94ccc274bd_o.jpg,5.78444166666667,103.00688888888894,,,,,,Malaysia,Terengganu; Malaysia,hotel,cameraforensics
https://live.staticflickr.com/8074/8306279984_42733d73ea_o.jpg,5.78444166666667,103.00688888888894,,,,,,Malaysia,Terengganu; Malaysia,hotel,cameraforensics
https://live.staticflickr.com/8363/8305240283_8e6f2fb35a_o.jpg,5.78444166666667,103.00688888888894,,,,,,Malaysia,Terengganu; Malaysia,hotel,cameraforensics
https://live.staticflickr.com/8359/8304766257_9b435ccd4b_o.jpg,5.78444166666667,103.00688888888894,,,,,,Malaysia,Terengganu; Malaysia,hotel,cameraforensics
https://live.staticflickr.com/8262/8706953524_d5cf4f442a_o.jpg,5.78531305555556,103.01452138888894,,,,,,Malaysia,The Taaras; Laguna Redang Dive Centre; Malaysia,hotel,cameraforensics
https://r-cf.bstatic.com/images/hotel/max1280x900/290/29088476.jpg,5.78096271,103.01674962,,,,,,Malaysia,Terengganu; Malaysia,hotel,cameraforensics
https://live.staticflickr.com/8078/8305876198_0476b954ce_o.jpg,5.78444166666667,103.00688888888894,,,,,,Malaysia,Terengganu; Malaysia,hotel,cameraforensics
https://q-cf.bstatic.com/images/hotel/max1280x900/199/199842251.jpg,5.78425749,103.01397085,,,,,,Malaysia,The Taaras; Laguna Redang Dive Centre; Malaysia,hotel,cameraforensics
https://live.staticflickr.com/351/32372675220_a4e01f0f26_o.jpg,2.97014444444444,101.71318888888894,,,,,,Malaysia,IOI City Mall; IOI City Mall Underground Car Park; IOI Resort City; Sepang; Selangor; 62502; Malaysia,hotel,cameraforensics
https://q-cf.bstatic.com/images/hotel/max1280x900/198/198733210.jpg,2.9703556,101.7133055,,,,,,Malaysia,IOI City Mall; IOI City Mall Underground Car Park; IOI Resort City; Sepang; Selangor; 62502; Malaysia,hotel,cameraforensics
https://live.staticflickr.com/1891/43973372294_84e42a76fd_o.jpg,2.96946666666667,101.71339444444445,,,,,,Malaysia,IOI City Mall; IOI City Mall Underground Car Park; IOI Resort City; Sepang; Selangor; 62502; Malaysia,hotel,cameraforensics
https://live.staticflickr.com/612/31875702140_e5cebe3f3b_o.jpg,2.97000056796667,101.70569021013056,,,,,,Malaysia,Two IOI Square; South Klang Valley Expressway; IOI Resort City; Sepang; Selangor; 62502; Malaysia,hotel,cameraforensics
https://q-cf.bstatic.com/images/hotel/max1280x900/195/195287017.jpg,2.967136,101.709676,,,,,,Malaysia,IOI Resort City; Sepang; Selangor; 62502; Malaysia,hotel,cameraforensics
https://live.staticflickr.com/7413/15818963864_eda615d21f_o.jpg,2.96958899603889,101.71157761467778,,,,,,Malaysia,IOI City Mall; IOI City Mall Underground Car Park; IOI Resort City; Sepang; Selangor; 62502; Malaysia,hotel,cameraforensics
https://live.staticflickr.com/7375/13716263605_2927c3f1c7_o.jpg,2.96966666666667,101.70666666666666,,,,,,Malaysia,Putrajaya Marriott Hotel; South Klang Valley Expressway; IOI Resort City; Sepang; Selangor; 62502; Malaysia,hotel,cameraforensics
https://live.staticflickr.com/65535/48590790291_825cf2643a_o.jpg,2.97000555555556,101.7060472222222,,,,,,Malaysia,Putrajaya Marriott Hotel; South Klang Valley Expressway; IOI Resort City; Sepang; Selangor; 62502; Malaysia,hotel,cameraforensics
https://q-cf.bstatic.com/images/hotel/max1280x900/153/153893542.jpg,2.97029874,101.70840025,,,,,,Malaysia,IOI Resort City; Sepang; Selangor; 62502; Malaysia,hotel,cameraforensics
https://q-cf.bstatic.com/images/hotel/max1280x900/197/197182316.jpg,2.967136,101.709676,,,,,,Malaysia,IOI Resort City; Sepang; Selangor; 62502; Malaysia,hotel,cameraforensics
https://live.staticflickr.com/1471/26566609876_ef713e108f_o.jpg,5.47026822222222,100.24126433333332,,,,,,Malaysia,E.T. Budget Guesthouse; Batu Ferringgi Road; Batu Feringgi; Northeast Penang Island District; Penang; 11100; Malaysia,hotel,cameraforensics
https://live.staticflickr.com/8178/7961974358_788fea9e1a_o.jpg,5.46766666666667,100.24183333333332,,,,,,Malaysia,Hard Rock Cafe; Batu Ferringgi Road; Batu Feringgi; Northeast Penang Island District; Penang; 11100; Malaysia,hotel,cameraforensics
https://q-cf.bstatic.com/images/hotel/max1280x900/219/219388281.jpg,5.46997643,100.24381757,,,,,,Malaysia,Batu Feringgi; Northeast Penang Island District; Penang; 11100; Malaysia,hotel,cameraforensics
https://r-cf.bstatic.com/images/hotel/max1280x900/166/166344485.jpg,5.46622774,100.24144381,,,,,,Malaysia,Bayview Beach Resort; Batu Ferringgi Road; Batu Feringgi; Northeast Penang Island District; Penang; 11100; Malaysia,hotel,cameraforensics
https://q-cf.bstatic.com/images/hotel/max1280x900/121/121817903.jpg,5.469859,100.244106,,,,,,Malaysia,Boatman's; Batu Ferringgi Road; Batu Feringgi; Northeast Penang Island District; Penang; 11100; Malaysia,hotel,cameraforensics
https://live.staticflickr.com/1407/5184114460_455387b63c_o.jpg,5.468194444444442,100.24138888888888,,,,,,Malaysia,Hard Rock Hotel Penang; Batu Ferringgi Road; Batu Feringgi; Northeast Penang Island District; Penang; 11100; Malaysia,hotel,cameraforensics
https://37.media.tumblr.com/f10867bfc89b348d8ceae796d8d3755a/tumblr_on9epa4QtC1sdkk39o1_1280.jpg,5.4720866666666685,100.24486333333333,,,,,,Malaysia,Tandas & Shower; Batu Ferringgi Road; Batu Feringgi; Northeast Penang Island District; Penang; 11100; Malaysia,hotel,cameraforensics
https://drscdn.500px.org/photo/48395192/q%3D80_m%3D2000/b64189d221271480bea1ca7aec469ef0,5.4685,100.2415,,,,,,Malaysia,Hard Rock Hotel Penang; Batu Ferringgi Road; Batu Feringgi; Northeast Penang Island District; Penang; 11100; Malaysia,hotel,cameraforensics
https://live.staticflickr.com/3683/10012306476_e429354591_o.jpg,5.47061666666667,100.24428333333331,,,,,,Malaysia,Batu Feringgi; Northeast Penang Island District; Penang; 11100; Malaysia,hotel,cameraforensics
https://live.staticflickr.com/4710/25979046298_5448374c34_o.jpg,5.46766111111111,100.24139444444445,,,,,,Malaysia,Hard Rock Hotel Penang; Batu Ferringgi Road; Batu Feringgi; Northeast Penang Island District; Penang; 11100; Malaysia,hotel,cameraforensics
https://live.staticflickr.com/4571/27069784169_103b8bc4b8_o.jpg,5.477195,100.25046833333332,,,,,,Malaysia,Golden Sands Resort by Shangri-La; Batu Feringgi Road; Batu Feringgi; Northeast Penang Island District; Penang; 11100; Malaysia,hotel,cameraforensics
https://live.staticflickr.com/4109/5003975024_b4f6bb3f0f_o.jpg,5.47254991531111,100.24710845946669,,,,,,Malaysia,Batu Ferringgi Road; Batu Feringgi; Northeast Penang Island District; Penang; 11100; Malaysia,hotel,cameraforensics
https://r-cf.bstatic.com/images/hotel/max1280x900/611/61172848.jpg,5.47603195,100.2504319,,,,,,Malaysia,Lone Pine Hotel; 97; Batu Ferringgi Road; Batu Feringgi; Northeast Penang Island District; Penang; 11100; Malaysia,hotel,cameraforensics
https://live.staticflickr.com/65535/48693344463_d46385b5ab_o.jpg,5.4765527777777825,100.250275,,,,,,Malaysia,Lone Pine Hotel; 97; Batu Ferringgi Road; Batu Feringgi; Northeast Penang Island District; Penang; 11100; Malaysia,hotel,cameraforensics
https://live.staticflickr.com/7164/6423241705_fbd71852e7_o.jpg,5.4739397222222195,100.24722944444444,,,,,,Malaysia,Golden Thai Seafood Village; 69A; Batu Ferringgi Road; Batu Feringgi; Northeast Penang Island District; Penang; 11100; Malaysia,hotel,cameraforensics
https://q-cf.bstatic.com/images/hotel/max1280x900/153/153862480.jpg,5.47326471,100.25155485,,,,,,Malaysia,Batu Feringgi; Northeast Penang Island District; Penang; 11100; Malaysia,hotel,cameraforensics
https://r-cf.bstatic.com/images/hotel/max1280x900/927/92709473.jpg,5.46959078,100.24900069,,,,,,Malaysia,The International School of Penang (Uplands); Jalan Sungai Satu; Batu Feringgi; Northeast Penang Island District; Penang; 11100; Malaysia,hotel,cameraforensics
https://live.staticflickr.com/7431/13180710204_0c190c3f7a_o.jpg,5.4647666666666685,100.29119166666666,,,,,,Malaysia,Gusto Cafe; Jalan Sungai Kelian; Permai Village; Tanjung Bungah; Northeast Penang Island District; Penang; 11200; Malaysia,hotel,cameraforensics
https://live.staticflickr.com/7030/6462116349_a7955b64dd_o.jpg,5.465,100.29566666666666,,,,,,Malaysia,Penang Swimming Club; Tanjong Bungah Road; Sri Golden Bay Condominium; Tanjung Bungah; Northeast Penang Island District; Penang; 11200; Malaysia,hotel,cameraforensics
https://r-cf.bstatic.com/images/hotel/max1280x900/406/40692696.jpg,5.4665,100.2921,,,,,,Malaysia,Copthorne Orchid Hotel; Tanjong Bungah Road; Tanjung Bungah; Northeast Penang Island District; Penang; 11200; Malaysia,hotel,cameraforensics
https://live.staticflickr.com/5530/10099836933_b22d0dcab3_o.jpg,5.46643055555556,100.29521944444444,,,,,,Malaysia,Tanjung Bungah; Northeast Penang Island District; Penang; 11200; Malaysia,hotel,cameraforensics
https://live.staticflickr.com/500/31174704943_9911cb01df_o.jpg,5.465480555555558,100.29448611111113,,,,,,Malaysia,Tanjong Bungah Road; Tanjung Bungah; Northeast Penang Island District; Penang; 11200; Malaysia,hotel,cameraforensics
https://live.staticflickr.com/7159/6462162379_ca7968e2e4_o.jpg,5.465,100.29566666666666,,,,,,Malaysia,Penang Swimming Club; Tanjong Bungah Road; Sri Golden Bay Condominium; Tanjung Bungah; Northeast Penang Island District; Penang; 11200; Malaysia,hotel,cameraforensics
https://live.staticflickr.com/7024/6462135949_548f1860ba_o.jpg,5.465,100.29566666666666,,,,,,Malaysia,Penang Swimming Club; Tanjong Bungah Road; Sri Golden Bay Condominium; Tanjung Bungah; Northeast Penang Island District; Penang; 11200; Malaysia,hotel,cameraforensics
https://live.staticflickr.com/1817/29012065707_22a94aa004_o.jpg,5.4657555555555595,100.29472222222222,,,,,,Malaysia,Tingkat Laut 1; Tanjung Bungah; Northeast Penang Island District; Penang; 11200; Malaysia,hotel,cameraforensics
https://live.staticflickr.com/4155/34493715595_da0545f6f1_o.jpg,5.46752222222222,100.28946111111112,,,,,,Malaysia,Rainbow Paradise Beach Resort; 527; Tanjong Bungah Road; Tanjung Bungah; Northeast Penang Island District; Penang; 11200; Malaysia,hotel,cameraforensics
https://live.staticflickr.com/4155/34276423502_3be5fe1c85_o.jpg,5.46752777777778,100.28937222222223,,,,,,Malaysia,Rainbow Paradise Beach Resort; 527; Tanjong Bungah Road; Tanjung Bungah; Northeast Penang Island District; Penang; 11200; Malaysia,hotel,cameraforensics
https://live.staticflickr.com/4662/26617904598_34b8432c0c_o.jpg,6.0123,116.04925138888888,,,,,,Malaysia,Gayana resort; Sutera Harbour Boulevard; Kota Kinabalu; Sabah; 8810; Malaysia,hotel,cameraforensics
https://live.staticflickr.com/1566/24138777510_0c23019122_o.jpg,6.01911111111111,116.0474027777778,,,,,,Malaysia,Kota Kinabalu; Sabah; 88804; Malaysia,hotel,cameraforensics
https://live.staticflickr.com/1592/23802461813_2b19e21742_o.jpg,6.018855555555558,116.04734722222223,,,,,,Malaysia,Kota Kinabalu; Sabah; 88804; Malaysia,hotel,cameraforensics
https://r-cf.bstatic.com/images/hotel/max1280x900/146/146698668.jpg,6.01119843,116.05004847,,,,,,Malaysia,Gayana resort; Sutera Harbour Boulevard; Kota Kinabalu; Sabah; 8810; Malaysia,hotel,cameraforensics
https://live.staticflickr.com/683/31468842653_944238c134_o.jpg,6.01833333333333,116.04666666666668,,,,,,Malaysia,Kota Kinabalu; Sabah; 88804; Malaysia,hotel,cameraforensics
https://live.staticflickr.com/4304/36060058255_882de189ea_o.jpg,6.01825833333333,116.04792777777777,,,,,,Malaysia,Kota Kinabalu; Sabah; 88804; Malaysia,hotel,cameraforensics
https://live.staticflickr.com/4653/38678475910_14f0c22e73_o.jpg,6.01220638888889,116.04889472222222,,,,,,Malaysia,Gayana Island Eco Resort; Sutera Harbour Boulevard; Kota Kinabalu; Sabah; 8810; Malaysia,hotel,cameraforensics
https://live.staticflickr.com/751/31902575830_be09266195_o.jpg,6.018888888888887,116.0475,,,,,,Malaysia,Kota Kinabalu; Sabah; 88804; Malaysia,hotel,cameraforensics
https://live.staticflickr.com/4330/35671386960_1a20cd487e_o.jpg,6.0174277777777805,116.04761388888888,,,,,,Malaysia,Kota Kinabalu; Sabah; 88804; Malaysia,hotel,cameraforensics
https://live.staticflickr.com/65535/48788165493_85f054d374_o.jpg,6.01758333333333,116.04646944444444,,,,,,Malaysia,Kota Kinabalu; Sabah; 88804; Malaysia,hotel,cameraforensics
https://live.staticflickr.com/940/29800199558_14d6c6f5c7_o.jpg,6.29451666666667,99.6968,,,,,,Malaysia,Rebak Marina; Jalan Pantai Cenang; Kampung Temoyong; Pantai Cenang; Langkawi; Kedah; 0700; Malaysia,hotel,cameraforensics
https://q-cf.bstatic.com/images/hotel/max1280x900/213/213304162.jpg,6.29450438,99.70029652,,,,,,Malaysia,Rebak Marina; Jalan Pantai Cenang; Kampung Temoyong; Pantai Cenang; Langkawi; Kedah; 0700; Malaysia,hotel,cameraforensics
https://r-cf.bstatic.com/images/hotel/max1280x900/448/44860665.jpg,6.29450438,99.70029652,,,,,,Malaysia,Rebak Marina; Jalan Pantai Cenang; Kampung Temoyong; Pantai Cenang; Langkawi; Kedah; 0700; Malaysia,hotel,cameraforensics
https://drscdn.500px.org/photo/5980801/q%3D80_m%3D2000/v2?webp=true&sig=1c90297cee3b8a6fabf923212d502522f47f147c1c2c375616f110304e99ef4e,6.29271138888889,99.6965,,,,,,Malaysia,Rebak Marina; Jalan Pantai Cenang; Kampung Temoyong; Pantai Cenang; Langkawi; Kedah; 0700; Malaysia,hotel,cameraforensics
https://live.staticflickr.com/847/43623589672_3050928687_o.jpg,6.29535277777778,99.69718055555555,,,,,,Malaysia,Rebak Marina; Jalan Pantai Cenang; Kampung Temoyong; Pantai Cenang; Langkawi; Kedah; 0700; Malaysia,hotel,cameraforensics
https://q-cf.bstatic.com/images/hotel/max1280x900/689/68989405.jpg,6.29450438,99.70029652,,,,,,Malaysia,Rebak Marina; Jalan Pantai Cenang; Kampung Temoyong; Pantai Cenang; Langkawi; Kedah; 0700; Malaysia,hotel,cameraforensics
https://live.staticflickr.com/8518/8567419887_aa46933448_o.jpg,6.29533333333333,99.698,,,,,,Malaysia,Rebak Marina; Jalan Pantai Cenang; Kampung Temoyong; Pantai Cenang; Langkawi; Kedah; 0700; Malaysia,hotel,cameraforensics
https://live.staticflickr.com/7347/9155811567_45e33514e7_o.jpg,6.2940366388888895,99.70139166666668,,,,,,Malaysia,Rebak Marina; Jalan Pantai Cenang; Kampung Temoyong; Pantai Cenang; Langkawi; Kedah; 0700; Malaysia,hotel,cameraforensics
https://drscdn.500px.org/photo/6322567/q%3D80_m%3D2000/67ec1f617847ff16c423e51b187d1541,6.29346138888889,99.70052638888887,,,,,,Malaysia,Rebak Marina; Jalan Pantai Cenang; Kampung Temoyong; Pantai Cenang; Langkawi; Kedah; 0700; Malaysia,hotel,cameraforensics
https://live.staticflickr.com/7319/27417586775_3d3d758652_o.jpg,6.29421388888889,99.70162222222223,,,,,,Malaysia,Rebak Marina; Jalan Pantai Cenang; Kampung Temoyong; Pantai Cenang; Langkawi; Kedah; 0700; Malaysia,hotel,cameraforensics
https://live.staticflickr.com/7425/26299674514_30ce0ee95b_o.jpg,5.419516194444442,100.33005027777777,,,,,,Malaysia,moOdy cow; 170; Transfer Road; George Town; Northeast Penang Island District; Penang; 10050; Malaysia,hotel,cameraforensics
http://static.panoramio.com/photos/original/88129694.jpg,5.420277,100.334462,,,,,,Malaysia,Aik Hua School; Muntri Street; Little India; George Town; Northeast Penang Island District; Penang; 10200; Malaysia,hotel,cameraforensics
https://live.staticflickr.com/7612/16830575611_7574432a08_o.jpg,5.422894186111113,100.3410221302778,,,,,,Malaysia,Padang Kota Esplanade; Duke Street; Little India; George Town; Northeast Penang Island District; Penang; 10200; Malaysia,hotel,cameraforensics
https://live.staticflickr.com/5526/29797263543_15f6154721_o.jpg,5.41735,100.335075,,,,,,Malaysia,Lagenda cafe; Buckingham Street; Little India; George Town; Northeast Penang Island District; Penang; 10200; Malaysia,hotel,cameraforensics
https://live.staticflickr.com/5350/30832058295_d68869b60a_o.jpg,5.4197222222222186,100.3372222222222,,,,,,Malaysia,23 Love Lane; 23; Love Lane; Little India; George Town; Northeast Penang Island District; Penang; 10200; Malaysia,hotel,cameraforensics
https://live.staticflickr.com/8067/28592361663_3b3089ec66_o.jpg,5.422487,100.34169483333334,,,,,,Malaysia,Padang Kota Esplanade; Duke Street; Little India; George Town; Northeast Penang Island District; Penang; 10200; Malaysia,hotel,cameraforensics
https://live.staticflickr.com/5739/30125261500_128741b75e_o.jpg,5.419830555555558,100.34156944444445,,,,,,Malaysia,10; Penang Street; Little India; George Town; Northeast Penang Island District; Penang; 10200; Malaysia,hotel,cameraforensics
https://live.staticflickr.com/8397/28210308040_726912cddd_o.jpg,5.4179999999999975,100.34100000000001,,,,,,Malaysia,Sri Ananda Bahwan Restaurant (Vegetarian); Penang Street; Little India; George Town; Northeast Penang Island District; Penang; 10200; Malaysia,hotel,cameraforensics
https://live.staticflickr.com/2852/10098317536_aed19bc53d_o.jpg,5.41934166666667,100.3374,,,,,,Malaysia,The Indian Boatman; Stewart Lane; Little India; George Town; Northeast Penang Island District; Penang; 10200; Malaysia,hotel,cameraforensics
https://live.staticflickr.com/7149/13793629325_2c7b053ef3_o.jpg,5.42401166666667,100.33580333333332,,,,,,Malaysia,Eastern & Oriental Hotel; 10; Farquhar Street; Little India; George Town; Northeast Penang Island District; Penang; 10200; Malaysia,hotel,cameraforensics
https://live.staticflickr.com/598/32528109056_39893d6ae8_o.jpg,5.4152777777777805,100.3375,,,,,,Malaysia,80; Armenian Street; Little India; George Town; Northeast Penang Island District; Penang; 10200; Malaysia,hotel,cameraforensics
https://live.staticflickr.com/8824/16603895493_206f9a3889_o.jpg,5.415644444444442,100.32903611111112,,,,,,Malaysia,5.11 tactical; Bertam Lane; George Town; Northeast Penang Island District; Penang; 10000; Malaysia,hotel,cameraforensics
https://live.staticflickr.com/4189/34239179572_8d9c47864a_o.jpg,5.4144166666666695,100.33740277777778,,,,,,Malaysia,Cannon Square; Lee Jetty; George Town; Northeast Penang Island District; Penang; 10300; Malaysia,hotel,cameraforensics
https://live.staticflickr.com/5745/31131369062_a2ca560303_o.jpg,5.415286111111112,100.33885277777777,,,,,,Malaysia,Little Boy with Pet Dinosaur mural; Ah Quee Street; Little India; George Town; Northeast Penang Island District; Penang; 10200; Malaysia,hotel,cameraforensics
https://live.staticflickr.com/4237/35642768752_92c255d11f_o.jpg,5.41514166666667,100.33475555555556,,,,,,Malaysia,Carnarvon Street; Little India; George Town; Northeast Penang Island District; Penang; 10200; Malaysia,hotel,cameraforensics
https://live.staticflickr.com/7034/26303015814_f7ed6c2ce8_o.jpg,5.41691666666667,100.34049166666668,,,,,,Malaysia,East Indies Hotel; China Street; Little India; George Town; Northeast Penang Island District; Penang; 10200; Malaysia,hotel,cameraforensics
https://live.staticflickr.com/4263/34951718374_a6cd314685_o.jpg,3.14349675,101.61469266666668,,,,,,Malaysia,Sekolah Menengah Kebangsaan Bandar Utama; Persiaran Bandar Utama; BU2; Bandar Utama; Petaling Jaya; Selangor; 47800; Malaysia,hotel,cameraforensics
https://live.staticflickr.com/1060/4594718101_dfc4d8fc11_o.jpg,3.1418333333333304,101.61233333333334,,,,,,Malaysia,Jalan BU 1/4; BU1; Bandar Utama; Petaling Jaya; Selangor; 47800; Malaysia,hotel,cameraforensics
https://68.media.tumblr.com/e4ac63fbd1e0222aba51a5140f7422b8/tumblr_oj5z8ziq1l1uhz9aho1_1280.jpg,3.1485,101.61664444444445,,,,,,Malaysia,1 Utama (old wing); Jalan Burhanuddin Helmi; BU3; Mutiara Damansara; Petaling Jaya; Selangor; 47800; Malaysia,hotel,cameraforensics
https://live.staticflickr.com/1523/26574074232_704890e464_o.jpg,3.14705833333333,101.6169277777778,,,,,,Malaysia,Plaza IBM; 8; Persiaran Bandar Utama; BU2; Damansara Utama; Petaling Jaya; Selangor; 47800; Malaysia,hotel,cameraforensics
https://live.staticflickr.com/6100/6305414042_12163ff2e0_o.jpg,3.1463527777777798,101.61675555555556,,,,,,Malaysia,First Avenue; BU2; Damansara Utama; Petaling Jaya; Selangor; 47800; Malaysia,hotel,cameraforensics
https://live.staticflickr.com/8232/8584144239_2edfab7b37_o.jpg,3.14743027777778,101.61468027777778,,,,,,Malaysia,Dataran Bandar Utama; BU2; Damansara Utama; Petaling Jaya; Selangor; 47800; Malaysia,hotel,cameraforensics
https://live.staticflickr.com/65535/48935054462_c7c205a94f_o.jpg,3.14798355083333,101.61692047111113,,,,,,Malaysia,1 Utama (old wing); Jalan Burhanuddin Helmi; BU3; Mutiara Damansara; Petaling Jaya; Selangor; 47800; Malaysia,hotel,cameraforensics
https://live.staticflickr.com/7178/6915480281_1e1c431072_o.jpg,3.15016666666667,101.61583333333333,,,,,,Malaysia,1 Utama (new wing); Damansara–Puchong Expressway; Kuala Lumpur; 47800; Malaysia,hotel,cameraforensics
https://live.staticflickr.com/533/18519360665_f44607c0b0_o.jpg,3.1502222222222205,101.61747777777781,,,,,,Malaysia,Jalan Burhanuddin Helmi; BU3; Taman Tun Dr Ismail; TTDI; Petaling Jaya; Selangor; 47800; Malaysia,hotel,cameraforensics
https://live.staticflickr.com/4592/24436965107_0c385fa38c_o.jpg,3.14137777777778,101.61548611111112,,,,,,Malaysia,Jalan 5; Pelangi Utama Condominium; Damansara Utama; Petaling Jaya; Selangor; 47800; Malaysia,hotel,cameraforensics
https://live.staticflickr.com/949/41179735915_2cbd2b724e_o.jpg,5.794791666666669,102.89359166666668,,,,,,Malaysia,Diving Center PADI; Terengganu; Malaysia,hotel,cameraforensics
https://r-cf.bstatic.com/images/hotel/max1280x900/187/187566933.jpg,5.79574709,102.89628625,,,,,,Malaysia,Diving Center PADI; Terengganu; Malaysia,hotel,cameraforensics
https://q-cf.bstatic.com/images/hotel/max1280x900/187/187569504.jpg,5.79574709,102.89628625,,,,,,Malaysia,Diving Center PADI; Terengganu; Malaysia,hotel,cameraforensics
https://q-cf.bstatic.com/images/hotel/max1280x900/163/163925590.jpg,5.79480885,102.893309,,,,,,Malaysia,Diving Center PADI; Terengganu; Malaysia,hotel,cameraforensics
https://live.staticflickr.com/1649/25647068094_434c0699a6_o.jpg,5.792975,102.89109666666668,,,,,,Malaysia,Sari Pacifica Lang Tengah Island Resort; Terengganu; Malaysia,hotel,cameraforensics
https://live.staticflickr.com/1618/25503543604_8c0927c975_o.jpg,5.79489722222222,102.89363055555555,,,,,,Malaysia,Diving Center PADI; Terengganu; Malaysia,hotel,cameraforensics
https://live.staticflickr.com/1489/26082392226_4236dded10_o.jpg,5.79644722222222,102.89266111111112,,,,,,Malaysia,Diving Center PADI; Terengganu; Malaysia,hotel,cameraforensics
https://live.staticflickr.com/1461/26225767166_4c2972244b_o.jpg,5.79461333333333,102.89228333333334,,,,,,Malaysia,Diving Center PADI; Terengganu; Malaysia,hotel,cameraforensics
https://live.staticflickr.com/1639/26108321845_d9f8508789_o.jpg,5.79608055555556,102.89167777777777,,,,,,Malaysia,Diving Center PADI; Terengganu; Malaysia,hotel,cameraforensics
https://live.staticflickr.com/1653/25503240024_e457372c3d_o.jpg,5.79468333333333,102.89302777777776,,,,,,Malaysia,Diving Center PADI; Terengganu; Malaysia,hotel,cameraforensics
https://live.staticflickr.com/7022/13793882775_119fae974b_o.jpg,5.47930166666667,100.25286666666666,,,,,,Malaysia,Shangri-La's Rasa Sayang Resort & Spa; Batu Feringgi Road; Batu Feringgi; Northeast Penang Island District; Penang; 11100; Malaysia,hotel,cameraforensics
https://live.staticflickr.com/7770/29657775271_388aa21d90_o.jpg,5.4787722222222195,100.25595,,,,,,Malaysia,Sri Sayang; Jalan Bayu; Batu Feringgi; Northeast Penang Island District; Penang; 11100; Malaysia,hotel,cameraforensics
https://r-cf.bstatic.com/images/hotel/max1280x900/153/153274714.jpg,5.4756480000000005,100.255059,,,,,,Malaysia,Lilitan Sungai Emas; Batu Feringgi; Northeast Penang Island District; Penang; 11100; Malaysia,hotel,cameraforensics
https://r-cf.bstatic.com/images/hotel/max1280x900/786/78608867.jpg,5.47863478,100.25613602,,,,,,Malaysia,Sri Sayang; Jalan Bayu; Batu Feringgi; Northeast Penang Island District; Penang; 11100; Malaysia,hotel,cameraforensics
https://q-cf.bstatic.com/images/hotel/max1280x900/222/222498145.jpg,5.47881136,100.25612118,,,,,,Malaysia,Sri Sayang; Jalan Bayu; Batu Feringgi; Northeast Penang Island District; Penang; 11100; Malaysia,hotel,cameraforensics
https://r-cf.bstatic.com/images/hotel/max1280x900/699/69936512.jpg,5.47848885,100.25605559,,,,,,Malaysia,Batu Feringgi; Northeast Penang Island District; Penang; 11100; Malaysia,hotel,cameraforensics
https://live.staticflickr.com/1519/24631220716_f74dd49d5c_o.jpg,3.1564563888888904,101.71820833333334,,,,,,Malaysia,Oval Condo; West Tower; 5; Lorong Kuda; Ampang; Kuala Lumpur; 50450; Malaysia,hotel,cameraforensics
https://live.staticflickr.com/5763/21274771409_4651352bcb_o.jpg,3.15033333333333,101.71,,,,,,Malaysia,Selections Groceries; Jalan Raja Chulan; Bukit Bintang; Kuala Lumpur; 50540; Malaysia,hotel,cameraforensics
https://live.staticflickr.com/7036/27602404092_5999c99059_o.jpg,3.1508388888888903,101.71288333333334,,,,,,Malaysia,Hakka; 90; Jalan Raja Chulan; Bukit Bintang; Kuala Lumpur; 50200; Malaysia,hotel,cameraforensics
https://live.staticflickr.com/8689/28850414121_a977a8e88a_o.jpg,3.1508333333333303,101.71444444444445,,,,,,Malaysia,4; Jalan Conlay; Bukit Bintang; Kuala Lumpur; 50450; Malaysia,hotel,cameraforensics
https://live.staticflickr.com/3356/12990863344_173888923f_o.jpg,3.1493138888888903,101.71304444444445,,,,,,Malaysia,Pavilion Kuala Lumpur; Jalan Bukit Bintang; Bukit Bintang; Kuala Lumpur; 50540; Malaysia,hotel,cameraforensics
https://live.staticflickr.com/3752/18542205624_3c65c3dc1e_o.jpg,3.1492118611111097,101.71448516666666,,,,,,Malaysia,Pavilion Residences Tower 1; Jalan Raja Chulan; Bukit Bintang; Kuala Lumpur; 50540; Malaysia,hotel,cameraforensics
https://live.staticflickr.com/5004/5309099566_fa11493bd0_o.jpg,3.15463444444444,101.71408333333332,,,,,,Malaysia,KLCC Convention Center; KLCC-Bukit Bintang Pedestrian Walkway; Bukit Bintang; Kuala Lumpur; 50088; Malaysia,hotel,cameraforensics
https://live.staticflickr.com/4760/40488604381_450d8fec15_o.jpg,6.012144999999999,116.04900638888887,,,,,,Malaysia,Gayana Island Eco Resort; Sutera Harbour Boulevard; Kota Kinabalu; Sabah; 8810; Malaysia,hotel,cameraforensics
https://live.staticflickr.com/705/32589521751_86f985eaa9_o.jpg,3.1501315,101.70873266666666,,,,,,Malaysia,Menara Boustead; Lorong Ceylon; Bukit Bintang; Kuala Lumpur; 50200; Malaysia,hotel,cameraforensics
http://static.panoramio.com/photos/original/123861464.jpg,3.15626666666667,101.71237222222223,,,,,,Malaysia,Suria KLCC; Lorong Kuda; Kampung Baru; Kuala Lumpur; 50400; Malaysia,hotel,cameraforensics
https://live.staticflickr.com/1460/26224057422_74ebb20726_o.jpg,3.15683888888889,101.71330277777778,,,,,,Malaysia,Small Police Building; Pedestrian Tunnel KLCC-KL Convention Center; Bukit Bintang; Kuala Lumpur; 50088; Malaysia,hotel,cameraforensics
https://live.staticflickr.com/8429/7743223012_185ea1c1d3_o.jpg,2.2990763888888903,102.31040305555555,,,,,,Malaysia,Hang Tuah Jaya Municipal Council; Alor Gajah; Malacca; 76100; Malaysia,hotel,cameraforensics
https://r-cf.bstatic.com/images/hotel/max1280x900/165/165817954.jpg,2.297469,102.30901999999999,,,,,,Malaysia,Durian Tunggal; Hang Tuah Jaya Municipal Council; Alor Gajah; Malacca; 76100; Malaysia,hotel,cameraforensics
https://r-cf.bstatic.com/images/hotel/max1280x900/162/162954870.jpg,2.297469,102.30901999999999,,,,,,Malaysia,Durian Tunggal; Hang Tuah Jaya Municipal Council; Alor Gajah; Malacca; 76100; Malaysia,hotel,cameraforensics
https://live.staticflickr.com/2882/11472013573_aacd901a9a_o.jpg,2.30166666666667,102.30916666666668,,,,,,Malaysia,Plaza Toll PLUS Air Keroh; Jalan Tun Abdul Razak; Hang Tuah Jaya Municipal Council; Alor Gajah; Malacca; 76100; Malaysia,hotel,cameraforensics
https://q-cf.bstatic.com/images/hotel/max1280x900/165/165818019.jpg,2.297469,102.30901999999999,,,,,,Malaysia,Durian Tunggal; Hang Tuah Jaya Municipal Council; Alor Gajah; Malacca; 76100; Malaysia,hotel,cameraforensics
https://q-cf.bstatic.com/images/hotel/max1280x900/196/19669599.jpg,2.29871748,102.31163174,,,,,,Malaysia,Hang Tuah Jaya Municipal Council; Alor Gajah; Malacca; 76100; Malaysia,hotel,cameraforensics
https://q-cf.bstatic.com/images/hotel/max1280x900/162/162955641.jpg,2.297469,102.30901999999999,,,,,,Malaysia,Durian Tunggal; Hang Tuah Jaya Municipal Council; Alor Gajah; Malacca; 76100; Malaysia,hotel,cameraforensics
https://q-cf.bstatic.com/images/hotel/max1280x900/196/19670246.jpg,2.29871748,102.31163174,,,,,,Malaysia,Hang Tuah Jaya Municipal Council; Alor Gajah; Malacca; 76100; Malaysia,hotel,cameraforensics
https://r-cf.bstatic.com/images/hotel/max1280x900/198/198012782.jpg,2.29871748,102.31163174,,,,,,Malaysia,Hang Tuah Jaya Municipal Council; Alor Gajah; Malacca; 76100; Malaysia,hotel,cameraforensics
https://r-cf.bstatic.com/images/hotel/max1280x900/162/162955793.jpg,2.297469,102.30901999999999,,,,,,Malaysia,Durian Tunggal; Hang Tuah Jaya Municipal Council; Alor Gajah; Malacca; 76100; Malaysia,hotel,cameraforensics
https://live.staticflickr.com/368/19988334615_414f31383b_o.jpg,5.77322777777778,103.03430277777778,,,,,,Malaysia,Terengganu; Malaysia,hotel,cameraforensics
https://live.staticflickr.com/722/31794398143_4620ba2a74_o.jpg,5.77286388888889,103.03333333333332,,,,,,Malaysia,Terengganu; Malaysia,hotel,cameraforensics
https://live.staticflickr.com/7192/6963862113_611b44bf81_o.jpg,5.77421820027778,103.03331207638894,,,,,,Malaysia,Terengganu; Malaysia,hotel,cameraforensics
https://live.staticflickr.com/1652/26180438890_b71f087aab_o.jpg,5.77291388888889,103.03343888888894,,,,,,Malaysia,Terengganu; Malaysia,hotel,cameraforensics
https://live.staticflickr.com/2943/15369123106_1a446043f4_o.jpg,5.7723063888888895,103.0332322222222,,,,,,Malaysia,Redang Beach Resort; Laguna Redang Dive Centre; Malaysia,hotel,cameraforensics
https://live.staticflickr.com/362/19800178138_2b35a087db_o.jpg,5.772175,103.03336388888887,,,,,,Malaysia,Redang Beach Resort; Laguna Redang Dive Centre; Malaysia,hotel,cameraforensics
https://live.staticflickr.com/4315/35918052100_8bc02e766b_o.jpg,5.7746582030555595,103.03322601305555,,,,,,Malaysia,Terengganu; Malaysia,hotel,cameraforensics
https://live.staticflickr.com/5472/14122122853_5970da639f_o.jpg,5.773975,103.03355277777777,,,,,,Malaysia,Terengganu; Malaysia,hotel,cameraforensics
https://live.staticflickr.com/981/28424518328_85c992cd71_o.jpg,5.77075,103.03311111111113,,,,,,Malaysia,Terengganu; Malaysia,hotel,cameraforensics
https://r-cf.bstatic.com/images/hotel/max1280x900/163/163071716.jpg,5.77702686,103.03292572,,,,,,Malaysia,Terengganu; Malaysia,hotel,cameraforensics
https://live.staticflickr.com/1582/24598566991_32f6676719_o.jpg,3.13418888888889,101.68599722222223,,,,,,Malaysia,KL Sentral; 1 Sentral to KL Sentral Glass-Sheltered Pedestrian Corridor; Brickfields; Kuala Lumpur; 50470; Malaysia,hotel,cameraforensics
https://live.staticflickr.com/5473/9697312491_cbb0f96dc7_o.jpg,3.14266666666667,101.68783333333332,,,,,,Malaysia,Kuala Lumpur Bird Park; 920; Jalan Cenderawasih; Kuala Lumpur; 50480; Malaysia,hotel,cameraforensics
https://live.staticflickr.com/7755/27702975385_36053acfd0_o.jpg,3.13911111111111,101.69262777777777,,,,,,Malaysia,KTM Berhad Headquarters; Jalan Sultan Hishamuddin; Brickfields; Kuala Lumpur; 50566; Malaysia,hotel,cameraforensics
https://live.staticflickr.com/328/19374063353_460f9dd86a_o.jpg,3.13970333333333,101.68908,,,,,,Malaysia,Planetarium Negara; Jalan Perdana; Brickfields; Kuala Lumpur; 50566; Malaysia,hotel,cameraforensics
https://live.staticflickr.com/7762/18300374755_600ec2dceb_o.jpg,3.13335833333333,101.6856222222222,,,,,,Malaysia,Jalan Stesen Sentral; Brickfields; Kuala Lumpur; 50470; Malaysia,hotel,cameraforensics
https://live.staticflickr.com/348/31132924564_94a5fb8a08_o.jpg,3.14068888888889,101.68449444444445,,,,,,Malaysia,Persiaran Tuanku Ja'Afar; Brickfields; Kuala Lumpur; 50566; Malaysia,hotel,cameraforensics
https://live.staticflickr.com/4295/36033770772_d25987435b_o.jpg,3.1307861111111097,101.68439444444445,,,,,,Malaysia,Menara Shell; Jalan Tun Sambanthan; Brickfields; Kuala Lumpur; 50470; Malaysia,hotel,cameraforensics
https://live.staticflickr.com/2868/32964325586_b551c621ed_o.jpg,3.13515,101.68575277777781,,,,,,Malaysia,2B-10-3; Jalan Stesen Sentral; Brickfields; Kuala Lumpur; 50566; Malaysia,hotel,cameraforensics
http://static.panoramio.com/photos/original/35023434.jpg,3.1390030384055603,101.68685150146388,,,,,,Malaysia,Jalan Damansara; Brickfields; Kuala Lumpur; 50566; Malaysia,hotel,cameraforensics
https://live.staticflickr.com/2844/33812198895_b3fc660a92_o.jpg,3.13414444444444,101.6850277777778,,,,,,Malaysia,Jalan Stesen Sentral; Brickfields; Kuala Lumpur; 50470; Malaysia,hotel,cameraforensics
https://live.staticflickr.com/7378/16337154360_75683cdf6b_o.jpg,3.06830594444444,101.60424041666668,,,,,,Malaysia,Sunway Campus; Jalan Universiti; PJS 11; Sunway City; Subang Jaya; Selangor; 46150; Malaysia,hotel,cameraforensics
https://live.staticflickr.com/2811/11850287593_5215340074_o.jpg,3.068025,101.60441666666668,,,,,,Malaysia,Sunway Campus; Jalan Universiti; PJS 11; Sunway City; Subang Jaya; Selangor; 46150; Malaysia,hotel,cameraforensics
https://live.staticflickr.com/4365/36471759265_2376d4ce30_o.jpg,3.06577222222222,101.60535555555555,,,,,,Malaysia,Sun-U Residence Car Park; Jalan Lagoon Selatan; PJS 11; Sunway City; Subang Jaya; Selangor; 47500; Malaysia,hotel,cameraforensics
https://live.staticflickr.com/7647/28308295433_a6f5b411b4_o.jpg,3.0691027777777795,101.60482777777777,,,,,,Malaysia,Sunway Campus; Jalan Universiti; PJS 11; Sunway City; Subang Jaya; Selangor; 46150; Malaysia,hotel,cameraforensics
https://live.staticflickr.com/4269/34920515342_32a4f6d43d_o.jpg,3.07111111111111,101.60333333333334,,,,,,Malaysia,Nadayu28 Residences; Jalan PJS 11/12; PJS 11; Sunway City; Subang Jaya; Selangor; 46150; Malaysia,hotel,cameraforensics
https://live.staticflickr.com/8254/29158646495_d022f911ec_o.jpg,3.0677777777777795,101.60333333333334,,,,,,Malaysia,Sunway Campus; Jalan Universiti; PJS 11; Sunway City; Subang Jaya; Selangor; 46150; Malaysia,hotel,cameraforensics
https://live.staticflickr.com/2441/3841819993_9320a17fbf_o.jpg,3.07166666666667,101.60633333333334,,,,,,Malaysia,Sunway Pyramid Mall; 3; Jalan PJS 11/15; Bandar Sunway; Sunway City; Subang Jaya; Selangor; 47500; Malaysia,hotel,cameraforensics
https://live.staticflickr.com/3852/14561411515_dd0e1cc967_o.jpg,3.07176944444444,101.60543055555556,,,,,,Malaysia,Sunway Lagoon; To Sunway Lagoon Parking Lot; Bandar Sunway; Sunway City; Subang Jaya; Selangor; 46150; Malaysia,hotel,cameraforensics
https://live.staticflickr.com/1592/26003036924_5e01ca07ce_o.jpg,3.07198055555556,101.60604722222222,,,,,,Malaysia,Sunway Pyramid Mall; 3; Jalan PJS 11/15; Bandar Sunway; Sunway City; Subang Jaya; Selangor; 47500; Malaysia,hotel,cameraforensics
https://live.staticflickr.com/468/19318059154_d873e801e6_o.jpg,3.0692472222222205,101.61376111111113,,,,,,Malaysia,Damansara–Puchong Expressway; Sunway City; Subang Jaya; Selangor; 46150; Malaysia,hotel,cameraforensics
https://live.staticflickr.com/7308/15963195423_983905ca41_o.jpg,6.2862555555555595,99.73113333333332,,,,,,Malaysia,Kampung Temoyong; Pantai Tengah; Langkawi; Kedah; Malaysia,hotel,cameraforensics
https://live.staticflickr.com/5067/5852251389_b6b3685edc_o.jpg,6.2881433333333305,99.72731833333332,,,,,,Malaysia,Delta Chenang Resort; Jalan Pantai Cenang; Kampung Temoyong; Pantai Cenang; Langkawi; Kedah; 0700; Malaysia,hotel,cameraforensics
https://live.staticflickr.com/800/26351743957_1c06d60624_o.jpg,6.28833333333333,99.73138888888887,,,,,,Malaysia,Kampung Temoyong; Pantai Cenang; Langkawi; Kedah; 0700; Malaysia,hotel,cameraforensics
https://live.staticflickr.com/5540/11798241196_5e60901d9f_o.jpg,6.282865,99.73096333333334,,,,,,Malaysia,Китайский рынок; Jalan Pantai Tengah; Kampung Temoyong; Pantai Tengah; Langkawi; Kedah; Malaysia,hotel,cameraforensics
https://q-cf.bstatic.com/images/hotel/max1280x900/183/183007403.jpg,6.289472,99.727756,,,,,,Malaysia,Seven 2 Seven; Jalan Pantai Cenang; Kampung Temoyong; Pantai Cenang; Langkawi; Kedah; 0700; Malaysia,hotel,cameraforensics
https://r-cf.bstatic.com/images/hotel/max1280x900/195/195246797.jpg,6.27731227,99.73453552,,,,,,Malaysia,Casa Loma; Jalan Pantai Tengah; Kampung Temoyong; Pantai Tengah; Langkawi; Kedah; Malaysia,hotel,cameraforensics
https://q-cf.bstatic.com/images/hotel/max1280x900/209/209013531.jpg,6.28128546,99.73392561,,,,,,Malaysia,Pantai Tengah; Langkawi; Kedah; Malaysia,hotel,cameraforensics
https://r-cf.bstatic.com/images/hotel/max1280x900/120/120796256.jpg,6.28841927,99.72871542,,,,,,Malaysia,Langkawi Dormitorio; Jalan Pantai Cenang; Kampung Temoyong; Pantai Cenang; Langkawi; Kedah; 0700; Malaysia,hotel,cameraforensics
https://r-cf.bstatic.com/images/hotel/max1280x900/171/171274720.jpg,6.289808,99.728424,,,,,,Malaysia,Warung Jamggus; Jalan Pantai Cenang; Kampung Temoyong; Pantai Cenang; Langkawi; Kedah; 0700; Malaysia,hotel,cameraforensics
https://q-cf.bstatic.com/images/hotel/max1280x900/173/173394403.jpg,6.2812462,99.73439194,,,,,,Malaysia,Pantai Tengah; Langkawi; Kedah; Malaysia,hotel,cameraforensics
https://r-cf.bstatic.com/images/hotel/max1280x900/182/182242676.jpg,4.75541166,115.00888199,2020-03-30T19:38:02+0000,900.0,672.0,,,Malaysia,Limbang Plaza; Jalan Limbang Plaza; Limbang; BUKIT KOTA; Sarawak; 98708; Malaysia,hotel,cameraforensics
https://q-cf.bstatic.com/images/hotel/max1280x900/156/156490814.jpg,4.758212,115.006656,2020-04-11T16:34:27+0000,900.0,506.0,,,Malaysia,Jalan Buangsiol; Limbang; BUKIT KOTA; Sarawak; 98708; Malaysia,hotel,cameraforensics
https://q-cf.bstatic.com/images/hotel/max1280x900/157/157045459.jpg,4.758212,115.006656,2020-08-03T14:34:57+0000,720.0,1280.0,,,Malaysia,Jalan Buangsiol; Limbang; BUKIT KOTA; Sarawak; 98708; Malaysia,hotel,cameraforensics
https://q-cf.bstatic.com/images/hotel/max1280x900/182/182242585.jpg,4.75541166,115.00888199,2020-07-04T22:37:40+0000,900.0,672.0,,,Malaysia,Limbang Plaza; Jalan Limbang Plaza; Limbang; BUKIT KOTA; Sarawak; 98708; Malaysia,hotel,cameraforensics
https://r-cf.bstatic.com/images/hotel/max1280x900/186/186119218.jpg,4.75541166,115.00888199,2020-06-23T14:32:42+0000,900.0,1200.0,,,Malaysia,Limbang Plaza; Jalan Limbang Plaza; Limbang; BUKIT KOTA; Sarawak; 98708; Malaysia,hotel,cameraforensics
https://r-cf.bstatic.com/images/hotel/max1280x900/156/156483412.jpg,4.758212,115.006656,2020-05-09T22:57:01+0000,720.0,1280.0,,,Malaysia,Jalan Buangsiol; Limbang; BUKIT KOTA; Sarawak; 98708; Malaysia,hotel,cameraforensics
https://q-cf.bstatic.com/images/hotel/max1280x900/209/209986523.jpg,4.75541166,115.00888199,2020-07-22T02:32:30+0000,900.0,1200.0,,,Malaysia,Limbang Plaza; Jalan Limbang Plaza; Limbang; BUKIT KOTA; Sarawak; 98708; Malaysia,hotel,cameraforensics
https://r-cf.bstatic.com/images/hotel/max1280x900/209/209985759.jpg,4.75541166,115.00888199,2020-05-26T20:00:01+0000,900.0,1200.0,,,Malaysia,Limbang Plaza; Jalan Limbang Plaza; Limbang; BUKIT KOTA; Sarawak; 98708; Malaysia,hotel,cameraforensics
https://r-cf.bstatic.com/images/hotel/max1280x900/209/209299673.jpg,4.78225187,114.99722268,2020-08-06T02:06:01+0000,853.0,1280.0,,,Malaysia,Taman Damai B; Kampung Pabahanan; BUKIT KOTA; Sarawak; 98700; Malaysia,hotel,cameraforensics
https://r-cf.bstatic.com/images/hotel/max1280x900/182/182246035.jpg,4.75541166,115.00888199,2020-06-28T16:34:54+0000,900.0,1200.0,,,Malaysia,Limbang Plaza; Jalan Limbang Plaza; Limbang; BUKIT KOTA; Sarawak; 98708; Malaysia,hotel,cameraforensics
https://q-cf.bstatic.com/images/hotel/max1280x900/182/182242702.jpg,4.75541166,115.00888199,2020-06-23T10:17:10+0000,900.0,900.0,,,Malaysia,Limbang Plaza; Jalan Limbang Plaza; Limbang; BUKIT KOTA; Sarawak; 98708; Malaysia,hotel,cameraforensics
https://q-cf.bstatic.com/images/hotel/max1280x900/156/156494955.jpg,4.758212,115.006656,2020-08-17T09:47:20+0000,900.0,506.0,,,Malaysia,Jalan Buangsiol; Limbang; BUKIT KOTA; Sarawak; 98708; Malaysia,hotel,cameraforensics
https://r-cf.bstatic.com/images/hotel/max1280x900/156/156492157.jpg,4.758212,115.006656,2020-08-03T11:56:23+0000,720.0,1280.0,,,Malaysia,Jalan Buangsiol; Limbang; BUKIT KOTA; Sarawak; 98708; Malaysia,hotel,cameraforensics
https://q-cf.bstatic.com/images/hotel/max1280x900/209/209299685.jpg,4.78225187,114.99722268,2020-04-28T18:48:07+0000,853.0,1280.0,,,Malaysia,Taman Damai B; Kampung Pabahanan; BUKIT KOTA; Sarawak; 98700; Malaysia,hotel,cameraforensics
https://r-cf.bstatic.com/images/hotel/max1280x900/209/209985226.jpg,4.75541166,115.00888199,2020-07-29T17:07:30+0000,900.0,1200.0,,,Malaysia,Limbang Plaza; Jalan Limbang Plaza; Limbang; BUKIT KOTA; Sarawak; 98708; Malaysia,hotel,cameraforensics
https://r-cf.bstatic.com/images/hotel/max1280x900/209/209299689.jpg,4.78225187,114.99722268,2020-09-08T19:32:39+0000,853.0,1280.0,,,Malaysia,Taman Damai B; Kampung Pabahanan; BUKIT KOTA; Sarawak; 98700; Malaysia,hotel,cameraforensics
https://r-cf.bstatic.com/images/hotel/max1280x900/156/156495561.jpg,4.758212,115.006656,2020-08-06T08:26:37+0000,900.0,506.0,,,Malaysia,Jalan Buangsiol; Limbang; BUKIT KOTA; Sarawak; 98708; Malaysia,hotel,cameraforensics
https://r-cf.bstatic.com/images/hotel/max1280x900/186/186119882.jpg,4.75541166,115.00888199,2020-07-06T15:55:32+0000,900.0,1200.0,,,Malaysia,Limbang Plaza; Jalan Limbang Plaza; Limbang; BUKIT KOTA; Sarawak; 98708; Malaysia,hotel,cameraforensics
https://q-cf.bstatic.com/images/hotel/max1280x900/209/209299691.jpg,4.78225187,114.99722268,2020-05-29T07:37:19+0000,853.0,1280.0,,,Malaysia,Taman Damai B; Kampung Pabahanan; BUKIT KOTA; Sarawak; 98700; Malaysia,hotel,cameraforensics
https://q-cf.bstatic.com/images/hotel/max1280x900/182/182242567.jpg,4.75541166,115.00888199,2020-07-05T13:25:34+0000,900.0,1200.0,,,Malaysia,Limbang Plaza; Jalan Limbang Plaza; Limbang; BUKIT KOTA; Sarawak; 98708; Malaysia,hotel,cameraforensics
https://r-cf.bstatic.com/images/hotel/max1280x900/156/156490630.jpg,4.758212,115.006656,2020-06-03T06:48:51+0000,720.0,1280.0,,,Malaysia,Jalan Buangsiol; Limbang; BUKIT KOTA; Sarawak; 98708; Malaysia,hotel,cameraforensics
https://r-cf.bstatic.com/images/hotel/max1280x900/156/156491961.jpg,4.758212,115.006656,2020-07-30T21:28:08+0000,900.0,506.0,,,Malaysia,Jalan Buangsiol; Limbang; BUKIT KOTA; Sarawak; 98708; Malaysia,hotel,cameraforensics
https://r-cf.bstatic.com/images/hotel/max1280x900/156/156491498.jpg,4.758212,115.006656,2020-12-01T19:56:06+0000,900.0,506.0,,,Malaysia,Jalan Buangsiol; Limbang; BUKIT KOTA; Sarawak; 98708; Malaysia,hotel,cameraforensics
https://q-cf.bstatic.com/images/hotel/max1280x900/209/209299709.jpg,4.78225187,114.99722268,2020-08-03T06:04:06+0000,853.0,1280.0,,,Malaysia,Taman Damai B; Kampung Pabahanan; BUKIT KOTA; Sarawak; 98700; Malaysia,hotel,cameraforensics
https://r-cf.bstatic.com/images/hotel/max1280x900/156/156491360.jpg,4.758212,115.006656,2020-04-16T19:14:41+0000,900.0,506.0,,,Malaysia,Jalan Buangsiol; Limbang; BUKIT KOTA; Sarawak; 98708; Malaysia,hotel,cameraforensics
https://q-cf.bstatic.com/images/hotel/max1280x900/156/156484369.jpg,4.758212,115.006656,2020-08-01T16:38:06+0000,720.0,1280.0,,,Malaysia,Jalan Buangsiol; Limbang; BUKIT KOTA; Sarawak; 98708; Malaysia,hotel,cameraforensics
https://q-cf.bstatic.com/images/hotel/max1280x900/182/182246086.jpg,4.75541166,115.00888199,2020-06-24T06:57:44+0000,900.0,1200.0,,,Malaysia,Limbang Plaza; Jalan Limbang Plaza; Limbang; BUKIT KOTA; Sarawak; 98708; Malaysia,hotel,cameraforensics
https://r-cf.bstatic.com/images/hotel/max1280x900/209/209299666.jpg,4.78225187,114.99722268,2020-07-31T23:28:13+0000,853.0,1280.0,,,Malaysia,Taman Damai B; Kampung Pabahanan; BUKIT KOTA; Sarawak; 98700; Malaysia,hotel,cameraforensics
https://r-cf.bstatic.com/images/hotel/max1280x900/156/156495732.jpg,4.758212,115.006656,2020-09-14T16:16:34+0000,720.0,1280.0,,,Malaysia,Jalan Buangsiol; Limbang; BUKIT KOTA; Sarawak; 98708; Malaysia,hotel,cameraforensics
https://r-cf.bstatic.com/images/hotel/max1280x900/156/156492958.jpg,4.758212,115.006656,2020-08-05T16:00:42+0000,720.0,1280.0,,,Malaysia,Jalan Buangsiol; Limbang; BUKIT KOTA; Sarawak; 98708; Malaysia,hotel,cameraforensics
https://r-cf.bstatic.com/images/hotel/max1280x900/182/182246138.jpg,4.75541166,115.00888199,2020-07-22T13:05:34+0000,900.0,1200.0,,,Malaysia,Limbang Plaza; Jalan Limbang Plaza; Limbang; BUKIT KOTA; Sarawak; 98708; Malaysia,hotel,cameraforensics
https://r-cf.bstatic.com/images/hotel/max1280x900/186/186119181.jpg,4.75541166,115.00888199,2020-07-22T13:05:36+0000,900.0,1200.0,,,Malaysia,Limbang Plaza; Jalan Limbang Plaza; Limbang; BUKIT KOTA; Sarawak; 98708; Malaysia,hotel,cameraforensics
https://q-cf.bstatic.com/images/hotel/max1280x900/156/156491769.jpg,4.758212,115.006656,2020-07-25T05:07:12+0000,720.0,1280.0,,,Malaysia,Jalan Buangsiol; Limbang; BUKIT KOTA; Sarawak; 98708; Malaysia,hotel,cameraforensics
https://r-cf.bstatic.com/images/hotel/max1280x900/186/186119202.jpg,4.75541166,115.00888199,2020-07-04T21:12:06+0000,900.0,1200.0,,,Malaysia,Limbang Plaza; Jalan Limbang Plaza; Limbang; BUKIT KOTA; Sarawak; 98708; Malaysia,hotel,cameraforensics
https://q-cf.bstatic.com/images/hotel/max1280x900/209/209299646.jpg,4.78225187,114.99722268,2020-09-14T07:14:51+0000,720.0,1280.0,,,Malaysia,Taman Damai B; Kampung Pabahanan; BUKIT KOTA; Sarawak; 98700; Malaysia,hotel,cameraforensics
https://q-cf.bstatic.com/images/hotel/max1280x900/186/186119564.jpg,4.75541166,115.00888199,2020-08-01T07:48:47+0000,900.0,1200.0,,,Malaysia,Limbang Plaza; Jalan Limbang Plaza; Limbang; BUKIT KOTA; Sarawak; 98708; Malaysia,hotel,cameraforensics
https://q-cf.bstatic.com/images/hotel/max1280x900/984/9846150.jpg,4.75541166,115.00888199,2020-08-24T23:15:49+0000,900.0,1200.0,,,Malaysia,Limbang Plaza; Jalan Limbang Plaza; Limbang; BUKIT KOTA; Sarawak; 98708; Malaysia,hotel,cameraforensics
https://q-cf.bstatic.com/images/hotel/max1280x900/209/209299669.jpg,4.78225187,114.99722268,2020-07-28T12:35:53+0000,853.0,1280.0,,,Malaysia,Taman Damai B; Kampung Pabahanan; BUKIT KOTA; Sarawak; 98700; Malaysia,hotel,cameraforensics
https://q-cf.bstatic.com/images/hotel/max1280x900/156/156807286.jpg,4.758212,115.006656,2020-10-10T22:55:38+0000,720.0,1280.0,,,Malaysia,Jalan Buangsiol; Limbang; BUKIT KOTA; Sarawak; 98708; Malaysia,hotel,cameraforensics
https://r-cf.bstatic.com/images/hotel/max1280x900/182/182242797.jpg,4.75541166,115.00888199,2020-09-14T04:46:56+0000,900.0,1200.0,,,Malaysia,Limbang Plaza; Jalan Limbang Plaza; Limbang; BUKIT KOTA; Sarawak; 98708; Malaysia,hotel,cameraforensics
https://r-cf.bstatic.com/images/hotel/max1280x900/156/156496153.jpg,4.758212,115.006656,2020-08-06T08:42:54+0000,900.0,506.0,,,Malaysia,Jalan Buangsiol; Limbang; BUKIT KOTA; Sarawak; 98708; Malaysia,hotel,cameraforensics
https://q-cf.bstatic.com/images/hotel/max1280x900/182/182242801.jpg,4.75541166,115.00888199,2020-05-03T06:39:17+0000,900.0,1200.0,,,Malaysia,Limbang Plaza; Jalan Limbang Plaza; Limbang; BUKIT KOTA; Sarawak; 98708; Malaysia,hotel,cameraforensics
https://q-cf.bstatic.com/images/hotel/max1280x900/209/209299702.jpg,4.78225187,114.99722268,2020-08-05T14:45:30+0000,853.0,1280.0,,,Malaysia,Taman Damai B; Kampung Pabahanan; BUKIT KOTA; Sarawak; 98700; Malaysia,hotel,cameraforensics
https://q-cf.bstatic.com/images/hotel/max1280x900/182/182242601.jpg,4.75541166,115.00888199,2020-04-24T22:38:36+0000,900.0,1200.0,,,Malaysia,Limbang Plaza; Jalan Limbang Plaza; Limbang; BUKIT KOTA; Sarawak; 98708; Malaysia,hotel,cameraforensics
https://q-cf.bstatic.com/images/hotel/max1280x900/157/157622768.jpg,4.758212,115.006656,2020-08-02T21:37:43+0000,720.0,1280.0,,,Malaysia,Jalan Buangsiol; Limbang; BUKIT KOTA; Sarawak; 98708; Malaysia,hotel,cameraforensics
https://q-cf.bstatic.com/images/hotel/max1280x900/209/209299698.jpg,4.78225187,114.99722268,2020-08-03T06:04:05+0000,853.0,1280.0,,,Malaysia,Taman Damai B; Kampung Pabahanan; BUKIT KOTA; Sarawak; 98700; Malaysia,hotel,cameraforensics
https://r-cf.bstatic.com/images/hotel/max1280x900/156/156807091.jpg,4.758212,115.006656,2020-07-30T21:28:09+0000,900.0,506.0,,,Malaysia,Jalan Buangsiol; Limbang; BUKIT KOTA; Sarawak; 98708; Malaysia,hotel,cameraforensics
https://r-cf.bstatic.com/images/hotel/max1280x900/156/156495381.jpg,4.758212,115.006656,2020-08-15T18:03:02+0000,720.0,1280.0,,,Malaysia,Jalan Buangsiol; Limbang; BUKIT KOTA; Sarawak; 98708; Malaysia,hotel,cameraforensics
https://q-cf.bstatic.com/images/hotel/max1280x900/186/186118949.jpg,4.75541166,115.00888199,2020-07-04T22:38:00+0000,900.0,598.0,,,Malaysia,Limbang Plaza; Jalan Limbang Plaza; Limbang; BUKIT KOTA; Sarawak; 98708; Malaysia,hotel,cameraforensics
https://q-cf.bstatic.com/images/hotel/max1280x900/209/209299662.jpg,4.78225187,114.99722268,2020-05-17T18:01:58+0000,853.0,1280.0,,,Malaysia,Taman Damai B; Kampung Pabahanan; BUKIT KOTA; Sarawak; 98700; Malaysia,hotel,cameraforensics
https://r-cf.bstatic.com/images/hotel/max1280x900/156/156818393.jpg,4.758212,115.006656,2020-06-29T16:16:19+0000,720.0,1280.0,,,Malaysia,Jalan Buangsiol; Limbang; BUKIT KOTA; Sarawak; 98708; Malaysia,hotel,cameraforensics
https://q-cf.bstatic.com/images/hotel/max1280x900/156/156496199.jpg,4.758212,115.006656,2020-08-21T11:03:54+0000,900.0,506.0,,,Malaysia,Jalan Buangsiol; Limbang; BUKIT KOTA; Sarawak; 98708; Malaysia,hotel,cameraforensics
https://q-cf.bstatic.com/images/hotel/max1280x900/182/182247271.jpg,4.75541166,115.00888199,2020-05-09T13:39:53+0000,900.0,675.0,,,Malaysia,Limbang Plaza; Jalan Limbang Plaza; Limbang; BUKIT KOTA; Sarawak; 98708; Malaysia,hotel,cameraforensics
https://r-cf.bstatic.com/images/hotel/max1280x900/156/156484845.jpg,4.758212,115.006656,2020-08-05T16:00:38+0000,720.0,1280.0,,,Malaysia,Jalan Buangsiol; Limbang; BUKIT KOTA; Sarawak; 98708; Malaysia,hotel,cameraforensics
https://r-cf.bstatic.com/images/hotel/max1280x900/182/182244528.jpg,4.75541166,115.00888199,2020-04-03T22:28:59+0000,900.0,1200.0,,,Malaysia,Limbang Plaza; Jalan Limbang Plaza; Limbang; BUKIT KOTA; Sarawak; 98708; Malaysia,hotel,cameraforensics
https://q-cf.bstatic.com/images/hotel/max1280x900/156/156780299.jpg,4.758212,115.006656,2020-08-17T09:47:26+0000,720.0,1280.0,,,Malaysia,Jalan Buangsiol; Limbang; BUKIT KOTA; Sarawak; 98708; Malaysia,hotel,cameraforensics
https://r-cf.bstatic.com/images/hotel/max1280x900/156/156807722.jpg,4.758212,115.006656,2020-04-29T01:34:15+0000,720.0,1280.0,,,Malaysia,Jalan Buangsiol; Limbang; BUKIT KOTA; Sarawak; 98708; Malaysia,hotel,cameraforensics
https://r-cf.bstatic.com/images/hotel/max1280x900/182/182244525.jpg,4.75541166,115.00888199,2020-07-29T17:07:04+0000,900.0,1200.0,,,Malaysia,Limbang Plaza; Jalan Limbang Plaza; Limbang; BUKIT KOTA; Sarawak; 98708; Malaysia,hotel,cameraforensics
https://r-cf.bstatic.com/images/hotel/max1280x900/156/156495577.jpg,4.758212,115.006656,2020-09-08T11:21:13+0000,900.0,506.0,,,Malaysia,Jalan Buangsiol; Limbang; BUKIT KOTA; Sarawak; 98708; Malaysia,hotel,cameraforensics
https://q-cf.bstatic.com/images/hotel/max1280x900/156/156780276.jpg,4.758212,115.006656,2020-04-28T08:08:00+0000,720.0,1280.0,,,Malaysia,Jalan Buangsiol; Limbang; BUKIT KOTA; Sarawak; 98708; Malaysia,hotel,cameraforensics
https://q-cf.bstatic.com/images/hotel/max1280x900/182/182246160.jpg,4.75541166,115.00888199,2020-08-01T07:48:44+0000,900.0,1200.0,,,Malaysia,Limbang Plaza; Jalan Limbang Plaza; Limbang; BUKIT KOTA; Sarawak; 98708; Malaysia,hotel,cameraforensics
https://r-cf.bstatic.com/images/hotel/max1280x900/156/156492298.jpg,4.758212,115.006656,2020-09-08T11:21:05+0000,900.0,506.0,,,Malaysia,Jalan Buangsiol; Limbang; BUKIT KOTA; Sarawak; 98708; Malaysia,hotel,cameraforensics
https://r-cf.bstatic.com/images/hotel/max1280x900/209/209299696.jpg,4.78225187,114.99722268,2020-08-12T12:48:26+0000,853.0,1280.0,,,Malaysia,Taman Damai B; Kampung Pabahanan; BUKIT KOTA; Sarawak; 98700; Malaysia,hotel,cameraforensics
https://r-cf.bstatic.com/images/hotel/max1280x900/182/182242694.jpg,4.75541166,115.00888199,2020-05-03T05:01:47+0000,900.0,900.0,,,Malaysia,Limbang Plaza; Jalan Limbang Plaza; Limbang; BUKIT KOTA; Sarawak; 98708; Malaysia,hotel,cameraforensics
https://q-cf.bstatic.com/images/hotel/max1280x900/186/186119890.jpg,4.75541166,115.00888199,2020-04-24T22:29:57+0000,900.0,1196.0,,,Malaysia,Limbang Plaza; Jalan Limbang Plaza; Limbang; BUKIT KOTA; Sarawak; 98708; Malaysia,hotel,cameraforensics
https://r-cf.bstatic.com/images/hotel/max1280x900/156/156808016.jpg,4.758212,115.006656,2020-07-30T21:28:10+0000,720.0,1280.0,,,Malaysia,Jalan Buangsiol; Limbang; BUKIT KOTA; Sarawak; 98708; Malaysia,hotel,cameraforensics
https://q-cf.bstatic.com/images/hotel/max1280x900/182/182246134.jpg,4.75541166,115.00888199,2020-11-17T07:47:01+0000,900.0,1200.0,,,Malaysia,Limbang Plaza; Jalan Limbang Plaza; Limbang; BUKIT KOTA; Sarawak; 98708; Malaysia,hotel,cameraforensics
https://q-cf.bstatic.com/images/hotel/max1280x900/209/209366251.jpg,4.78225187,114.99722268,2020-12-10T02:15:08+0000,900.0,506.0,,,Malaysia,Taman Damai B; Kampung Pabahanan; BUKIT KOTA; Sarawak; 98700; Malaysia,hotel,cameraforensics
https://q-cf.bstatic.com/images/hotel/max1280x900/124/124201641.jpg,4.03214318,114.80147142,2020-02-18T02:03:19+0000,721.0,1280.0,,,Malaysia,Mulu; Sarawak; 98008; Malaysia,hotel,cameraforensics
https://q-cf.bstatic.com/images/hotel/max1280x900/152/152279186.jpg,4.029403,114.8008,2019-12-19T20:12:22+0000,853.0,1280.0,,,Malaysia,Mulu; Sarawak; 98008; Malaysia,hotel,cameraforensics
https://r-cf.bstatic.com/images/hotel/max1280x900/131/131144649.jpg,4.03154834,114.79867458,2020-06-29T06:31:18+0000,720.0,1280.0,,,Malaysia,Mulu Main Road; Mulu; Sarawak; 98008; Malaysia,hotel,cameraforensics
https://r-cf.bstatic.com/images/hotel/max1280x900/934/93479731.jpg,4.029403,114.8008,2020-02-04T19:02:28+0000,859.0,1280.0,,,Malaysia,Mulu; Sarawak; 98008; Malaysia,hotel,cameraforensics
https://r-cf.bstatic.com/images/hotel/max1280x900/879/87936354.jpg,4.03154834,114.79867458,2020-12-06T23:32:32+0000,853.0,1280.0,,,Malaysia,Mulu Main Road; Mulu; Sarawak; 98008; Malaysia,hotel,cameraforensics
https://q-cf.bstatic.com/images/hotel/max1280x900/710/71075416.jpg,4.03155118,114.80051565,2020-04-21T01:59:46+0000,900.0,675.0,,,Malaysia,Mulu; Sarawak; 98008; Malaysia,hotel,cameraforensics
https://q-cf.bstatic.com/images/hotel/max1280x900/879/87936356.jpg,4.03154834,114.79867458,2020-08-19T09:47:16+0000,900.0,600.0,,,Malaysia,Mulu Main Road; Mulu; Sarawak; 98008; Malaysia,hotel,cameraforensics
https://r-cf.bstatic.com/images/hotel/max1280x900/131/131143657.jpg,4.03154834,114.79867458,2020-08-13T11:57:30+0000,900.0,506.0,,,Malaysia,Mulu Main Road; Mulu; Sarawak; 98008; Malaysia,hotel,cameraforensics
https://r-cf.bstatic.com/images/hotel/max1280x900/934/93479634.jpg,4.029403,114.8008,2020-01-14T16:13:42+0000,853.0,1280.0,,,Malaysia,Mulu; Sarawak; 98008; Malaysia,hotel,cameraforensics
https://q-cf.bstatic.com/images/hotel/max1280x900/127/127845703.jpg,4.03154834,114.79867458,2020-09-13T02:11:55+0000,720.0,1280.0,,,Malaysia,Mulu Main Road; Mulu; Sarawak; 98008; Malaysia,hotel,cameraforensics
https://r-cf.bstatic.com/images/hotel/max1280x900/109/109711600.jpg,4.03154834,114.79867458,2020-12-20T20:15:37+0000,900.0,1200.0,,,Malaysia,Mulu Main Road; Mulu; Sarawak; 98008; Malaysia,hotel,cameraforensics
https://r-cf.bstatic.com/images/hotel/max1280x900/894/89439297.jpg,4.03154834,114.79867458,2020-10-01T14:37:40+0000,900.0,675.0,,,Malaysia,Mulu Main Road; Mulu; Sarawak; 98008; Malaysia,hotel,cameraforensics
https://r-cf.bstatic.com/images/hotel/max1280x900/203/203199489.jpg,4.03280567,114.80384515,2020-12-05T14:33:17+0000,900.0,1200.0,,,Malaysia,Jalan Kalang; Mulu; Sarawak; 98008; Malaysia,hotel,cameraforensics
https://q-cf.bstatic.com/images/hotel/max1280x900/891/89143579.jpg,4.03155118,114.80051565,2020-07-22T02:11:32+0000,900.0,1200.0,,,Malaysia,Mulu; Sarawak; 98008; Malaysia,hotel,cameraforensics
https://r-cf.bstatic.com/images/hotel/max1280x900/131/131143299.jpg,4.03154834,114.79867458,2020-11-30T05:24:35+0000,900.0,506.0,,,Malaysia,Mulu Main Road; Mulu; Sarawak; 98008; Malaysia,hotel,cameraforensics
https://q-cf.bstatic.com/images/hotel/max1280x900/131/131142199.jpg,4.03154834,114.79867458,2020-11-28T12:25:15+0000,720.0,1280.0,,,Malaysia,Mulu Main Road; Mulu; Sarawak; 98008; Malaysia,hotel,cameraforensics
https://q-cf.bstatic.com/images/hotel/max1280x900/934/93480167.jpg,4.029403,114.8008,2019-12-26T03:22:22+0000,813.0,1280.0,,,Malaysia,Mulu; Sarawak; 98008; Malaysia,hotel,cameraforensics
https://q-cf.bstatic.com/images/hotel/max1280x900/895/89517076.jpg,4.03154834,114.79867458,2020-08-02T19:12:52+0000,900.0,1200.0,,,Malaysia,Mulu Main Road; Mulu; Sarawak; 98008; Malaysia,hotel,cameraforensics
https://r-cf.bstatic.com/images/hotel/max1280x900/123/123670979.jpg,4.03155118,114.80051565,2020-07-04T20:46:29+0000,900.0,675.0,,,Malaysia,Mulu; Sarawak; 98008; Malaysia,hotel,cameraforensics
https://r-cf.bstatic.com/images/hotel/max1280x900/880/88014781.jpg,4.03154834,114.79867458,2020-12-05T19:12:11+0000,900.0,1200.0,,,Malaysia,Mulu Main Road; Mulu; Sarawak; 98008; Malaysia,hotel,cameraforensics
https://q-cf.bstatic.com/images/hotel/max1280x900/934/93480166.jpg,4.029403,114.8008,2020-02-12T16:23:29+0000,813.0,1280.0,,,Malaysia,Mulu; Sarawak; 98008; Malaysia,hotel,cameraforensics
https://r-cf.bstatic.com/images/hotel/max1280x900/123/123671035.jpg,4.03155118,114.80051565,2020-07-22T12:48:41+0000,900.0,675.0,,,Malaysia,Mulu; Sarawak; 98008; Malaysia,hotel,cameraforensics
https://q-cf.bstatic.com/images/hotel/max1280x900/105/105921102.jpg,4.029403,114.8008,2020-02-12T17:16:10+0000,853.0,1280.0,,,Malaysia,Mulu; Sarawak; 98008; Malaysia,hotel,cameraforensics
https://q-cf.bstatic.com/images/hotel/max1280x900/880/88014783.jpg,4.03154834,114.79867458,2020-12-01T22:12:20+0000,900.0,1200.0,,,Malaysia,Mulu Main Road; Mulu; Sarawak; 98008; Malaysia,hotel,cameraforensics
https://r-cf.bstatic.com/images/hotel/max1280x900/934/93478820.jpg,4.029403,114.8008,2020-02-14T03:49:48+0000,850.0,1280.0,,,Malaysia,Mulu; Sarawak; 98008; Malaysia,hotel,cameraforensics
https://r-cf.bstatic.com/images/hotel/max1280x900/898/89844531.jpg,4.03214318,114.80147142,2020-05-30T02:24:39+0000,900.0,1200.0,,,Malaysia,Mulu; Sarawak; 98008; Malaysia,hotel,cameraforensics
https://r-cf.bstatic.com/images/hotel/max1280x900/702/70279705.jpg,4.03155118,114.80051565,2020-07-04T20:46:31+0000,900.0,675.0,,,Malaysia,Mulu; Sarawak; 98008; Malaysia,hotel,cameraforensics
https://r-cf.bstatic.com/images/hotel/max1280x900/934/93479758.jpg,4.029403,114.8008,2020-02-14T03:49:49+0000,873.0,1280.0,,,Malaysia,Mulu; Sarawak; 98008; Malaysia,hotel,cameraforensics
https://r-cf.bstatic.com/images/hotel/max1280x900/123/123661388.jpg,4.03155118,114.80051565,2020-07-29T16:37:07+0000,900.0,1200.0,,,Malaysia,Mulu; Sarawak; 98008; Malaysia,hotel,cameraforensics
https://r-cf.bstatic.com/images/hotel/max1280x900/123/123671033.jpg,4.03155118,114.80051565,2020-07-29T16:37:08+0000,900.0,675.0,,,Malaysia,Mulu; Sarawak; 98008; Malaysia,hotel,cameraforensics
https://r-cf.bstatic.com/images/hotel/max1280x900/152/152282436.jpg,4.029403,114.8008,2019-12-06T01:55:30+0000,850.0,1280.0,,,Malaysia,Mulu; Sarawak; 98008; Malaysia,hotel,cameraforensics
https://r-cf.bstatic.com/images/hotel/max1280x900/891/89143802.jpg,4.03155118,114.80051565,2020-07-29T16:37:10+0000,900.0,1200.0,,,Malaysia,Mulu; Sarawak; 98008; Malaysia,hotel,cameraforensics
https://r-cf.bstatic.com/images/hotel/max1280x900/934/93479849.jpg,4.029403,114.8008,2020-02-03T22:05:54+0000,853.0,1280.0,,,Malaysia,Mulu; Sarawak; 98008; Malaysia,hotel,cameraforensics
https://r-cf.bstatic.com/images/hotel/max1280x900/219/219036040.jpg,4.03154834,114.79867458,2020-12-08T23:18:38+0000,900.0,450.0,,,Malaysia,Mulu Main Road; Mulu; Sarawak; 98008; Malaysia,hotel,cameraforensics
https://r-cf.bstatic.com/images/hotel/max1280x900/131/131145855.jpg,4.03154834,114.79867458,2020-12-30T12:15:09+0000,720.0,1280.0,,,Malaysia,Mulu Main Road; Mulu; Sarawak; 98008; Malaysia,hotel,cameraforensics
https://r-cf.bstatic.com/images/hotel/max1280x900/123/123671259.jpg,4.03155118,114.80051565,2020-07-06T16:16:02+0000,721.0,1280.0,,,Malaysia,Mulu; Sarawak; 98008; Malaysia,hotel,cameraforensics
https://q-cf.bstatic.com/images/hotel/max1280x900/891/89143801.jpg,4.03155118,114.80051565,2020-07-26T10:23:34+0000,900.0,675.0,,,Malaysia,Mulu; Sarawak; 98008; Malaysia,hotel,cameraforensics
https://q-cf.bstatic.com/images/hotel/max1280x900/131/131140286.jpg,4.03154834,114.79867458,2020-09-09T05:16:15+0000,720.0,1280.0,,,Malaysia,Mulu Main Road; Mulu; Sarawak; 98008; Malaysia,hotel,cameraforensics
https://q-cf.bstatic.com/images/hotel/max1280x900/898/89845754.jpg,4.03214318,114.80147142,2020-04-02T07:59:17+0000,900.0,1200.0,,,Malaysia,Mulu; Sarawak; 98008; Malaysia,hotel,cameraforensics
https://q-cf.bstatic.com/images/hotel/max1280x900/123/123671034.jpg,4.03155118,114.80051565,2020-05-03T07:41:53+0000,900.0,675.0,,,Malaysia,Mulu; Sarawak; 98008; Malaysia,hotel,cameraforensics
https://q-cf.bstatic.com/images/hotel/max1280x900/880/88014784.jpg,4.03154834,114.79867458,2020-11-26T13:28:04+0000,900.0,1200.0,,,Malaysia,Mulu Main Road; Mulu; Sarawak; 98008; Malaysia,hotel,cameraforensics
https://q-cf.bstatic.com/images/hotel/max1280x900/123/123670890.jpg,4.03155118,114.80051565,2020-07-05T12:55:13+0000,900.0,1200.0,,,Malaysia,Mulu; Sarawak; 98008; Malaysia,hotel,cameraforensics
https://r-cf.bstatic.com/images/hotel/max1280x900/147/147718926.jpg,4.03154834,114.79867458,2020-12-08T09:09:25+0000,900.0,1200.0,,,Malaysia,Mulu Main Road; Mulu; Sarawak; 98008; Malaysia,hotel,cameraforensics
https://q-cf.bstatic.com/images/hotel/max1280x900/163/163584781.jpg,4.03155118,114.80051565,2020-06-26T11:24:01+0000,900.0,506.0,,,Malaysia,Mulu; Sarawak; 98008; Malaysia,hotel,cameraforensics
https://r-cf.bstatic.com/images/hotel/max1280x900/163/163584669.jpg,4.03155118,114.80051565,2020-07-17T15:40:23+0000,900.0,1201.0,,,Malaysia,Mulu; Sarawak; 98008; Malaysia,hotel,cameraforensics
https://r-cf.bstatic.com/images/hotel/max1280x900/898/89845625.jpg,4.03214318,114.80147142,2020-06-13T15:10:31+0000,900.0,1200.0,,,Malaysia,Mulu; Sarawak; 98008; Malaysia,hotel,cameraforensics
https://r-cf.bstatic.com/images/hotel/max1280x900/880/88014780.jpg,4.03154834,114.79867458,2020-12-07T00:16:12+0000,900.0,1200.0,,,Malaysia,Mulu Main Road; Mulu; Sarawak; 98008; Malaysia,hotel,cameraforensics
https://q-cf.bstatic.com/images/hotel/max1280x900/123/123671275.jpg,4.03155118,114.80051565,2020-04-21T01:59:40+0000,721.0,1280.0,,,Malaysia,Mulu; Sarawak; 98008; Malaysia,hotel,cameraforensics
https://r-cf.bstatic.com/images/hotel/max1280x900/891/89143599.jpg,4.03155118,114.80051565,2020-06-23T13:53:36+0000,900.0,1200.0,,,Malaysia,Mulu; Sarawak; 98008; Malaysia,hotel,cameraforensics
https://r-cf.bstatic.com/images/hotel/max1280x900/898/89841386.jpg,4.03214318,114.80147142,2020-05-21T00:19:11+0000,719.0,1280.0,,,Malaysia,Mulu; Sarawak; 98008; Malaysia,hotel,cameraforensics
https://q-cf.bstatic.com/images/hotel/max1280x900/891/89143803.jpg,4.03155118,114.80051565,2020-06-24T06:08:26+0000,900.0,1200.0,,,Malaysia,Mulu; Sarawak; 98008; Malaysia,hotel,cameraforensics
https://r-cf.bstatic.com/images/hotel/max1280x900/123/123670927.jpg,4.03155118,114.80051565,2020-05-26T19:25:53+0000,900.0,675.0,,,Malaysia,Mulu; Sarawak; 98008; Malaysia,hotel,cameraforensics
https://r-cf.bstatic.com/images/hotel/max1280x900/880/88014785.jpg,4.03154834,114.79867458,2020-10-01T14:37:32+0000,900.0,1200.0,,,Malaysia,Mulu Main Road; Mulu; Sarawak; 98008; Malaysia,hotel,cameraforensics
https://q-cf.bstatic.com/images/hotel/max1280x900/163/163584657.jpg,4.03155118,114.80051565,2020-05-09T14:45:51+0000,900.0,1201.0,,,Malaysia,Mulu; Sarawak; 98008; Malaysia,hotel,cameraforensics
https://q-cf.bstatic.com/images/hotel/max1280x900/934/93480000.jpg,4.029403,114.8008,2019-12-25T14:11:13+0000,751.0,1280.0,,,Malaysia,Mulu; Sarawak; 98008; Malaysia,hotel,cameraforensics
https://r-cf.bstatic.com/images/hotel/max1280x900/131/131142868.jpg,4.03154834,114.79867458,2020-11-30T05:24:32+0000,900.0,1200.0,,,Malaysia,Mulu Main Road; Mulu; Sarawak; 98008; Malaysia,hotel,cameraforensics
https://r-cf.bstatic.com/images/hotel/max1280x900/934/93479628.jpg,4.029403,114.8008,2019-12-06T03:16:42+0000,788.0,1280.0,,,Malaysia,Mulu; Sarawak; 98008; Malaysia,hotel,cameraforensics
https://q-cf.bstatic.com/images/hotel/max1280x900/127/127872287.jpg,4.03154834,114.79867458,2020-11-28T12:25:07+0000,720.0,1280.0,,,Malaysia,Mulu Main Road; Mulu; Sarawak; 98008; Malaysia,hotel,cameraforensics
https://q-cf.bstatic.com/images/hotel/max1280x900/934/93479635.jpg,4.029403,114.8008,2019-12-25T14:11:12+0000,804.0,1280.0,,,Malaysia,Mulu; Sarawak; 98008; Malaysia,hotel,cameraforensics
https://r-cf.bstatic.com/images/hotel/max1280x900/898/89844789.jpg,4.03214318,114.80147142,2020-03-20T09:38:46+0000,900.0,1200.0,,,Malaysia,Mulu; Sarawak; 98008; Malaysia,hotel,cameraforensics
https://r-cf.bstatic.com/images/hotel/max1280x900/131/131140131.jpg,4.03154834,114.79867458,2020-12-05T19:12:10+0000,900.0,1200.0,,,Malaysia,Mulu Main Road; Mulu; Sarawak; 98008; Malaysia,hotel,cameraforensics
https://q-cf.bstatic.com/images/hotel/max1280x900/898/89845468.jpg,4.03214318,114.80147142,2020-05-20T22:14:44+0000,900.0,1200.0,,,Malaysia,Mulu; Sarawak; 98008; Malaysia,hotel,cameraforensics
https://q-cf.bstatic.com/images/hotel/max1280x900/123/123670860.jpg,4.03155118,114.80051565,2020-07-17T20:09:43+0000,900.0,675.0,,,Malaysia,Mulu; Sarawak; 98008; Malaysia,hotel,cameraforensics
https://q-cf.bstatic.com/images/hotel/max1280x900/898/89843374.jpg,4.03214318,114.80147142,2020-05-20T23:27:39+0000,900.0,1200.0,,,Malaysia,Mulu; Sarawak; 98008; Malaysia,hotel,cameraforensics
https://q-cf.bstatic.com/images/hotel/max1280x900/123/123661727.jpg,4.03155118,114.80051565,2020-07-17T20:09:41+0000,719.0,1280.0,,,Malaysia,Mulu; Sarawak; 98008; Malaysia,hotel,cameraforensics
https://r-cf.bstatic.com/images/hotel/max1280x900/163/163585220.jpg,4.03155118,114.80051565,2020-07-04T20:46:30+0000,719.0,1280.0,,,Malaysia,Mulu; Sarawak; 98008; Malaysia,hotel,cameraforensics
https://q-cf.bstatic.com/images/hotel/max1280x900/934/93479161.jpg,4.029403,114.8008,2019-12-04T07:04:12+0000,856.0,1280.0,,,Malaysia,Mulu; Sarawak; 98008; Malaysia,hotel,cameraforensics
https://q-cf.bstatic.com/images/hotel/max1280x900/163/163585166.jpg,4.03155118,114.80051565,2020-04-01T17:08:06+0000,719.0,1280.0,,,Malaysia,Mulu; Sarawak; 98008; Malaysia,hotel,cameraforensics
https://q-cf.bstatic.com/images/hotel/max1280x900/167/167489124.jpg,4.03154834,114.79867458,2020-07-26T18:30:15+0000,480.0,640.0,,,Malaysia,Mulu Main Road; Mulu; Sarawak; 98008; Malaysia,hotel,cameraforensics
https://q-cf.bstatic.com/images/hotel/max1280x900/127/127845733.jpg,4.03154834,114.79867458,2020-07-26T18:30:14+0000,900.0,506.0,,,Malaysia,Mulu Main Road; Mulu; Sarawak; 98008; Malaysia,hotel,cameraforensics
https://q-cf.bstatic.com/images/hotel/max1280x900/898/89845035.jpg,4.03214318,114.80147142,2020-06-20T14:41:19+0000,719.0,1280.0,,,Malaysia,Mulu; Sarawak; 98008; Malaysia,hotel,cameraforensics
https://r-cf.bstatic.com/images/hotel/max1280x900/689/68976139.jpg,4.03155118,114.80051565,2020-04-07T15:26:48+0000,720.0,1280.0,,,Malaysia,Mulu; Sarawak; 98008; Malaysia,hotel,cameraforensics
https://q-cf.bstatic.com/images/hotel/max1280x900/889/88983234.jpg,4.03155118,114.80051565,2020-08-01T07:33:17+0000,900.0,1200.0,,,Malaysia,Mulu; Sarawak; 98008; Malaysia,hotel,cameraforensics
https://r-cf.bstatic.com/images/hotel/max1280x900/109/109711964.jpg,4.03154834,114.79867458,2020-11-28T15:16:13+0000,900.0,1200.0,,,Malaysia,Mulu Main Road; Mulu; Sarawak; 98008; Malaysia,hotel,cameraforensics
https://q-cf.bstatic.com/images/hotel/max1280x900/228/228441697.jpg,4.03154834,114.79867458,2020-11-19T22:30:57+0000,900.0,900.0,,,Malaysia,Mulu Main Road; Mulu; Sarawak; 98008; Malaysia,hotel,cameraforensics
https://r-cf.bstatic.com/images/hotel/max1280x900/934/93478424.jpg,4.029403,114.8008,2020-03-02T08:28:35+0000,853.0,1280.0,,,Malaysia,Mulu; Sarawak; 98008; Malaysia,hotel,cameraforensics
https://q-cf.bstatic.com/images/hotel/max1280x900/898/89845614.jpg,4.03214318,114.80147142,2020-07-21T00:20:58+0000,900.0,1200.0,,,Malaysia,Mulu; Sarawak; 98008; Malaysia,hotel,cameraforensics
https://r-cf.bstatic.com/images/hotel/max1280x900/898/89843363.jpg,4.03214318,114.80147142,2020-05-05T07:16:45+0000,719.0,1280.0,,,Malaysia,Mulu; Sarawak; 98008; Malaysia,hotel,cameraforensics
https://r-cf.bstatic.com/images/hotel/max1280x900/152/152279180.jpg,4.029403,114.8008,2019-10-28T22:32:39+0000,853.0,1280.0,,,Malaysia,Mulu; Sarawak; 98008; Malaysia,hotel,cameraforensics
https://r-cf.bstatic.com/images/hotel/max1280x900/123/123677394.jpg,4.03155118,114.80051565,2020-07-22T04:51:22+0000,719.0,1280.0,,,Malaysia,Mulu; Sarawak; 98008; Malaysia,hotel,cameraforensics
https://r-cf.bstatic.com/images/hotel/max1280x900/123/123671565.jpg,4.03155118,114.80051565,2020-11-14T20:30:59+0000,721.0,1280.0,,,Malaysia,Mulu; Sarawak; 98008; Malaysia,hotel,cameraforensics
https://r-cf.bstatic.com/images/hotel/max1280x900/123/123671032.jpg,4.03155118,114.80051565,2020-11-14T20:30:58+0000,900.0,675.0,,,Malaysia,Mulu; Sarawak; 98008; Malaysia,hotel,cameraforensics
https://r-cf.bstatic.com/images/hotel/max1280x900/131/131145434.jpg,4.03154834,114.79867458,2020-06-29T06:32:51+0000,720.0,1280.0,,,Malaysia,Mulu Main Road; Mulu; Sarawak; 98008; Malaysia,hotel,cameraforensics
https://r-cf.bstatic.com/images/hotel/max1280x900/464/46412919.jpg,4.029403,114.8008,2019-12-20T07:46:45+0000,771.0,1280.0,,,Malaysia,Mulu; Sarawak; 98008; Malaysia,hotel,cameraforensics
https://r-cf.bstatic.com/images/hotel/max1280x900/880/88014782.jpg,4.03154834,114.79867458,2020-12-06T23:32:33+0000,900.0,1200.0,,,Malaysia,Mulu Main Road; Mulu; Sarawak; 98008; Malaysia,hotel,cameraforensics
https://r-cf.bstatic.com/images/hotel/max1280x900/131/131140480.jpg,4.03154834,114.79867458,2020-06-29T06:31:17+0000,722.0,1280.0,,,Malaysia,Mulu Main Road; Mulu; Sarawak; 98008; Malaysia,hotel,cameraforensics
https://q-cf.bstatic.com/images/hotel/max1280x900/228/228294965.jpg,4.03154834,114.79867458,2020-12-01T14:27:23+0000,900.0,900.0,,,Malaysia,Mulu Main Road; Mulu; Sarawak; 98008; Malaysia,hotel,cameraforensics
https://r-cf.bstatic.com/images/hotel/max1280x900/163/163585243.jpg,4.03155118,114.80051565,2020-06-23T14:13:56+0000,900.0,506.0,,,Malaysia,Mulu; Sarawak; 98008; Malaysia,hotel,cameraforensics
https://r-cf.bstatic.com/images/hotel/max1280x900/934/93478943.jpg,4.029403,114.8008,2019-12-07T18:35:46+0000,732.0,1280.0,,,Malaysia,Mulu; Sarawak; 98008; Malaysia,hotel,cameraforensics
https://q-cf.bstatic.com/images/hotel/max1280x900/123/123671208.jpg,4.03155118,114.80051565,2020-07-22T02:19:46+0000,721.0,1280.0,,,Malaysia,Mulu; Sarawak; 98008; Malaysia,hotel,cameraforensics
https://r-cf.bstatic.com/images/hotel/max1280x900/163/163584677.jpg,4.03155118,114.80051565,2020-07-31T20:29:53+0000,900.0,675.0,,,Malaysia,Mulu; Sarawak; 98008; Malaysia,hotel,cameraforensics
https://q-cf.bstatic.com/images/hotel/max1280x900/127/127845655.jpg,4.03154834,114.79867458,2020-09-13T02:11:47+0000,800.0,1280.0,,,Malaysia,Mulu Main Road; Mulu; Sarawak; 98008; Malaysia,hotel,cameraforensics
https://r-cf.bstatic.com/images/hotel/max1280x900/894/89491595.jpg,4.03154834,114.79867458,2020-11-30T05:33:38+0000,900.0,1200.0,,,Malaysia,Mulu Main Road; Mulu; Sarawak; 98008; Malaysia,hotel,cameraforensics
https://q-cf.bstatic.com/images/hotel/max1280x900/891/89143804.jpg,4.03155118,114.80051565,2020-04-09T16:34:40+0000,900.0,1200.0,,,Malaysia,Mulu; Sarawak; 98008; Malaysia,hotel,cameraforensics
https://r-cf.bstatic.com/images/hotel/max1280x900/131/131145123.jpg,4.03154834,114.79867458,2020-07-20T14:33:40+0000,720.0,1280.0,,,Malaysia,Mulu Main Road; Mulu; Sarawak; 98008; Malaysia,hotel,cameraforensics
https://r-cf.bstatic.com/images/hotel/max1280x900/934/93478689.jpg,4.029403,114.8008,2020-01-18T10:55:28+0000,854.0,1280.0,,,Malaysia,Mulu; Sarawak; 98008; Malaysia,hotel,cameraforensics
https://r-cf.bstatic.com/images/hotel/max1280x900/889/88983260.jpg,4.03155118,114.80051565,2020-07-04T20:46:32+0000,900.0,1200.0,,,Malaysia,Mulu; Sarawak; 98008; Malaysia,hotel,cameraforensics
https://r-cf.bstatic.com/images/hotel/max1280x900/100/100185826.jpg,4.03214318,114.80147142,2020-06-22T05:05:32+0000,719.0,1280.0,,,Malaysia,Mulu; Sarawak; 98008; Malaysia,hotel,cameraforensics
https://r-cf.bstatic.com/images/hotel/max1280x900/163/163584654.jpg,4.03155118,114.80051565,2020-07-29T16:37:09+0000,900.0,506.0,,,Malaysia,Mulu; Sarawak; 98008; Malaysia,hotel,cameraforensics
https://r-cf.bstatic.com/images/hotel/max1280x900/163/163585381.jpg,4.03155118,114.80051565,2020-04-07T15:06:09+0000,719.0,1280.0,,,Malaysia,Mulu; Sarawak; 98008; Malaysia,hotel,cameraforensics
https://r-cf.bstatic.com/images/hotel/max1280x900/163/163584691.jpg,4.03155118,114.80051565,2020-04-07T14:36:33+0000,900.0,1201.0,,,Malaysia,Mulu; Sarawak; 98008; Malaysia,hotel,cameraforensics
https://r-cf.bstatic.com/images/hotel/max1280x900/898/89845670.jpg,4.03214318,114.80147142,2020-03-03T21:03:06+0000,900.0,1200.0,,,Malaysia,Mulu; Sarawak; 98008; Malaysia,hotel,cameraforensics
https://r-cf.bstatic.com/images/hotel/max1280x900/891/89143805.jpg,4.03155118,114.80051565,2020-07-29T16:41:55+0000,900.0,1200.0,,,Malaysia,Mulu; Sarawak; 98008; Malaysia,hotel,cameraforensics
https://q-cf.bstatic.com/images/hotel/max1280x900/894/89493770.jpg,4.03154834,114.79867458,2020-07-26T18:30:16+0000,900.0,1200.0,,,Malaysia,Mulu Main Road; Mulu; Sarawak; 98008; Malaysia,hotel,cameraforensics
https://q-cf.bstatic.com/images/hotel/max1280x900/152/152279149.jpg,4.029403,114.8008,2019-12-04T07:04:10+0000,803.0,1280.0,,,Malaysia,Mulu; Sarawak; 98008; Malaysia,hotel,cameraforensics
https://r-cf.bstatic.com/images/hotel/max1280x900/894/89491303.jpg,4.03154834,114.79867458,2020-12-08T23:18:41+0000,900.0,1200.0,,,Malaysia,Mulu Main Road; Mulu; Sarawak; 98008; Malaysia,hotel,cameraforensics
https://r-cf.bstatic.com/images/hotel/max1280x900/228/228441706.jpg,4.03154834,114.79867458,2020-12-30T12:23:57+0000,900.0,900.0,,,Malaysia,Mulu Main Road; Mulu; Sarawak; 98008; Malaysia,hotel,cameraforensics
https://q-cf.bstatic.com/images/hotel/max1280x900/167/167489164.jpg,4.03154834,114.79867458,2020-09-09T05:40:20+0000,900.0,1200.0,,,Malaysia,Mulu Main Road; Mulu; Sarawak; 98008; Malaysia,hotel,cameraforensics
https://q-cf.bstatic.com/images/hotel/max1280x900/163/163584647.jpg,4.03155118,114.80051565,2020-05-03T07:22:30+0000,900.0,506.0,,,Malaysia,Mulu; Sarawak; 98008; Malaysia,hotel,cameraforensics
https://q-cf.bstatic.com/images/hotel/max1280x900/167/167489632.jpg,4.03154834,114.79867458,2020-12-16T19:23:08+0000,900.0,675.0,,,Malaysia,Mulu Main Road; Mulu; Sarawak; 98008; Malaysia,hotel,cameraforensics
https://r-cf.bstatic.com/images/hotel/max1280x900/123/123670951.jpg,4.03155118,114.80051565,2020-06-05T03:52:44+0000,900.0,675.0,,,Malaysia,Mulu; Sarawak; 98008; Malaysia,hotel,cameraforensics
https://r-cf.bstatic.com/images/hotel/max1280x900/228/228298967.jpg,4.03154834,114.79867458,2020-09-07T15:24:13+0000,900.0,900.0,,,Malaysia,Mulu Main Road; Mulu; Sarawak; 98008; Malaysia,hotel,cameraforensics
https://q-cf.bstatic.com/images/hotel/max1280x900/127/127845631.jpg,4.03154834,114.79867458,2020-09-09T05:40:13+0000,900.0,506.0,,,Malaysia,Mulu Main Road; Mulu; Sarawak; 98008; Malaysia,hotel,cameraforensics
https://q-cf.bstatic.com/images/hotel/max1280x900/167/167489526.jpg,4.03154834,114.79867458,2020-12-16T19:23:07+0000,900.0,1200.0,,,Malaysia,Mulu Main Road; Mulu; Sarawak; 98008; Malaysia,hotel,cameraforensics
https://r-cf.bstatic.com/images/hotel/max1280x900/898/89844349.jpg,4.03214318,114.80147142,2020-06-23T07:25:39+0000,719.0,1280.0,,,Malaysia,Mulu; Sarawak; 98008; Malaysia,hotel,cameraforensics
https://r-cf.bstatic.com/images/hotel/max1280x900/892/89284981.jpg,4.03155118,114.80051565,2020-07-22T05:04:54+0000,900.0,1200.0,,,Malaysia,Mulu; Sarawak; 98008; Malaysia,hotel,cameraforensics
https://q-cf.bstatic.com/images/hotel/max1280x900/123/123671288.jpg,4.03155118,114.80051565,2020-04-24T22:37:04+0000,721.0,1280.0,,,Malaysia,Mulu; Sarawak; 98008; Malaysia,hotel,cameraforensics
https://q-cf.bstatic.com/images/hotel/max1280x900/123/123671152.jpg,4.03155118,114.80051565,2020-07-05T12:55:32+0000,900.0,1200.0,,,Malaysia,Mulu; Sarawak; 98008; Malaysia,hotel,cameraforensics
https://q-cf.bstatic.com/images/hotel/max1280x900/934/93480598.jpg,4.029403,114.8008,2020-01-20T10:07:42+0000,900.0,1201.0,,,Malaysia,Mulu; Sarawak; 98008; Malaysia,hotel,cameraforensics
https://r-cf.bstatic.com/images/hotel/max1280x900/898/89845358.jpg,4.03214318,114.80147142,2020-05-20T12:56:15+0000,900.0,506.0,,,Malaysia,Mulu; Sarawak; 98008; Malaysia,hotel,cameraforensics
https://r-cf.bstatic.com/images/hotel/max1280x900/228/228439063.jpg,4.03154834,114.79867458,2020-12-03T07:14:15+0000,768.0,1024.0,,,Malaysia,Mulu Main Road; Mulu; Sarawak; 98008; Malaysia,hotel,cameraforensics
https://r-cf.bstatic.com/images/hotel/max1280x900/123/123670780.jpg,4.03155118,114.80051565,2020-06-23T09:38:20+0000,900.0,675.0,,,Malaysia,Mulu; Sarawak; 98008; Malaysia,hotel,cameraforensics
https://q-cf.bstatic.com/images/hotel/max1280x900/898/89842746.jpg,4.03214318,114.80147142,2020-09-08T07:06:52+0000,719.0,1280.0,,,Malaysia,Mulu; Sarawak; 98008; Malaysia,hotel,cameraforensics
https://r-cf.bstatic.com/images/hotel/max1280x900/934/93479307.jpg,4.029403,114.8008,2020-03-04T21:59:51+0000,900.0,1040.0,,,Malaysia,Mulu; Sarawak; 98008; Malaysia,hotel,cameraforensics
https://r-cf.bstatic.com/images/hotel/max1280x900/891/89143604.jpg,4.03155118,114.80051565,2020-06-23T09:53:30+0000,900.0,1200.0,,,Malaysia,Mulu; Sarawak; 98008; Malaysia,hotel,cameraforensics
https://r-cf.bstatic.com/images/hotel/max1280x900/123/123670923.jpg,4.03155118,114.80051565,2020-06-23T10:17:28+0000,900.0,675.0,,,Malaysia,Mulu; Sarawak; 98008; Malaysia,hotel,cameraforensics
https://q-cf.bstatic.com/images/hotel/max1280x900/214/214304391.jpg,4.04498209,114.80795429,2020-10-08T20:31:38+0000,900.0,675.0,,,Malaysia,D'Cave Homestay; Mulu Main Road; Mulu; Sarawak; 98008; Malaysia,hotel,cameraforensics
https://r-cf.bstatic.com/images/hotel/max1280x900/226/226809721.jpg,4.04498209,114.80795429,2020-10-13T12:29:18+0000,900.0,1200.0,,,Malaysia,D'Cave Homestay; Mulu Main Road; Mulu; Sarawak; 98008; Malaysia,hotel,cameraforensics
https://q-cf.bstatic.com/images/hotel/max1280x900/226/226809241.jpg,4.04498209,114.80795429,2020-10-08T20:31:42+0000,900.0,1200.0,,,Malaysia,D'Cave Homestay; Mulu Main Road; Mulu; Sarawak; 98008; Malaysia,hotel,cameraforensics
https://r-cf.bstatic.com/images/hotel/max1280x900/153/153157468.jpg,4.04773133,114.81002063,2020-06-24T22:09:14+0000,900.0,1200.0,,,Malaysia,Mulu Backpacker Homestay; Mulu Main Road; Mulu; Sarawak; 98008; Malaysia,hotel,cameraforensics
https://r-cf.bstatic.com/images/hotel/max1280x900/158/158866025.jpg,4.04498209,114.80795429,2020-10-10T13:03:30+0000,900.0,1200.0,,,Malaysia,D'Cave Homestay; Mulu Main Road; Mulu; Sarawak; 98008; Malaysia,hotel,cameraforensics
https://q-cf.bstatic.com/images/hotel/max1280x900/220/220311801.jpg,4.09207,114.895802,2020-04-08T22:23:51+0000,768.0,1024.0,,,Malaysia,Sarawak; Malaysia,hotel,cameraforensics
https://r-cf.bstatic.com/images/hotel/max1280x900/158/158875495.jpg,4.04498209,114.80795429,2020-11-30T09:48:46+0000,900.0,675.0,,,Malaysia,D'Cave Homestay; Mulu Main Road; Mulu; Sarawak; 98008; Malaysia,hotel,cameraforensics
https://q-cf.bstatic.com/images/hotel/max1280x900/212/212201863.jpg,4.04330186,114.80894134,2020-01-09T14:57:15+0000,900.0,675.0,,,Malaysia,Mulu; Sarawak; 98008; Malaysia,hotel,cameraforensics
https://r-cf.bstatic.com/images/hotel/max1280x900/200/200561014.jpg,4.04330186,114.80894134,2020-01-25T21:04:30+0000,810.0,1080.0,,,Malaysia,Mulu; Sarawak; 98008; Malaysia,hotel,cameraforensics
https://r-cf.bstatic.com/images/hotel/max1280x900/196/196990464.jpg,4.04330186,114.80894134,2020-01-11T03:24:47+0000,810.0,1080.0,,,Malaysia,Mulu; Sarawak; 98008; Malaysia,hotel,cameraforensics
https://r-cf.bstatic.com/images/hotel/max1280x900/153/153157102.jpg,4.04773133,114.81002063,2020-10-15T00:54:36+0000,774.0,1032.0,,,Malaysia,Mulu Backpacker Homestay; Mulu Main Road; Mulu; Sarawak; 98008; Malaysia,hotel,cameraforensics
https://q-cf.bstatic.com/images/hotel/max1280x900/153/153207701.jpg,4.09207,114.895802,2020-01-19T00:07:54+0000,900.0,1200.0,,,Malaysia,Sarawak; Malaysia,hotel,cameraforensics
https://r-cf.bstatic.com/images/hotel/max1280x900/212/212201815.jpg,4.04330186,114.80894134,2020-01-11T04:28:56+0000,900.0,675.0,,,Malaysia,Mulu; Sarawak; 98008; Malaysia,hotel,cameraforensics
https://q-cf.bstatic.com/images/hotel/max1280x900/214/214404927.jpg,4.09207,114.895802,2020-06-17T02:41:52+0000,683.0,1024.0,,,Malaysia,Sarawak; Malaysia,hotel,cameraforensics
https://q-cf.bstatic.com/images/hotel/max1280x900/219/219628992.jpg,4.09207,114.895802,2020-07-03T09:11:23+0000,686.0,1024.0,,,Malaysia,Sarawak; Malaysia,hotel,cameraforensics
https://r-cf.bstatic.com/images/hotel/max1280x900/226/226809569.jpg,4.04498209,114.80795429,2020-11-15T19:05:25+0000,900.0,1200.0,,,Malaysia,D'Cave Homestay; Mulu Main Road; Mulu; Sarawak; 98008; Malaysia,hotel,cameraforensics
https://q-cf.bstatic.com/images/hotel/max1280x900/159/159510478.jpg,4.04498209,114.80795429,2020-10-25T17:58:40+0000,900.0,1200.0,,,Malaysia,D'Cave Homestay; Mulu Main Road; Mulu; Sarawak; 98008; Malaysia,hotel,cameraforensics
https://q-cf.bstatic.com/images/hotel/max1280x900/153/153157099.jpg,4.04773133,114.81002063,2020-11-20T11:27:00+0000,774.0,1032.0,,,Malaysia,Mulu Backpacker Homestay; Mulu Main Road; Mulu; Sarawak; 98008; Malaysia,hotel,cameraforensics
https://r-cf.bstatic.com/images/hotel/max1280x900/153/153158201.jpg,4.04773133,114.81002063,2020-06-15T02:47:18+0000,900.0,1200.0,,,Malaysia,Mulu Backpacker Homestay; Mulu Main Road; Mulu; Sarawak; 98008; Malaysia,hotel,cameraforensics
https://q-cf.bstatic.com/images/hotel/max1280x900/217/217053068.jpg,4.09207,114.895802,2020-08-18T04:24:26+0000,900.0,1176.0,,,Malaysia,Sarawak; Malaysia,hotel,cameraforensics
https://q-cf.bstatic.com/images/hotel/max1280x900/197/197190275.jpg,4.04330186,114.80894134,2020-01-27T17:26:55+0000,810.0,1080.0,,,Malaysia,Mulu; Sarawak; 98008; Malaysia,hotel,cameraforensics
https://r-cf.bstatic.com/images/hotel/max1280x900/215/215145976.jpg,4.04330186,114.80894134,2020-03-07T07:47:32+0000,780.0,1040.0,,,Malaysia,Mulu; Sarawak; 98008; Malaysia,hotel,cameraforensics
https://q-cf.bstatic.com/images/hotel/max1280x900/226/226809098.jpg,4.04498209,114.80795429,2020-09-21T07:10:52+0000,900.0,1200.0,,,Malaysia,D'Cave Homestay; Mulu Main Road; Mulu; Sarawak; 98008; Malaysia,hotel,cameraforensics
https://q-cf.bstatic.com/images/hotel/max1280x900/152/152934282.jpg,4.09207,114.895802,2020-03-13T19:02:06+0000,900.0,1200.0,,,Malaysia,Sarawak; Malaysia,hotel,cameraforensics
https://r-cf.bstatic.com/images/hotel/max1280x900/199/199292092.jpg,4.04330186,114.80894134,2019-12-25T07:46:58+0000,900.0,675.0,,,Malaysia,Mulu; Sarawak; 98008; Malaysia,hotel,cameraforensics
https://q-cf.bstatic.com/images/hotel/max1280x900/153/153207637.jpg,4.09207,114.895802,2020-01-13T21:40:44+0000,900.0,1200.0,,,Malaysia,Sarawak; Malaysia,hotel,cameraforensics
https://r-cf.bstatic.com/images/hotel/max1280x900/199/199291673.jpg,4.04330186,114.80894134,2019-12-25T07:46:56+0000,900.0,675.0,,,Malaysia,Mulu; Sarawak; 98008; Malaysia,hotel,cameraforensics
https://r-cf.bstatic.com/images/hotel/max1280x900/220/220312377.jpg,4.09207,114.895802,2020-07-07T10:05:28+0000,900.0,598.0,,,Malaysia,Sarawak; Malaysia,hotel,cameraforensics
https://q-cf.bstatic.com/images/hotel/max1280x900/152/152934270.jpg,4.09207,114.895802,2020-02-13T08:45:28+0000,900.0,1200.0,,,Malaysia,Sarawak; Malaysia,hotel,cameraforensics
https://r-cf.bstatic.com/images/hotel/max1280x900/159/159473758.jpg,4.04498209,114.80795429,2020-07-23T23:45:21+0000,900.0,675.0,,,Malaysia,D'Cave Homestay; Mulu Main Road; Mulu; Sarawak; 98008; Malaysia,hotel,cameraforensics
https://q-cf.bstatic.com/images/hotel/max1280x900/214/214404901.jpg,4.09207,114.895802,2020-04-17T10:57:10+0000,576.0,1024.0,,,Malaysia,Sarawak; Malaysia,hotel,cameraforensics
https://q-cf.bstatic.com/images/hotel/max1280x900/152/152928602.jpg,4.09207,114.895802,2020-02-13T07:35:34+0000,774.0,1032.0,,,Malaysia,Sarawak; Malaysia,hotel,cameraforensics
https://r-cf.bstatic.com/images/hotel/max1280x900/202/202469392.jpg,4.04330186,114.80894134,2020-01-09T03:05:56+0000,900.0,675.0,,,Malaysia,Mulu; Sarawak; 98008; Malaysia,hotel,cameraforensics
https://q-cf.bstatic.com/images/hotel/max1280x900/153/153158250.jpg,4.04773133,114.81002063,2021-01-02T05:26:42+0000,900.0,1200.0,,,Malaysia,Mulu Backpacker Homestay; Mulu Main Road; Mulu; Sarawak; 98008; Malaysia,hotel,cameraforensics
https://q-cf.bstatic.com/images/hotel/max1280x900/226/226810213.jpg,4.04498209,114.80795429,2020-10-08T20:32:09+0000,900.0,675.0,,,Malaysia,D'Cave Homestay; Mulu Main Road; Mulu; Sarawak; 98008; Malaysia,hotel,cameraforensics
https://q-cf.bstatic.com/images/hotel/max1280x900/152/152666950.jpg,4.04773133,114.81002063,2020-10-12T13:45:01+0000,720.0,960.0,,,Malaysia,Mulu Backpacker Homestay; Mulu Main Road; Mulu; Sarawak; 98008; Malaysia,hotel,cameraforensics
https://r-cf.bstatic.com/images/hotel/max1280x900/158/158866016.jpg,4.04498209,114.80795429,2020-06-24T22:11:27+0000,900.0,675.0,,,Malaysia,D'Cave Homestay; Mulu Main Road; Mulu; Sarawak; 98008; Malaysia,hotel,cameraforensics
https://r-cf.bstatic.com/images/hotel/max1280x900/226/226811224.jpg,4.04498209,114.80795429,2020-08-16T06:20:00+0000,900.0,675.0,,,Malaysia,D'Cave Homestay; Mulu Main Road; Mulu; Sarawak; 98008; Malaysia,hotel,cameraforensics
https://q-cf.bstatic.com/images/hotel/max1280x900/215/215146021.jpg,4.04330186,114.80894134,2020-01-09T17:23:00+0000,780.0,1040.0,,,Malaysia,Mulu; Sarawak; 98008; Malaysia,hotel,cameraforensics
https://r-cf.bstatic.com/images/hotel/max1280x900/153/153157097.jpg,4.04773133,114.81002063,2020-11-30T09:58:31+0000,774.0,1032.0,,,Malaysia,Mulu Backpacker Homestay; Mulu Main Road; Mulu; Sarawak; 98008; Malaysia,hotel,cameraforensics
https://q-cf.bstatic.com/images/hotel/max1280x900/200/200731116.jpg,4.04330186,114.80894134,2020-01-09T13:15:36+0000,900.0,675.0,,,Malaysia,Mulu; Sarawak; 98008; Malaysia,hotel,cameraforensics
https://q-cf.bstatic.com/images/hotel/max1280x900/220/220311729.jpg,4.09207,114.895802,2020-05-02T02:17:50+0000,680.0,1024.0,,,Malaysia,Sarawak; Malaysia,hotel,cameraforensics
https://q-cf.bstatic.com/images/hotel/max1280x900/226/226809668.jpg,4.04498209,114.80795429,2020-07-25T17:19:49+0000,900.0,1200.0,,,Malaysia,D'Cave Homestay; Mulu Main Road; Mulu; Sarawak; 98008; Malaysia,hotel,cameraforensics
https://r-cf.bstatic.com/images/hotel/max1280x900/215/215445063.jpg,4.09207,114.895802,2020-03-03T06:01:27+0000,810.0,1080.0,,,Malaysia,Sarawak; Malaysia,hotel,cameraforensics
https://q-cf.bstatic.com/images/hotel/max1280x900/202/202469379.jpg,4.04330186,114.80894134,2020-01-21T16:20:47+0000,900.0,675.0,,,Malaysia,Mulu; Sarawak; 98008; Malaysia,hotel,cameraforensics
https://q-cf.bstatic.com/images/hotel/max1280x900/203/203450936.jpg,4.04330186,114.80894134,2020-01-21T16:28:21+0000,900.0,1200.0,,,Malaysia,Mulu; Sarawak; 98008; Malaysia,hotel,cameraforensics
https://q-cf.bstatic.com/images/hotel/max1280x900/215/215145973.jpg,4.04330186,114.80894134,2020-02-16T11:22:56+0000,780.0,1040.0,,,Malaysia,Mulu; Sarawak; 98008; Malaysia,hotel,cameraforensics
https://q-cf.bstatic.com/images/hotel/max1280x900/214/214404929.jpg,4.09207,114.895802,2020-07-03T09:11:21+0000,697.0,1024.0,,,Malaysia,Sarawak; Malaysia,hotel,cameraforensics
https://r-cf.bstatic.com/images/hotel/max1280x900/202/202469409.jpg,4.04330186,114.80894134,2020-01-29T20:38:19+0000,900.0,675.0,,,Malaysia,Mulu; Sarawak; 98008; Malaysia,hotel,cameraforensics
https://r-cf.bstatic.com/images/hotel/max1280x900/226/226810332.jpg,4.04498209,114.80795429,2020-11-15T16:22:37+0000,900.0,675.0,,,Malaysia,D'Cave Homestay; Mulu Main Road; Mulu; Sarawak; 98008; Malaysia,hotel,cameraforensics
https://q-cf.bstatic.com/images/hotel/max1280x900/153/153157104.jpg,4.04773133,114.81002063,2020-06-15T17:41:52+0000,774.0,1032.0,,,Malaysia,Mulu Backpacker Homestay; Mulu Main Road; Mulu; Sarawak; 98008; Malaysia,hotel,cameraforensics
https://q-cf.bstatic.com/images/hotel/max1280x900/215/215445058.jpg,4.09207,114.895802,2020-07-01T03:14:39+0000,810.0,1080.0,,,Malaysia,Sarawak; Malaysia,hotel,cameraforensics
https://q-cf.bstatic.com/images/hotel/max1280x900/199/199291332.jpg,4.04330186,114.80894134,2020-03-05T03:27:00+0000,900.0,675.0,,,Malaysia,Mulu; Sarawak; 98008; Malaysia,hotel,cameraforensics
https://r-cf.bstatic.com/images/hotel/max1280x900/226/226812459.jpg,4.04498209,114.80795429,2020-10-11T23:54:23+0000,900.0,675.0,,,Malaysia,D'Cave Homestay; Mulu Main Road; Mulu; Sarawak; 98008; Malaysia,hotel,cameraforensics
https://q-cf.bstatic.com/images/hotel/max1280x900/226/226810872.jpg,4.04498209,114.80795429,2020-11-20T20:22:28+0000,900.0,675.0,,,Malaysia,D'Cave Homestay; Mulu Main Road; Mulu; Sarawak; 98008; Malaysia,hotel,cameraforensics
https://r-cf.bstatic.com/images/hotel/max1280x900/226/226808645.jpg,4.04498209,114.80795429,2020-11-04T06:53:12+0000,900.0,675.0,,,Malaysia,D'Cave Homestay; Mulu Main Road; Mulu; Sarawak; 98008; Malaysia,hotel,cameraforensics
https://r-cf.bstatic.com/images/hotel/max1280x900/159/159511680.jpg,4.04498209,114.80795429,2020-11-04T06:53:11+0000,900.0,1200.0,,,Malaysia,D'Cave Homestay; Mulu Main Road; Mulu; Sarawak; 98008; Malaysia,hotel,cameraforensics
https://r-cf.bstatic.com/images/hotel/max1280x900/159/159464876.jpg,4.04498209,114.80795429,2020-12-28T21:58:07+0000,900.0,675.0,,,Malaysia,D'Cave Homestay; Mulu Main Road; Mulu; Sarawak; 98008; Malaysia,hotel,cameraforensics
https://q-cf.bstatic.com/images/hotel/max1280x900/180/180665094.jpg,4.04498209,114.80795429,2021-01-02T05:26:44+0000,900.0,675.0,,,Malaysia,D'Cave Homestay; Mulu Main Road; Mulu; Sarawak; 98008; Malaysia,hotel,cameraforensics
https://q-cf.bstatic.com/images/hotel/max1280x900/153/153247957.jpg,4.04773133,114.81002063,2020-10-11T10:30:27+0000,900.0,1200.0,,,Malaysia,Mulu Backpacker Homestay; Mulu Main Road; Mulu; Sarawak; 98008; Malaysia,hotel,cameraforensics
https://r-cf.bstatic.com/images/hotel/max1280x900/203/203450916.jpg,4.04330186,114.80894134,2020-02-20T09:05:41+0000,900.0,675.0,,,Malaysia,Mulu; Sarawak; 98008; Malaysia,hotel,cameraforensics
https://r-cf.bstatic.com/images/hotel/max1280x900/158/158866021.jpg,4.04498209,114.80795429,2020-10-13T12:29:17+0000,900.0,1200.0,,,Malaysia,D'Cave Homestay; Mulu Main Road; Mulu; Sarawak; 98008; Malaysia,hotel,cameraforensics
https://q-cf.bstatic.com/images/hotel/max1280x900/199/199291860.jpg,4.04330186,114.80894134,2019-12-20T20:44:07+0000,900.0,675.0,,,Malaysia,Mulu; Sarawak; 98008; Malaysia,hotel,cameraforensics
https://r-cf.bstatic.com/images/hotel/max1280x900/153/153158373.jpg,4.04773133,114.81002063,2020-10-13T12:28:14+0000,900.0,675.0,,,Malaysia,Mulu Backpacker Homestay; Mulu Main Road; Mulu; Sarawak; 98008; Malaysia,hotel,cameraforensics
https://r-cf.bstatic.com/images/hotel/max1280x900/152/152934262.jpg,4.09207,114.895802,2019-12-28T22:32:42+0000,900.0,1200.0,,,Malaysia,Sarawak; Malaysia,hotel,cameraforensics
https://r-cf.bstatic.com/images/hotel/max1280x900/202/202469371.jpg,4.04330186,114.80894134,2020-01-18T16:04:07+0000,900.0,675.0,,,Malaysia,Mulu; Sarawak; 98008; Malaysia,hotel,cameraforensics
https://r-cf.bstatic.com/images/hotel/max1280x900/180/180664988.jpg,4.04498209,114.80795429,2020-06-24T22:11:29+0000,900.0,1200.0,,,Malaysia,D'Cave Homestay; Mulu Main Road; Mulu; Sarawak; 98008; Malaysia,hotel,cameraforensics
https://r-cf.bstatic.com/images/hotel/max1280x900/226/226835936.jpg,4.04498209,114.80795429,2020-06-24T22:11:30+0000,900.0,675.0,,,Malaysia,D'Cave Homestay; Mulu Main Road; Mulu; Sarawak; 98008; Malaysia,hotel,cameraforensics
https://q-cf.bstatic.com/images/hotel/max1280x900/226/226808812.jpg,4.04498209,114.80795429,2020-10-09T13:26:08+0000,900.0,1200.0,,,Malaysia,D'Cave Homestay; Mulu Main Road; Mulu; Sarawak; 98008; Malaysia,hotel,cameraforensics
https://r-cf.bstatic.com/images/hotel/max1280x900/214/214303331.jpg,4.04498209,114.80795429,2020-10-15T00:54:39+0000,900.0,1200.0,,,Malaysia,D'Cave Homestay; Mulu Main Road; Mulu; Sarawak; 98008; Malaysia,hotel,cameraforensics
https://q-cf.bstatic.com/images/hotel/max1280x900/159/159511333.jpg,4.04498209,114.80795429,2020-06-21T05:58:20+0000,900.0,1200.0,,,Malaysia,D'Cave Homestay; Mulu Main Road; Mulu; Sarawak; 98008; Malaysia,hotel,cameraforensics
https://r-cf.bstatic.com/images/hotel/max1280x900/215/215146322.jpg,4.04330186,114.80894134,2020-02-23T07:31:06+0000,780.0,1040.0,,,Malaysia,Mulu; Sarawak; 98008; Malaysia,hotel,cameraforensics
https://q-cf.bstatic.com/images/hotel/max1280x900/213/213195812.jpg,4.04498209,114.80795429,2020-09-21T00:53:46+0000,900.0,675.0,,,Malaysia,D'Cave Homestay; Mulu Main Road; Mulu; Sarawak; 98008; Malaysia,hotel,cameraforensics
https://q-cf.bstatic.com/images/hotel/max1280x900/220/220311243.jpg,4.09207,114.895802,2020-06-21T12:50:45+0000,616.0,1200.0,,,Malaysia,Sarawak; Malaysia,hotel,cameraforensics
https://r-cf.bstatic.com/images/hotel/max1280x900/214/214306592.jpg,4.04498209,114.80795429,2020-06-15T02:47:19+0000,900.0,675.0,,,Malaysia,D'Cave Homestay; Mulu Main Road; Mulu; Sarawak; 98008; Malaysia,hotel,cameraforensics
https://q-cf.bstatic.com/images/hotel/max1280x900/215/215445062.jpg,4.09207,114.895802,2020-05-29T12:11:03+0000,810.0,1080.0,,,Malaysia,Sarawak; Malaysia,hotel,cameraforensics
https://r-cf.bstatic.com/images/hotel/max1280x900/215/215146387.jpg,4.04330186,114.80894134,2020-02-08T05:55:27+0000,780.0,1040.0,,,Malaysia,Mulu; Sarawak; 98008; Malaysia,hotel,cameraforensics
https://q-cf.bstatic.com/images/hotel/max1280x900/217/217053072.jpg,4.09207,114.895802,2020-08-18T04:24:30+0000,850.0,1280.0,,,Malaysia,Sarawak; Malaysia,hotel,cameraforensics
https://r-cf.bstatic.com/images/hotel/max1280x900/196/196591438.jpg,4.04330186,114.80894134,2019-12-25T07:46:55+0000,780.0,1040.0,,,Malaysia,Mulu; Sarawak; 98008; Malaysia,hotel,cameraforensics
https://r-cf.bstatic.com/images/hotel/max1280x900/222/222985200.jpg,4.04498209,114.80795429,2020-09-28T15:18:04+0000,900.0,675.0,,,Malaysia,D'Cave Homestay; Mulu Main Road; Mulu; Sarawak; 98008; Malaysia,hotel,cameraforensics
https://q-cf.bstatic.com/images/hotel/max1280x900/226/226811088.jpg,4.04498209,114.80795429,2020-11-20T20:15:35+0000,900.0,1200.0,,,Malaysia,D'Cave Homestay; Mulu Main Road; Mulu; Sarawak; 98008; Malaysia,hotel,cameraforensics
https://r-cf.bstatic.com/images/hotel/max1280x900/153/153157460.jpg,4.04773133,114.81002063,2020-07-21T18:31:55+0000,900.0,1200.0,,,Malaysia,Mulu Backpacker Homestay; Mulu Main Road; Mulu; Sarawak; 98008; Malaysia,hotel,cameraforensics
https://r-cf.bstatic.com/images/hotel/max1280x900/159/159512248.jpg,4.04498209,114.80795429,2020-07-21T18:31:56+0000,900.0,1200.0,,,Malaysia,D'Cave Homestay; Mulu Main Road; Mulu; Sarawak; 98008; Malaysia,hotel,cameraforensics
https://q-cf.bstatic.com/images/hotel/max1280x900/202/202469403.jpg,4.04330186,114.80894134,2020-01-01T03:47:51+0000,900.0,675.0,,,Malaysia,Mulu; Sarawak; 98008; Malaysia,hotel,cameraforensics
https://q-cf.bstatic.com/images/hotel/max1280x900/115/115555430.jpg,4.41723078,114.00119796,2020-02-18T03:24:20+0000,853.0,1280.0,,,Malaysia,Krokop; Kampong Pulau Melayu; Sarawak; 98000; Malaysia,hotel,cameraforensics
https://q-cf.bstatic.com/images/hotel/max1280x900/394/39491555.jpg,4.39831608,113.99244547,2020-02-28T23:25:18+0000,900.0,1200.0,,,Malaysia,Miri Courthouse; Jalan Sylvia; Miri; Sarawak; 98000; Malaysia,hotel,cameraforensics
https://q-cf.bstatic.com/images/hotel/max1280x900/197/197769134.jpg,4.40457459,114.00098329999999,2019-12-19T05:59:28+0000,856.0,1280.0,,,Malaysia,Pelita 4; Merbau Garden; Krokop; Kampong Lereng Bukit; Sarawak; 98000; Malaysia,hotel,cameraforensics
https://q-cf.bstatic.com/images/hotel/max1280x900/132/132400863.jpg,4.397989,113.991745,2020-05-18T20:10:07+0000,900.0,506.0,,,Malaysia,Kingsley Garden; Jalan Sylvia; Times Square; Marina Bay; Miri; Sarawak; 98000; Malaysia,hotel,cameraforensics
https://r-cf.bstatic.com/images/hotel/max1280x900/195/195065002.jpg,4.39558079,113.98568898,2020-11-02T12:14:28+0000,856.0,1280.0,,,Malaysia,Nur Hotel; Indica; Times Square; Marina Bay; Miri; Sarawak; 98000; Malaysia,hotel,cameraforensics
https://q-cf.bstatic.com/images/hotel/max1280x900/211/211912737.jpg,4.39558079,113.98568898,2020-10-14T15:10:58+0000,856.0,1280.0,,,Malaysia,Nur Hotel; Indica; Times Square; Marina Bay; Miri; Sarawak; 98000; Malaysia,hotel,cameraforensics
https://q-cf.bstatic.com/images/hotel/max1280x900/188/188394872.jpg,4.4073445,114.00650024,2019-12-26T07:15:50+0000,900.0,675.0,,,Malaysia,Shang Garden; Krokop; Kampong Lereng Bukit; Sarawak; 98000; Malaysia,hotel,cameraforensics
https://q-cf.bstatic.com/images/hotel/max1280x900/629/62942535.jpg,4.39860524,113.9890793,2020-04-08T14:29:59+0000,900.0,1243.0,,,Malaysia,7-Eleven; Jalan Ross; Times Square; Marina Bay; Miri; Sarawak; 98000; Malaysia,hotel,cameraforensics
https://q-cf.bstatic.com/images/hotel/max1280x900/346/34632810.jpg,4.3993637,113.99050891,2020-02-04T09:51:01+0000,853.0,1280.0,,,Malaysia,Imperial Mall; Parry; Times Square; Marina Bay; Miri; Sarawak; 98000; Malaysia,hotel,cameraforensics
https://q-cf.bstatic.com/images/hotel/max1280x900/550/55063921.jpg,4.40545027,114.00175542,2019-12-21T20:49:35+0000,900.0,1200.0,,,Malaysia,Toys World; Pelita 2; Merbau Garden; Krokop; Kampong Lereng Bukit; Sarawak; 98000; Malaysia,hotel,cameraforensics
https://r-cf.bstatic.com/images/hotel/max1280x900/161/161944501.jpg,4.404713,114.000427,2019-12-28T20:39:30+0000,768.0,1024.0,,,Malaysia,Imperial Palace Hotel; Jalan Sehati; Merbau Garden; Krokop; Kampong Lereng Bukit; Sarawak; 98000; Malaysia,hotel,cameraforensics
