url,latitude,longitude,date,height,width,media,copyRight,country,address,keyword,source
https://farm7.staticflickr.com/6195/6129599630_d57ecd024f_b.jpg,47.040182,101.758117,2010-08-01 00:00:00,,,photo,0,Mongolia,Tsenher; Arkhangai; Mongolia,vacation bathroom,flickr
https://live.staticflickr.com/3929/15225997599_c3346a4ca0_o.jpg,47.739323,107.477874,2013-08-01 10:48:09,683.0,1024.0,photo,0,Mongolia,Ulaanbaatar; Mongolia,comfort room,flickr
https://farm9.staticflickr.com/8047/8116443751_e93692453a_b.jpg,47.9105,106.92200000000001,2012-10-08 18:39:08,,,photo,0,Mongolia,Bumping car; Olympic Street; Ulaanbaatar; Sukhbaatar Duureg; 14241; Mongolia,twin room,flickr
https://farm6.staticflickr.com/5711/20654319140_5eebb8f654_b.jpg,47.920463,106.914916,2015-08-04 16:15:23,,,photo,0,Mongolia,Тагнуулын ерөнхий газар; Zhuulchny Street; Gandan; Ulaanbaatar; Sukhbaatar Duureg; 15170-0068; Mongolia,queen room,flickr
https://live.staticflickr.com/7417/9561678099_28f3ec1264_o.jpg,47.917291,106.917228,2013-07-03 12:57:22,3744.0,5616.0,photo,0,Mongolia,World Peace Bell; Peace Avenue; Gandan; Ulaanbaatar; Sukhbaatar Duureg; 15160; Mongolia,Quadruple Room,flickr
https://live.staticflickr.com/5441/9564471512_9860221f94_o.jpg,47.917291,106.917228,2013-07-03 13:09:34,3744.0,5616.0,photo,0,Mongolia,World Peace Bell; Peace Avenue; Gandan; Ulaanbaatar; Sukhbaatar Duureg; 15160; Mongolia,Quadruple Room,flickr
