url,latitude,longitude,date,height,width,media,copyRight,country,address,keyword,source
https://q-cf.bstatic.com/images/hotel/max1280x900/152/152164577.jpg,42.042147,19.143575,2020-05-10T13:17:54+0000,900.0,600.0,,,Montenegro,Nišice; Dobra Voda; Bar Municipality; 85353; Montenegro,hotel,cameraforensics
https://q-cf.bstatic.com/images/hotel/max1280x900/881/88142962.jpg,42.13143401,19.06192039,2020-05-18T14:52:53+0000,766.0,1226.0,,,Montenegro,Love Hotel; M-1; Zelen; Sutomore; Bar Municipality; 85355; Montenegro,hotel,cameraforensics
https://r-cf.bstatic.com/images/hotel/max1280x900/182/182622194.jpg,42.14260720000001,19.04206258,2020-07-17T10:58:27+0000,681.0,1024.0,,,Montenegro,Apartmeani Skala; 29A; Kosovska; Mirošica 2; Sutomore; Bar Municipality; 85355; Montenegro,hotel,cameraforensics
https://r-cf.bstatic.com/images/hotel/max1280x900/201/201604264.jpg,42.14257091,19.03855849,2020-07-17T15:37:17+0000,853.0,1280.0,,,Montenegro,Mirošica 2; Sutomore; Bar Municipality; 85000; Montenegro,hotel,cameraforensics
https://q-cf.bstatic.com/images/hotel/max1280x900/450/45065624.jpg,42.03169371,19.14381626,2020-07-25T12:31:52+0000,853.0,1280.0,,,Montenegro,80; Dubrava; Pečurice; Bar Municipality; 85353; Montenegro,hotel,cameraforensics
https://q-cf.bstatic.com/images/hotel/max1280x900/131/131953734.jpg,42.04349723,19.14366094,2020-07-25T14:37:12+0000,900.0,900.0,,,Montenegro,Nišice; Dobra Voda; Bar Municipality; 85353; Montenegro,hotel,cameraforensics
https://r-cf.bstatic.com/images/hotel/max1280x900/149/149841634.jpg,42.143207000000004,19.04643719,2020-07-17T17:32:09+0000,853.0,1280.0,,,Montenegro,Gorelac; Zankovići; Bar Municipality; 85000; Montenegro,hotel,cameraforensics
https://r-cf.bstatic.com/images/hotel/max1280x900/204/204735806.jpg,42.10570749,19.09560101,2020-06-29T03:55:13+0000,853.0,1280.0,,,Montenegro,Topolica; Bar; Bar Municipality; 85355; Montenegro,hotel,cameraforensics
https://q-cf.bstatic.com/images/hotel/max1280x900/100/100170928.jpg,42.04342076,19.14249793,2019-09-11T06:48:22+0000,719.0,1280.0,,,Montenegro,Nišice; Dobra Voda; Bar Municipality; 85353; Montenegro,hotel,cameraforensics
https://r-cf.bstatic.com/images/hotel/max1280x900/869/86919727.jpg,42.04497941,19.14371699,2019-09-11T07:09:25+0000,900.0,1200.0,,,Montenegro,Nišice; Dobra Voda; Bar Municipality; 85353; Montenegro,hotel,cameraforensics
https://r-cf.bstatic.com/images/hotel/max1280x900/206/206292709.jpg,42.030086,19.154285,2019-09-11T07:29:57+0000,513.0,770.0,,,Montenegro,117; Ravanj; Pečurice-dio; Pečurice; Bar Municipality; 85356; Montenegro,hotel,cameraforensics
https://r-cf.bstatic.com/images/hotel/max1280x900/164/164805564.jpg,42.02943602,19.14275944,2019-09-11T07:25:46+0000,900.0,1200.0,,,Montenegro,Sky Fort Apartments; 80; Dubrava; Pečurice; Bar Municipality; 85353; Montenegro,hotel,cameraforensics
https://r-cf.bstatic.com/images/hotel/max1280x900/179/179711013.jpg,42.11033511,19.10313089,2019-09-11T07:29:47+0000,626.0,356.0,,,Montenegro,Šušanj-dio; Šušanj; Bar Municipality; 85354; Montenegro,hotel,cameraforensics
https://r-cf.bstatic.com/images/hotel/max1280x900/182/182912079.jpg,42.14350209,19.05056387,2019-09-11T07:19:31+0000,768.0,1280.0,,,Montenegro,Pobrđe; Miljevci; Bar Municipality; 85000; Montenegro,hotel,cameraforensics
https://q-cf.bstatic.com/images/hotel/max1280x900/498/49887500.jpg,42.10572498,19.09549087,2020-03-05T21:56:13+0000,900.0,1205.0,,,Montenegro,Topolica; Bar; Bar Municipality; 85355; Montenegro,hotel,cameraforensics
https://r-cf.bstatic.com/images/hotel/max1280x900/209/209012148.jpg,42.14387759,19.04328804,2020-03-10T11:56:18+0000,900.0,675.0,,,Montenegro,Mirošica 1; Sutomore; Bar Municipality; 85000; Montenegro,hotel,cameraforensics
https://r-cf.bstatic.com/images/hotel/max1280x900/654/65454747.jpg,42.04467964,19.14117157,2020-03-10T05:44:39+0000,850.0,1280.0,,,Montenegro,M-1; Nišice; Dobra Voda; Bar Municipality; 85353; Montenegro,hotel,cameraforensics
https://q-cf.bstatic.com/images/hotel/max1280x900/208/208728088.jpg,42.14407185,19.04131167,2020-03-12T18:56:07+0000,853.0,1280.0,,,Montenegro,Mirošica 2; Sutomore; Bar Municipality; 85000; Montenegro,hotel,cameraforensics
https://r-cf.bstatic.com/images/hotel/max1280x900/192/192521279.jpg,42.14435826,19.02198225,2020-03-22T17:00:31+0000,900.0,675.0,,,Montenegro,Zagrađe; Bar Municipality; 85000; Montenegro,hotel,cameraforensics
https://q-cf.bstatic.com/images/hotel/max1280x900/117/117342741.jpg,42.14648654,19.01935536,2020-02-17T19:19:08+0000,853.0,1280.0,,,Montenegro,Zagrađe; Bar Municipality; 85000; Montenegro,hotel,cameraforensics
https://q-cf.bstatic.com/images/hotel/max1280x900/928/92882617.jpg,42.14312708,19.05002743,2020-02-17T18:58:02+0000,900.0,675.0,,,Montenegro,Pobrđe; Miljevci; Bar Municipality; 85000; Montenegro,hotel,cameraforensics
https://r-cf.bstatic.com/images/hotel/max1280x900/727/72748450.jpg,42.122479799999994,19.06132052,2020-02-12T01:11:29+0000,853.0,1280.0,,,Montenegro,Manastir svete Marije Ratačke; M-1; Zelen; Ratac; Sutomore; Bar Municipality; 85355; Montenegro,hotel,cameraforensics
https://r-cf.bstatic.com/images/hotel/max1280x900/674/67497986.jpg,42.03803441,19.14377868,2020-03-08T21:34:57+0000,900.0,1205.0,,,Montenegro,Marin Ploča; Dobra Voda-dio; Dobra Voda; Bar Municipality; 85353; Montenegro,hotel,cameraforensics
https://q-cf.bstatic.com/images/hotel/max1280x900/106/106330733.jpg,42.144346999999996,19.04005,2020-03-07T18:35:32+0000,900.0,1200.0,,,Montenegro,Mirošica 2; Sutomore; Bar Municipality; 85000; Montenegro,hotel,cameraforensics
https://q-cf.bstatic.com/images/hotel/max1280x900/195/195717084.jpg,42.1127949,19.09647703,2020-03-07T15:27:55+0000,900.0,1200.0,,,Montenegro,Šušanj-dio; Šušanj; Bar Municipality; 85355; Montenegro,hotel,cameraforensics
https://r-cf.bstatic.com/images/hotel/max1280x900/708/70839893.jpg,42.10126133,19.09704252,2020-03-10T06:43:35+0000,853.0,1280.0,,,Montenegro,Topolica; Bar; Bar Municipality; 85354; Montenegro,hotel,cameraforensics
https://q-cf.bstatic.com/images/hotel/max1280x900/210/210164555.jpg,42.10431093,19.10792585,2020-03-12T12:05:29+0000,900.0,910.0,,,Montenegro,Gornji Bjeliši; Burtaiši; Bar Municipality; 85354; Montenegro,hotel,cameraforensics
https://r-cf.bstatic.com/images/hotel/max1280x900/191/191743596.jpg,42.03357972,19.14393526,2020-03-03T23:32:32+0000,900.0,675.0,,,Montenegro,77; Dubrava; Pečurice; Bar Municipality; 85353; Montenegro,hotel,cameraforensics
https://r-cf.bstatic.com/images/hotel/max1280x900/153/153736637.jpg,42.10164609,19.09655074,2020-03-11T00:00:08+0000,900.0,1200.0,,,Montenegro,Cafe Pascucci; Bulevar Revolucije; Makedonsko naselje; Topolica; Bar; Bar Municipality; 85354; Montenegro,hotel,cameraforensics
https://r-cf.bstatic.com/images/hotel/max1280x900/151/151998393.jpg,42.113139000000004,19.091403,2020-03-10T23:26:37+0000,853.0,1280.0,,,Montenegro,Adria; Gavrila Principa; Ilino; Bar; Bar Municipality; 85355; Montenegro,hotel,cameraforensics
https://q-cf.bstatic.com/images/hotel/max1280x900/211/211369955.jpg,42.14772298,19.04733449,2020-02-17T17:24:06+0000,886.0,1280.0,,,Montenegro,Rutke; Đinđinovići; Bar Municipality; 85000; Montenegro,hotel,cameraforensics
https://q-cf.bstatic.com/images/hotel/max1280x900/202/202563131.jpg,42.08781689,19.10873829,2020-02-17T19:48:01+0000,900.0,1200.0,,,Montenegro,Polje-dio; Polje; Bar Municipality; 85354; Montenegro,hotel,cameraforensics
https://r-cf.bstatic.com/images/hotel/max1280x900/151/151428891.jpg,42.14397666,19.02319729,2020-02-12T02:21:47+0000,900.0,1200.0,,,Montenegro,Zagrađe; Bar Municipality; 85000; Montenegro,hotel,cameraforensics
https://q-cf.bstatic.com/images/hotel/max1280x900/210/210599073.jpg,42.11195945,19.09671932,2020-04-04T22:01:23+0000,900.0,675.0,,,Montenegro,Villa Mediha Memović Nikičić; 33; Alekse Šantića; Ilino; Bar; Bar Municipality; 85000; Montenegro,hotel,cameraforensics
https://r-cf.bstatic.com/images/hotel/max1280x900/103/103836324.jpg,42.01331086,19.15248039,2020-04-11T20:01:21+0000,720.0,1280.0,,,Montenegro,Masline; Bušat; Kunje; Bar Municipality; 85356; Montenegro,hotel,cameraforensics
https://q-cf.bstatic.com/images/hotel/max1280x900/210/210601910.jpg,42.11195945,19.09671932,2020-04-04T20:55:57+0000,900.0,675.0,,,Montenegro,Villa Mediha Memović Nikičić; 33; Alekse Šantića; Ilino; Bar; Bar Municipality; 85000; Montenegro,hotel,cameraforensics
https://r-cf.bstatic.com/images/hotel/max1280x900/152/152129782.jpg,42.11710287,19.08890538,2020-03-22T09:59:37+0000,900.0,675.0,,,Montenegro,Šušanj-dio; Šušanj; Bar Municipality; 85355; Montenegro,hotel,cameraforensics
https://q-cf.bstatic.com/images/hotel/max1280x900/208/208526291.jpg,42.02871482,19.14555831,2019-09-16T19:23:14+0000,900.0,675.0,,,Montenegro,90; Dubrava; Pečurice; Bar Municipality; 85353; Montenegro,hotel,cameraforensics
https://r-cf.bstatic.com/images/hotel/max1280x900/110/110131074.jpg,42.13900659,19.04761934,2019-09-17T03:58:34+0000,900.0,1200.0,,,Montenegro,Staro Sutomore; Sutomore; Bar Municipality; 85000; Montenegro,hotel,cameraforensics
https://q-cf.bstatic.com/images/hotel/max1280x900/197/197422145.jpg,42.11760969,19.07760377,2019-09-16T18:38:09+0000,900.0,900.0,,,Montenegro,Ulica I.; Zeleni pojas; Šušanj; Bar Municipality; 85355; Montenegro,hotel,cameraforensics
https://q-cf.bstatic.com/images/hotel/max1280x900/200/200148074.jpg,42.13368,19.065231,2020-02-04T04:41:36+0000,900.0,675.0,,,Montenegro,Brca; Bar Municipality; 85355; Montenegro,hotel,cameraforensics
https://q-cf.bstatic.com/images/hotel/max1280x900/144/144203432.jpg,42.03929078,19.14901145,2020-02-04T02:46:22+0000,851.0,1280.0,,,Montenegro,Bijela Glavica; Dobra Voda-dio; Dobra Voda; Bar Municipality; 85353; Montenegro,hotel,cameraforensics
https://q-cf.bstatic.com/images/hotel/max1280x900/987/98710724.jpg,42.12773853,19.067988800000002,2020-02-04T02:25:45+0000,900.0,1200.0,,,Montenegro,Madžari; Šušanj-dio; Šušanj; Bar Municipality; 85355; Montenegro,hotel,cameraforensics
https://q-cf.bstatic.com/images/hotel/max1280x900/153/153972451.jpg,42.13392389,19.06451647,2020-02-03T15:30:16+0000,900.0,675.0,,,Montenegro,Brca; Bar Municipality; 85355; Montenegro,hotel,cameraforensics
https://q-cf.bstatic.com/images/hotel/max1280x900/791/79153794.jpg,42.11168089,19.10192549,2020-02-03T11:49:22+0000,853.0,1280.0,,,Montenegro,Šušanj-dio; Šušanj; Bar Municipality; 85354; Montenegro,hotel,cameraforensics
https://r-cf.bstatic.com/images/hotel/max1280x900/183/183013131.jpg,42.14325994,19.02756908,2020-02-24T01:00:22+0000,853.0,1280.0,,,Montenegro,Zagrađe; Bar Municipality; 85000; Montenegro,hotel,cameraforensics
https://q-cf.bstatic.com/images/hotel/max1280x900/128/128425900.jpg,42.11395200000001,19.086082,2020-02-08T23:56:19+0000,900.0,1200.0,,,Montenegro,Apartmani Milošev; 17; 1. bokeljske brigade; Žukotrlica; Bar; Bar Municipality; 85000; Montenegro,hotel,cameraforensics
https://q-cf.bstatic.com/images/hotel/max1280x900/449/44911388.jpg,42.10846514,19.09495173,2020-03-08T09:23:41+0000,900.0,1200.0,,,Montenegro,Ulica kneginje Zorke; Ilino; Bar; Bar Municipality; 85355; Montenegro,hotel,cameraforensics
https://r-cf.bstatic.com/images/hotel/max1280x900/192/192921112.jpg,42.16112099,18.99465144,2020-02-04T19:10:45+0000,900.0,1200.0,,,Montenegro,ZEC; Mišićka; Biserna Obala; Čanj; Bar Municipality; Montenegro,hotel,cameraforensics
https://r-cf.bstatic.com/images/hotel/max1280x900/197/197745578.jpg,42.031698,19.146418,2020-02-29T07:29:20+0000,853.0,1280.0,,,Montenegro,91; Dubrava; Pečurice; Bar Municipality; 85353; Montenegro,hotel,cameraforensics
https://r-cf.bstatic.com/images/hotel/max1280x900/109/109337293.jpg,42.12773853,19.067988800000002,2020-02-06T10:35:49+0000,900.0,675.0,,,Montenegro,Madžari; Šušanj-dio; Šušanj; Bar Municipality; 85355; Montenegro,hotel,cameraforensics
https://q-cf.bstatic.com/images/hotel/max1280x900/207/207191588.jpg,42.11171297,19.09278249,2020-02-04T12:30:42+0000,500.0,750.0,,,Montenegro,Ilino; Bar; Bar Municipality; 85355; Montenegro,hotel,cameraforensics
https://q-cf.bstatic.com/images/hotel/max1280x900/211/211641713.jpg,42.1665115,19.01103412,2020-02-04T12:22:28+0000,720.0,1280.0,,,Montenegro,Mišićka; Kufin; Mišići; Bar Municipality; Montenegro,hotel,cameraforensics
https://r-cf.bstatic.com/images/hotel/max1280x900/205/205697068.jpg,42.09980687,19.10333324,2020-02-04T12:50:26+0000,900.0,1200.0,,,Montenegro,Makedonsko naselje; Bar; Bar Municipality; 85354; Montenegro,hotel,cameraforensics
https://r-cf.bstatic.com/images/hotel/max1280x900/612/61229371.jpg,42.11269316,19.086470600000002,2020-02-04T06:05:54+0000,360.0,500.0,,,Montenegro,Žukotrlica; Bar; Bar Municipality; 85355; Montenegro,hotel,cameraforensics
https://r-cf.bstatic.com/images/hotel/max1280x900/205/205541137.jpg,42.1453992,19.044459200000002,2020-02-06T22:38:28+0000,900.0,1168.0,,,Montenegro,Rutke; Đinđinovići; Bar Municipality; 85000; Montenegro,hotel,cameraforensics
https://q-cf.bstatic.com/images/hotel/max1280x900/101/101186935.jpg,42.11620235,19.08788086,2020-02-02T15:11:20+0000,816.0,459.0,,,Montenegro,Šušanj-dio; Šušanj; Bar Municipality; 85355; Montenegro,hotel,cameraforensics
https://r-cf.bstatic.com/images/hotel/max1280x900/209/209074073.jpg,42.05520795,19.13684846,2020-02-23T18:42:02+0000,853.0,1280.0,,,Montenegro,R-29; Jankovići; Dobra Voda-dio; Dobra Voda; Bar Municipality; 85353; Montenegro,hotel,cameraforensics
https://q-cf.bstatic.com/images/hotel/max1280x900/106/106643308.jpg,42.16877602,18.997094,2020-02-08T22:07:51+0000,480.0,720.0,,,Montenegro,Čanj; Bar Municipality; Montenegro,hotel,cameraforensics
https://q-cf.bstatic.com/images/hotel/max1280x900/780/78085889.jpg,42.11696624,19.08982404,2020-02-22T05:02:56+0000,900.0,505.0,,,Montenegro,Šušanj-dio; Šušanj; Bar Municipality; 85355; Montenegro,hotel,cameraforensics
https://r-cf.bstatic.com/images/hotel/max1280x900/102/102680003.jpg,42.03101391,19.15198091,2020-01-21T17:11:26+0000,853.0,1280.0,,,Montenegro,111; Pečurice-dio; Pečurice; Bar Municipality; 85356; Montenegro,hotel,cameraforensics
https://r-cf.bstatic.com/images/hotel/max1280x900/124/124363276.jpg,42.14982295,19.03967679,2020-01-08T11:10:57+0000,719.0,1280.0,,,Montenegro,Haj Nehaj; Zgrade; Bar Municipality; 85000; Montenegro,hotel,cameraforensics
https://r-cf.bstatic.com/images/hotel/max1280x900/195/195120834.jpg,42.16411232,18.99843187,2020-01-08T09:37:28+0000,853.0,1280.0,,,Montenegro,Biserna Obala; Čanj; Bar Municipality; Montenegro,hotel,cameraforensics
https://q-cf.bstatic.com/images/hotel/max1280x900/419/41955405.jpg,42.112275,19.08586,2020-01-14T14:56:45+0000,900.0,1200.0,,,Montenegro,Apart Hotel Monte Vite; 5; Bratstva i jedinstva; Žukotrlica; Bar; Bar Municipality; 85000; Montenegro,hotel,cameraforensics
https://q-cf.bstatic.com/images/hotel/max1280x900/115/115838335.jpg,42.111427899999995,19.08666674,2020-01-14T08:49:35+0000,853.0,1280.0,,,Montenegro,1; Omladinska; Ilino; Šušanj; Bar Municipality; 85355; Montenegro,hotel,cameraforensics
https://r-cf.bstatic.com/images/hotel/max1280x900/115/115839477.jpg,42.111427899999995,19.08666674,2020-01-21T10:27:51+0000,900.0,600.0,,,Montenegro,1; Omladinska; Ilino; Šušanj; Bar Municipality; 85355; Montenegro,hotel,cameraforensics
https://q-cf.bstatic.com/images/hotel/max1280x900/199/199750483.jpg,42.10778549,19.09077501,2019-12-19T21:22:50+0000,900.0,675.0,,,Montenegro,Apartments Cindark; IV. proleterske brigade; Ilino; Bar; Bar Municipality; 85355; Montenegro,hotel,cameraforensics
https://q-cf.bstatic.com/images/hotel/max1280x900/206/206759477.jpg,42.13818551,19.0482213,2019-12-19T21:27:31+0000,720.0,1280.0,,,Montenegro,Staro Sutomore; Sutomore; Bar Municipality; 85000; Montenegro,hotel,cameraforensics
https://q-cf.bstatic.com/images/hotel/max1280x900/139/139875783.jpg,42.09458621,19.09867864,2020-07-04T17:51:33+0000,900.0,1200.0,,,Montenegro,Kraljice Jelene Anžujske; Bjeliši; Bar Municipality; 85354; Montenegro,hotel,cameraforensics
https://r-cf.bstatic.com/images/hotel/max1280x900/315/31570796.jpg,42.1332885,19.06826243,2020-06-28T19:01:22+0000,848.0,1280.0,,,Montenegro,Brca; Bar Municipality; 85355; Montenegro,hotel,cameraforensics
https://q-cf.bstatic.com/images/hotel/max1280x900/934/93461593.jpg,42.04214705,19.14357458,2020-06-25T16:10:27+0000,900.0,675.0,,,Montenegro,Nišice; Dobra Voda; Bar Municipality; 85353; Montenegro,hotel,cameraforensics
https://q-cf.bstatic.com/images/hotel/max1280x900/151/151839067.jpg,42.11442973,19.09661896,2020-06-25T18:11:20+0000,900.0,600.0,,,Montenegro,Šušanj-dio; Šušanj; Bar Municipality; 85355; Montenegro,hotel,cameraforensics
https://q-cf.bstatic.com/images/hotel/max1280x900/178/178649513.jpg,42.04170176,19.14319393,2020-06-25T05:26:29+0000,900.0,675.0,,,Montenegro,Nišice; Dobra Voda; Bar Municipality; 85353; Montenegro,hotel,cameraforensics
https://q-cf.bstatic.com/images/hotel/max1280x900/220/220854632.jpg,42.14575222,19.04247969,2020-06-25T04:45:50+0000,853.0,1280.0,,,Montenegro,Mirošica 2; Sutomore; Bar Municipality; 85000; Montenegro,hotel,cameraforensics
https://r-cf.bstatic.com/images/hotel/max1280x900/145/145695377.jpg,42.097378000000006,19.093449,2020-06-29T22:44:46+0000,900.0,1200.0,,,Montenegro,Telekom; Vladimira Rolovića; Topolica; Bar; Bar Municipality; 85354; Montenegro,hotel,cameraforensics
https://q-cf.bstatic.com/images/hotel/max1280x900/477/47715295.jpg,42.1338689,19.06528652,2020-06-22T19:24:51+0000,900.0,1200.0,,,Montenegro,Apartments Sergej; M-1; Zelen; Sutomore; Bar Municipality; 85355; Montenegro,hotel,cameraforensics
https://q-cf.bstatic.com/images/hotel/max1280x900/134/134777545.jpg,42.113034000000006,19.087007,2020-06-22T23:00:38+0000,900.0,1200.0,,,Montenegro,Ante Đedovića; Žukotrlica; Bar; Bar Municipality; 85355; Montenegro,hotel,cameraforensics
https://q-cf.bstatic.com/images/hotel/max1280x900/200/200497388.jpg,42.0969107,19.093839499999998,2020-07-04T19:51:48+0000,900.0,1200.0,,,Montenegro,Cosmetics; Maršala Tita; Topolica; Bar; Bar Municipality; 85354; Montenegro,hotel,cameraforensics
https://r-cf.bstatic.com/images/hotel/max1280x900/194/194861295.jpg,42.11017088,19.09007985,2020-06-29T00:49:49+0000,900.0,675.0,,,Montenegro,Apartments Luna; IV. proleterske brigade; Ilino; Bar; Bar Municipality; 85355; Montenegro,hotel,cameraforensics
https://r-cf.bstatic.com/images/hotel/max1280x900/810/81060462.jpg,42.14622566,19.04606867,2020-06-28T21:41:06+0000,900.0,675.0,,,Montenegro,Rutke; Đinđinovići; Bar Municipality; 85000; Montenegro,hotel,cameraforensics
https://r-cf.bstatic.com/images/hotel/max1280x900/316/31667032.jpg,42.10797111,19.09603,2020-06-29T06:12:45+0000,834.0,1280.0,,,Montenegro,Ilino; Bar; Bar Municipality; 85355; Montenegro,hotel,cameraforensics
https://r-cf.bstatic.com/images/hotel/max1280x900/143/143430205.jpg,42.14312699,19.04937276,2020-06-29T08:24:49+0000,853.0,1280.0,,,Montenegro,Pobrđe; Miljevci; Bar Municipality; 85000; Montenegro,hotel,cameraforensics
https://r-cf.bstatic.com/images/hotel/max1280x900/482/48269516.jpg,42.04170176,19.14319393,2020-06-29T02:17:29+0000,850.0,1280.0,,,Montenegro,Nišice; Dobra Voda; Bar Municipality; 85353; Montenegro,hotel,cameraforensics
https://r-cf.bstatic.com/images/hotel/max1280x900/151/151810524.jpg,42.11624199,19.08409546,2020-06-29T02:25:43+0000,853.0,1280.0,,,Montenegro,Vitići; Šušanj; Bar Municipality; 85355; Montenegro,hotel,cameraforensics
https://r-cf.bstatic.com/images/hotel/max1280x900/179/179284844.jpg,42.028519,19.145968,2020-06-30T08:16:24+0000,524.0,720.0,,,Montenegro,90; Dubrava; Pečurice; Bar Municipality; 85353; Montenegro,hotel,cameraforensics
https://r-cf.bstatic.com/images/hotel/max1280x900/130/130175843.jpg,42.123805,19.080573,2020-05-18T02:12:12+0000,686.0,1000.0,,,Montenegro,Vitići; Šušanj; Bar Municipality; 85355; Montenegro,hotel,cameraforensics
https://q-cf.bstatic.com/images/hotel/max1280x900/103/103716209.jpg,42.11671579,19.08441737,2020-05-18T14:12:48+0000,411.0,712.0,,,Montenegro,Vitići; Šušanj; Bar Municipality; 85355; Montenegro,hotel,cameraforensics
https://q-cf.bstatic.com/images/hotel/max1280x900/199/199735942.jpg,42.08439245,19.09825226,2020-05-18T15:20:39+0000,900.0,1200.0,,,Montenegro,Polje-dio; Polje; Bar Municipality; 85354; Montenegro,hotel,cameraforensics
https://r-cf.bstatic.com/images/hotel/max1280x900/206/206351791.jpg,42.02874600000001,19.145588,2020-06-28T18:15:05+0000,853.0,1280.0,,,Montenegro,90; Dubrava; Pečurice; Bar Municipality; 85353; Montenegro,hotel,cameraforensics
https://r-cf.bstatic.com/images/hotel/max1280x900/980/98018450.jpg,42.11465532,19.09112154,2020-07-31T00:19:44+0000,853.0,1280.0,,,Montenegro,Šušanj-dio; Šušanj; Bar Municipality; 85355; Montenegro,hotel,cameraforensics
https://q-cf.bstatic.com/images/hotel/max1280x900/190/190476443.jpg,42.096084999999995,19.093922,2019-12-22T13:34:47+0000,900.0,1200.0,,,Montenegro,Kids Land; Maršala Tita; Topolica; Bar; Bar Municipality; 85354; Montenegro,hotel,cameraforensics
https://q-cf.bstatic.com/images/hotel/max1280x900/211/211039618.jpg,42.10820403,19.09287582,2019-12-23T12:12:58+0000,900.0,506.0,,,Montenegro,Ilino; Bar; Bar Municipality; 85355; Montenegro,hotel,cameraforensics
https://r-cf.bstatic.com/images/hotel/max1280x900/188/188868712.jpg,42.112061,19.090049,2019-12-23T00:46:42+0000,720.0,1280.0,,,Montenegro,Omladinska; Ilino; Bar; Bar Municipality; 85355; Montenegro,hotel,cameraforensics
https://q-cf.bstatic.com/images/hotel/max1280x900/165/165641752.jpg,42.11015939,19.09116125,2019-12-22T00:28:29+0000,853.0,1280.0,,,Montenegro,Ilino; Bar; Bar Municipality; 85355; Montenegro,hotel,cameraforensics
https://q-cf.bstatic.com/images/hotel/max1280x900/103/103856384.jpg,42.11874019,19.08040345,2019-12-22T13:08:38+0000,900.0,1200.0,,,Montenegro,Ulica VI.; Zeleni pojas; Šušanj; Bar Municipality; 85355; Montenegro,hotel,cameraforensics
https://q-cf.bstatic.com/images/hotel/max1280x900/107/107973827.jpg,42.03336904,19.14789939,2019-12-22T12:52:18+0000,720.0,1280.0,,,Montenegro,93; Dubrava; Pečurice; Bar Municipality; 85353; Montenegro,hotel,cameraforensics
https://r-cf.bstatic.com/images/hotel/max1280x900/207/207234253.jpg,42.11789264,19.08088624,2019-12-27T19:05:19+0000,900.0,675.0,,,Montenegro,Ulica V.; Zeleni pojas; Šušanj; Bar Municipality; 85355; Montenegro,hotel,cameraforensics
https://r-cf.bstatic.com/images/hotel/max1280x900/208/208130367.jpg,42.09789229,19.09643488,2020-11-02T11:33:04+0000,900.0,506.0,,,Montenegro,Voli 59; Jovana Stojanovića; Topolica; Bar; Bar Municipality; 85354; Montenegro,hotel,cameraforensics
https://r-cf.bstatic.com/images/hotel/max1280x900/137/137277279.jpg,42.09716362,19.09548819,2020-11-02T11:12:24+0000,900.0,602.0,,,Montenegro,Lovćen osiguranje; 27; Jovana Tomaševića; Topolica; Bar; Bar Municipality; 85000; Montenegro,hotel,cameraforensics
https://q-cf.bstatic.com/images/hotel/max1280x900/758/75848205.jpg,42.09816473,19.0967703,2020-05-22T05:44:48+0000,900.0,506.0,,,Montenegro,Burger Place; 6; Jovana Stojanovića; Topolica; Bar; Bar Municipality; 85000; Montenegro,hotel,cameraforensics
https://q-cf.bstatic.com/images/hotel/max1280x900/155/155321775.jpg,42.033294,19.147625,2020-05-18T16:53:46+0000,853.0,1280.0,,,Montenegro,93; Dubrava; Pečurice; Bar Municipality; 85353; Montenegro,hotel,cameraforensics
https://q-cf.bstatic.com/images/hotel/max1280x900/913/91364764.jpg,42.122570700000004,19.08694267,2020-05-10T00:24:44+0000,853.0,1280.0,,,Montenegro,Carević; Šušanj-dio; Šušanj; Bar Municipality; 85355; Montenegro,hotel,cameraforensics
https://r-cf.bstatic.com/images/hotel/max1280x900/208/208360429.jpg,42.02863804,19.15230966,2020-05-17T06:15:57+0000,853.0,1280.0,,,Montenegro,116; Ravanj; Pečurice-dio; Pečurice; Bar Municipality; 85356; Montenegro,hotel,cameraforensics
https://r-cf.bstatic.com/images/hotel/max1280x900/208/208361743.jpg,42.02863804,19.15230966,2020-05-17T06:39:00+0000,853.0,1280.0,,,Montenegro,116; Ravanj; Pečurice-dio; Pečurice; Bar Municipality; 85356; Montenegro,hotel,cameraforensics
https://q-cf.bstatic.com/images/hotel/max1280x900/181/181290390.jpg,42.11531023,19.0842551,2020-05-22T05:58:15+0000,900.0,1200.0,,,Montenegro,Zeleni pojas; Šušanj; Bar Municipality; 85355; Montenegro,hotel,cameraforensics
https://r-cf.bstatic.com/images/hotel/max1280x900/210/210689419.jpg,42.14947169,19.04598504,2020-05-16T18:39:46+0000,900.0,1200.0,,,Montenegro,Rutke; Đinđinovići; Bar Municipality; 85000; Montenegro,hotel,cameraforensics
https://r-cf.bstatic.com/images/hotel/max1280x900/187/187868226.jpg,42.03177746,19.14738904,2020-05-19T02:12:56+0000,900.0,578.0,,,Montenegro,93; Dubrava; Pečurice; Bar Municipality; 85353; Montenegro,hotel,cameraforensics
https://r-cf.bstatic.com/images/hotel/max1280x900/207/207257450.jpg,42.108885,19.0938413,2020-05-16T14:35:27+0000,900.0,600.0,,,Montenegro,Ilino; Bar; Bar Municipality; 85355; Montenegro,hotel,cameraforensics
https://r-cf.bstatic.com/images/hotel/max1280x900/210/210454738.jpg,42.09541674,19.09472142,2020-05-16T15:07:49+0000,815.0,1280.0,,,Montenegro,Benetton; Maršala Tita; Topolica; Bar; Bar Municipality; 85354; Montenegro,hotel,cameraforensics
https://r-cf.bstatic.com/images/hotel/max1280x900/210/210454691.jpg,42.09541674,19.09472142,2020-05-16T14:06:43+0000,787.0,1280.0,,,Montenegro,Benetton; Maršala Tita; Topolica; Bar; Bar Municipality; 85354; Montenegro,hotel,cameraforensics
https://q-cf.bstatic.com/images/hotel/max1280x900/200/200148525.jpg,42.13368,19.065231,2020-04-17T21:18:00+0000,900.0,675.0,,,Montenegro,Brca; Bar Municipality; 85355; Montenegro,hotel,cameraforensics
https://q-cf.bstatic.com/images/hotel/max1280x900/156/156068669.jpg,42.13257975,19.06164144,2020-04-18T08:58:16+0000,900.0,600.0,,,Montenegro,Zelen; Sutomore; Bar Municipality; 85355; Montenegro,hotel,cameraforensics
https://r-cf.bstatic.com/images/hotel/max1280x900/720/72058397.jpg,42.04207621,19.14336294,2020-05-09T08:00:54+0000,900.0,1274.0,,,Montenegro,Nišice; Dobra Voda; Bar Municipality; 85353; Montenegro,hotel,cameraforensics
https://q-cf.bstatic.com/images/hotel/max1280x900/206/206022387.jpg,42.11481793,19.08205736,2020-05-09T01:35:43+0000,900.0,675.0,,,Montenegro,Žukotrlica; Bar; Bar Municipality; 85355; Montenegro,hotel,cameraforensics
https://q-cf.bstatic.com/images/hotel/max1280x900/177/177651678.jpg,42.03018912,19.14509833,2020-05-09T05:54:44+0000,900.0,1040.0,,,Montenegro,88; Dubrava; Pečurice; Bar Municipality; 85353; Montenegro,hotel,cameraforensics
https://q-cf.bstatic.com/images/hotel/max1280x900/165/16566724.jpg,42.14201773,19.03944683,2020-05-08T13:13:54+0000,900.0,1200.0,,,Montenegro,Mirošica 2; Sutomore; Bar Municipality; 85000; Montenegro,hotel,cameraforensics
https://q-cf.bstatic.com/images/hotel/max1280x900/208/208902096.jpg,42.13893066,19.049947,2020-05-04T08:16:21+0000,720.0,1280.0,,,Montenegro,Sato; M-1; Staro Sutomore; Sutomore; Bar Municipality; 85000; Montenegro,hotel,cameraforensics
https://q-cf.bstatic.com/images/hotel/max1280x900/134/13417212.jpg,42.03594469,19.14212376,2020-04-18T04:37:38+0000,854.0,1280.0,,,Montenegro,David VIP Pool; Obala Veliki pijesak; Marin Ploča; Dobra Voda-dio; Dobra Voda; Bar Municipality; 85353; Montenegro,hotel,cameraforensics
https://r-cf.bstatic.com/images/hotel/max1280x900/208/208656190.jpg,42.14655509,19.084008100000002,2020-04-24T18:24:11+0000,750.0,1000.0,,,Montenegro,Brca; Bar Municipality; Montenegro,hotel,cameraforensics
https://r-cf.bstatic.com/images/hotel/max1280x900/210/210989945.jpg,42.146832,19.037782999999997,2020-04-24T17:51:18+0000,720.0,1280.0,,,Montenegro,Haj Nehaj; Sutomore; Bar Municipality; 85000; Montenegro,hotel,cameraforensics
https://r-cf.bstatic.com/images/hotel/max1280x900/709/70934831.jpg,42.11395200000001,19.086082,2020-05-09T10:08:24+0000,900.0,1200.0,,,Montenegro,Apartmani Milošev; 17; 1. bokeljske brigade; Žukotrlica; Bar; Bar Municipality; 85000; Montenegro,hotel,cameraforensics
https://q-cf.bstatic.com/images/hotel/max1280x900/163/163662255.jpg,42.146822,19.037754999999997,2020-05-08T22:06:25+0000,676.0,1280.0,,,Montenegro,Haj Nehaj; Sutomore; Bar Municipality; 85000; Montenegro,hotel,cameraforensics
https://q-cf.bstatic.com/images/hotel/max1280x900/201/201924687.jpg,42.142981,19.028771,2020-05-08T23:08:52+0000,900.0,675.0,,,Montenegro,Staro Sutomore; Zagrađe; Bar Municipality; 85000; Montenegro,hotel,cameraforensics
https://q-cf.bstatic.com/images/hotel/max1280x900/758/75847155.jpg,42.09816473,19.0967703,2020-10-14T13:25:29+0000,720.0,1280.0,,,Montenegro,Burger Place; 6; Jovana Stojanovića; Topolica; Bar; Bar Municipality; 85000; Montenegro,hotel,cameraforensics
https://q-cf.bstatic.com/images/hotel/max1280x900/155/155907254.jpg,42.1426428,19.041215,2020-10-14T13:38:39+0000,900.0,675.0,,,Montenegro,Apartmeani Skala; 29A; Kosovska; Mirošica 2; Sutomore; Bar Municipality; 85355; Montenegro,hotel,cameraforensics
https://q-cf.bstatic.com/images/hotel/max1280x900/105/105681622.jpg,42.14601271,19.03156178,2020-09-30T07:26:23+0000,853.0,1280.0,,,Montenegro,Zagrađe; Bar Municipality; 85000; Montenegro,hotel,cameraforensics
https://r-cf.bstatic.com/images/hotel/max1280x900/350/35041182.jpg,42.11577619,19.07952905,2020-10-02T13:08:31+0000,900.0,1200.0,,,Montenegro,IV. proleterske brigade; Žukotrlica; Bar; Bar Municipality; 85355; Montenegro,hotel,cameraforensics
https://r-cf.bstatic.com/images/hotel/max1280x900/196/196004662.jpg,42.13991216,19.04572915,2020-10-02T14:33:32+0000,900.0,675.0,,,Montenegro,Apartments Matkovic; Vuka Karadžića; Mirošica 1; Sutomore; Bar Municipality; 85355; Montenegro,hotel,cameraforensics
https://q-cf.bstatic.com/images/hotel/max1280x900/155/155321783.jpg,42.033294,19.147625,2020-10-10T19:57:16+0000,900.0,600.0,,,Montenegro,93; Dubrava; Pečurice; Bar Municipality; 85353; Montenegro,hotel,cameraforensics
https://r-cf.bstatic.com/images/hotel/max1280x900/103/103444794.jpg,42.15074017,19.03716892,2020-10-09T15:04:45+0000,720.0,1280.0,,,Montenegro,Haj Nehaj; Sutomore; Bar Municipality; 85000; Montenegro,hotel,cameraforensics
https://r-cf.bstatic.com/images/hotel/max1280x900/112/112086457.jpg,42.116735999999996,19.080597,2020-10-09T15:55:08+0000,600.0,800.0,,,Montenegro,Ulica II.; Zeleni pojas; Šušanj; Bar Municipality; 85355; Montenegro,hotel,cameraforensics
https://r-cf.bstatic.com/images/hotel/max1280x900/140/140276946.jpg,42.11507857,19.08471644,2020-10-09T08:48:06+0000,853.0,1280.0,,,Montenegro,Zeleni pojas; Šušanj; Bar Municipality; 85355; Montenegro,hotel,cameraforensics
https://r-cf.bstatic.com/images/hotel/max1280x900/209/209543025.jpg,42.15073916,19.04489737,2020-10-11T02:02:49+0000,540.0,960.0,,,Montenegro,Jelići; Papani; Bar Municipality; 85000; Montenegro,hotel,cameraforensics
https://r-cf.bstatic.com/images/hotel/max1280x900/168/16870126.jpg,42.14364215,19.03797893,2020-09-29T14:33:46+0000,900.0,675.0,,,Montenegro,Mirošica 2; Sutomore; Bar Municipality; 85000; Montenegro,hotel,cameraforensics
https://q-cf.bstatic.com/images/hotel/max1280x900/475/47532742.jpg,42.14812084,19.0363133,2020-09-29T08:04:22+0000,853.0,1280.0,,,Montenegro,Haj Nehaj; Sutomore; Bar Municipality; 85000; Montenegro,hotel,cameraforensics
https://q-cf.bstatic.com/images/hotel/max1280x900/208/208361529.jpg,42.02863804,19.15230966,2020-09-29T04:27:26+0000,853.0,1280.0,,,Montenegro,116; Ravanj; Pečurice-dio; Pečurice; Bar Municipality; 85356; Montenegro,hotel,cameraforensics
https://r-cf.bstatic.com/images/hotel/max1280x900/179/179320111.jpg,42.13322019,19.0626137,2020-09-29T16:14:14+0000,719.0,1280.0,,,Montenegro,Apartmani Djulija; M-1; Zelen; Sutomore; Bar Municipality; 85355; Montenegro,hotel,cameraforensics
https://r-cf.bstatic.com/images/hotel/max1280x900/788/78843032.jpg,42.11926543,19.08103662,2020-09-29T17:25:40+0000,856.0,1280.0,,,Montenegro,Ulica VIII.; Zeleni pojas; Šušanj; Bar Municipality; 85355; Montenegro,hotel,cameraforensics
https://q-cf.bstatic.com/images/hotel/max1280x900/691/69137220.jpg,42.14201773,19.03944683,2020-09-28T08:55:23+0000,900.0,1200.0,,,Montenegro,Mirošica 2; Sutomore; Bar Municipality; 85000; Montenegro,hotel,cameraforensics
https://q-cf.bstatic.com/images/hotel/max1280x900/200/200911517.jpg,42.1161329,19.08385555,2020-09-28T16:57:34+0000,900.0,506.0,,,Montenegro,Vitići; Šušanj; Bar Municipality; 85355; Montenegro,hotel,cameraforensics
https://r-cf.bstatic.com/images/hotel/max1280x900/188/188167323.jpg,42.11593666,19.09186183,2020-10-23T22:07:58+0000,720.0,1280.0,,,Montenegro,Carević; Šušanj-dio; Šušanj; Bar Municipality; 85355; Montenegro,hotel,cameraforensics
https://r-cf.bstatic.com/images/hotel/max1280x900/205/205725865.jpg,42.08773324,19.10803556,2020-10-23T21:30:25+0000,900.0,675.0,,,Montenegro,Polje-dio; Polje; Bar Municipality; 85354; Montenegro,hotel,cameraforensics
https://q-cf.bstatic.com/images/hotel/max1280x900/183/183676874.jpg,42.03726044,19.14314724,2020-09-19T14:24:01+0000,900.0,600.0,,,Montenegro,Marin Ploča; Dobra Voda-dio; Dobra Voda; Bar Municipality; 85353; Montenegro,hotel,cameraforensics
https://q-cf.bstatic.com/images/hotel/max1280x900/215/215060914.jpg,42.143591,19.023449,2020-12-06T17:46:54+0000,900.0,584.0,,,Montenegro,Zagrađe; Bar Municipality; 85000; Montenegro,hotel,cameraforensics
https://q-cf.bstatic.com/images/hotel/max1280x900/203/203784235.jpg,42.14101627,19.04161372,2021-01-04T23:58:25+0000,900.0,1200.0,,,Montenegro,Mirošica 1; Sutomore; Bar Municipality; 85000; Montenegro,hotel,cameraforensics
https://r-cf.bstatic.com/images/hotel/max1280x900/155/155322226.jpg,42.033294,19.147625,2020-10-24T00:05:03+0000,853.0,1280.0,,,Montenegro,93; Dubrava; Pečurice; Bar Municipality; 85353; Montenegro,hotel,cameraforensics
https://r-cf.bstatic.com/images/hotel/max1280x900/214/214176074.jpg,42.047807,19.138151,2020-10-24T01:22:27+0000,618.0,640.0,,,Montenegro,Most Ujtin potok; Nišice; Dobra Voda; Bar Municipality; 85353; Montenegro,hotel,cameraforensics
https://r-cf.bstatic.com/images/hotel/max1280x900/203/203764286.jpg,42.11094435,19.09778258,2020-11-02T11:11:34+0000,900.0,1200.0,,,Montenegro,Ilino; Bar; Bar Municipality; 85355; Montenegro,hotel,cameraforensics
https://q-cf.bstatic.com/images/hotel/max1280x900/183/183713332.jpg,42.14648595,19.03644183,2020-09-28T20:31:52+0000,900.0,506.0,,,Montenegro,Casa Bianca; Cara Lazara; Mirošica 1; Sutomore; Bar Municipality; 85000; Montenegro,hotel,cameraforensics
https://q-cf.bstatic.com/images/hotel/max1280x900/136/136501305.jpg,42.124901,19.065442,2020-11-25T11:44:03+0000,900.0,936.0,,,Montenegro,Apartments Tara; Mila Čakalovića; Madžari; Ratac; Sutomore; Bar Municipality; 85355; Montenegro,hotel,cameraforensics
https://r-cf.bstatic.com/images/hotel/max1280x900/127/127974465.jpg,42.11781135,19.07759249,2020-12-13T11:17:23+0000,853.0,1280.0,,,Montenegro,Ulica I.; Zeleni pojas; Šušanj; Bar Municipality; 85355; Montenegro,hotel,cameraforensics
https://r-cf.bstatic.com/images/hotel/max1280x900/103/103440073.jpg,42.14312099,19.04304902,2020-06-29T14:43:53+0000,900.0,600.0,,,Montenegro,Mirošica 1; Sutomore; Bar Municipality; 85000; Montenegro,hotel,cameraforensics
https://r-cf.bstatic.com/images/hotel/max1280x900/140/140139305.jpg,42.104979,19.103701,2020-06-29T09:02:34+0000,854.0,1280.0,,,Montenegro,Makedonsko naselje; Bar; Bar Municipality; 85354; Montenegro,hotel,cameraforensics
https://r-cf.bstatic.com/images/hotel/max1280x900/157/157100587.jpg,42.033753000000004,19.143239,2020-05-24T06:52:16+0000,900.0,1200.0,,,Montenegro,Plavi Jadran; Marin Ploča; Dubrava; Pečurice; Bar Municipality; 85353; Montenegro,hotel,cameraforensics
https://q-cf.bstatic.com/images/hotel/max1280x900/149/149441945.jpg,42.11415516,19.10110898,2020-05-29T10:52:07+0000,900.0,675.0,,,Montenegro,Šušanj-dio; Šušanj; Bar Municipality; 85355; Montenegro,hotel,cameraforensics
https://r-cf.bstatic.com/images/hotel/max1280x900/179/179395392.jpg,42.14168043,19.04237375,2020-05-17T05:35:22+0000,719.0,1280.0,,,Montenegro,Apartmani Peričić; Cara Lazara; Mirošica 1; Sutomore; Bar Municipality; 85000; Montenegro,hotel,cameraforensics
https://r-cf.bstatic.com/images/hotel/max1280x900/194/194905414.jpg,42.07900048,19.1130057,2020-10-02T10:50:57+0000,900.0,1200.0,,,Montenegro,Polje-dio; Polje; Bar Municipality; 85354; Montenegro,hotel,cameraforensics
https://r-cf.bstatic.com/images/hotel/max1280x900/208/208365430.jpg,42.11117963,19.08735054,2020-10-06T09:49:15+0000,900.0,1200.0,,,Montenegro,"Market ""MM""; IV. proleterske brigade; Žukotrlica; Bar; Bar Municipality; 85355; Montenegro",hotel,cameraforensics
https://r-cf.bstatic.com/images/hotel/max1280x900/222/22280906.jpg,42.14308929,19.04932201,2020-10-02T13:47:38+0000,900.0,1200.0,,,Montenegro,Pobrđe; Miljevci; Bar Municipality; 85000; Montenegro,hotel,cameraforensics
https://r-cf.bstatic.com/images/hotel/max1280x900/147/147634238.jpg,42.14211282,19.04052037,2020-10-09T15:55:24+0000,849.0,1280.0,,,Montenegro,Pekara Plavi Jadran; Cara Lazara; Mirošica 1; Mirošica 2; Sutomore; Bar Municipality; 85000; Montenegro,hotel,cameraforensics
https://q-cf.bstatic.com/images/hotel/max1280x900/955/95518042.jpg,42.08456923,19.12244238,2020-09-19T12:51:35+0000,900.0,1198.0,,,Montenegro,Polje-dio; Polje; Bar Municipality; 85354; Montenegro,hotel,cameraforensics
https://q-cf.bstatic.com/images/hotel/max1280x900/769/76921476.jpg,42.08143891,19.11828697,2020-09-28T14:44:41+0000,900.0,1200.0,,,Montenegro,Polje-dio; Polje; Bar Municipality; 85354; Montenegro,hotel,cameraforensics
https://q-cf.bstatic.com/images/hotel/max1280x900/188/188864907.jpg,42.02906532,19.15608777,2020-09-28T16:57:06+0000,853.0,1280.0,,,Montenegro,126; Ravanj; Pečurice-dio; Pečurice; Bar Municipality; 85356; Montenegro,hotel,cameraforensics
https://q-cf.bstatic.com/images/hotel/max1280x900/195/195879038.jpg,42.094871999999995,19.103279999999998,2020-09-28T18:19:59+0000,900.0,675.0,,,Montenegro,Apartman Djordje; 111; Kraljice Jelene Anžujske; Bar; Bar Municipality; 85354; Montenegro,hotel,cameraforensics
https://r-cf.bstatic.com/images/hotel/max1280x900/769/76912916.jpg,42.08143891,19.11828697,2020-10-05T08:38:18+0000,900.0,1200.0,,,Montenegro,Polje-dio; Polje; Bar Municipality; 85354; Montenegro,hotel,cameraforensics
https://q-cf.bstatic.com/images/hotel/max1280x900/208/208558307.jpg,42.03015178,19.1455416,2020-10-10T20:05:00+0000,900.0,1200.0,,,Montenegro,20; 90; Dubrava; Dobra Voda; Bar Municipality; 85000; Montenegro,hotel,cameraforensics
https://q-cf.bstatic.com/images/hotel/max1280x900/210/210653609.jpg,42.1094599,19.09605015,2020-10-14T15:10:12+0000,900.0,1200.0,,,Montenegro,Ulica crnogorskih serdara; Šušanj-dio; Šušanj; Bar Municipality; 85355; Montenegro,hotel,cameraforensics
https://q-cf.bstatic.com/images/hotel/max1280x900/214/214461765.jpg,42.1386995,19.04801544,2020-10-14T14:31:17+0000,900.0,675.0,,,Montenegro,Staro Sutomore; Sutomore; Bar Municipality; 85000; Montenegro,hotel,cameraforensics
https://r-cf.bstatic.com/images/hotel/max1280x900/195/195998507.jpg,42.10178475,19.10765469,2020-12-06T22:44:39+0000,900.0,1089.0,,,Montenegro,Gornji Bjeliši; Burtaiši; Bar Municipality; 85354; Montenegro,hotel,cameraforensics
https://q-cf.bstatic.com/images/hotel/max1280x900/200/200656531.jpg,42.099492299999994,19.12940785,2020-07-04T23:26:34+0000,822.0,1276.0,,,Montenegro,Velembusi; Bar Municipality; 85354; Montenegro,hotel,cameraforensics
https://q-cf.bstatic.com/images/hotel/max1280x900/107/107820157.jpg,42.11144734,19.09311578,2020-06-22T13:40:29+0000,768.0,1280.0,,,Montenegro,Ilino; Bar; Bar Municipality; 85355; Montenegro,hotel,cameraforensics
https://q-cf.bstatic.com/images/hotel/max1280x900/214/214781488.jpg,42.145556,19.040855999999998,2020-06-23T01:10:55+0000,900.0,675.0,,,Montenegro,Mirošica 2; Sutomore; Bar Municipality; 85000; Montenegro,hotel,cameraforensics
https://q-cf.bstatic.com/images/hotel/max1280x900/204/204739973.jpg,42.10570749,19.09560101,2020-06-23T00:25:16+0000,900.0,600.0,,,Montenegro,Topolica; Bar; Bar Municipality; 85355; Montenegro,hotel,cameraforensics
https://q-cf.bstatic.com/images/hotel/max1280x900/209/209704735.jpg,42.10963143,19.10037894,2020-07-04T22:47:22+0000,900.0,900.0,,,Montenegro,Ilino; Bar; Bar Municipality; 85354; Montenegro,hotel,cameraforensics
https://q-cf.bstatic.com/images/hotel/max1280x900/193/193967099.jpg,42.03315269,19.14392898,2020-07-04T22:52:42+0000,880.0,1280.0,,,Montenegro,77; Dubrava; Pečurice; Bar Municipality; 85353; Montenegro,hotel,cameraforensics
https://q-cf.bstatic.com/images/hotel/max1280x900/146/146699928.jpg,42.088425,19.100563,2020-07-24T00:30:44+0000,900.0,1200.0,,,Montenegro,BarMarket; Beogradska; Sokolana; Bar; Bar Municipality; 85354; Montenegro,hotel,cameraforensics
https://q-cf.bstatic.com/images/hotel/max1280x900/211/211265822.jpg,42.11032956,19.091296,2020-07-25T15:37:35+0000,853.0,1280.0,,,Montenegro,Ilino; Bar; Bar Municipality; 85355; Montenegro,hotel,cameraforensics
https://q-cf.bstatic.com/images/hotel/max1280x900/221/221207091.jpg,42.13007353,19.06213769,2020-07-25T15:18:55+0000,900.0,600.0,,,Montenegro,Zelen; Sutomore; Bar Municipality; 85355; Montenegro,hotel,cameraforensics
https://q-cf.bstatic.com/images/hotel/max1280x900/206/206102932.jpg,42.113228,19.09195949,2020-07-25T16:27:43+0000,900.0,676.0,,,Montenegro,Adria; Gavrila Principa; Ilino; Bar; Bar Municipality; 85355; Montenegro,hotel,cameraforensics
https://q-cf.bstatic.com/images/hotel/max1280x900/712/71270801.jpg,42.10863871,19.09480691,2020-06-26T02:12:52+0000,900.0,1200.0,,,Montenegro,Val Maslina; Ulica crnogorskih serdara; Šušanj-dio; Šušanj; Bar Municipality; 85355; Montenegro,hotel,cameraforensics
https://q-cf.bstatic.com/images/hotel/max1280x900/199/199331180.jpg,42.1486099,19.0424395,2020-06-24T20:25:51+0000,900.0,675.0,,,Montenegro,Zgrade; Bar Municipality; 85000; Montenegro,hotel,cameraforensics
https://q-cf.bstatic.com/images/hotel/max1280x900/899/89996309.jpg,42.04170176,19.14319393,2020-06-25T05:35:41+0000,900.0,1200.0,,,Montenegro,Nišice; Dobra Voda; Bar Municipality; 85353; Montenegro,hotel,cameraforensics
https://q-cf.bstatic.com/images/hotel/max1280x900/104/104157605.jpg,42.11286852,19.08805847,2020-06-25T05:26:19+0000,853.0,1280.0,,,Montenegro,Žukotrlica; Bar; Bar Municipality; 85355; Montenegro,hotel,cameraforensics
https://q-cf.bstatic.com/images/hotel/max1280x900/155/155788875.jpg,42.11580623,19.09326947,2020-06-25T06:48:15+0000,900.0,675.0,,,Montenegro,Carević; Šušanj-dio; Šušanj; Bar Municipality; 85355; Montenegro,hotel,cameraforensics
https://q-cf.bstatic.com/images/hotel/max1280x900/985/98519871.jpg,42.138145,19.047912,2020-06-25T00:05:01+0000,853.0,1280.0,,,Montenegro,Staro Sutomore; Sutomore; Bar Municipality; 85000; Montenegro,hotel,cameraforensics
https://r-cf.bstatic.com/images/hotel/max1280x900/101/101753287.jpg,42.03160988,19.1448452,2020-06-30T18:37:57+0000,721.0,1280.0,,,Montenegro,84; Dubrava; Pečurice; Bar Municipality; 85353; Montenegro,hotel,cameraforensics
https://r-cf.bstatic.com/images/hotel/max1280x900/165/165641758.jpg,42.11015939,19.09116125,2019-12-23T02:32:57+0000,853.0,1280.0,,,Montenegro,Ilino; Bar; Bar Municipality; 85355; Montenegro,hotel,cameraforensics
https://r-cf.bstatic.com/images/hotel/max1280x900/144/144910883.jpg,42.133010999999996,19.061725,2019-12-23T03:53:57+0000,480.0,640.0,,,Montenegro,Zelen; Sutomore; Bar Municipality; 85355; Montenegro,hotel,cameraforensics
https://r-cf.bstatic.com/images/hotel/max1280x900/912/91251955.jpg,42.11192538,19.08722967,2019-12-27T02:01:18+0000,853.0,1280.0,,,Montenegro,Apartmani Kojić; 1a; Bratstva i jedinstva; Žukotrlica; Bar; Bar Municipality; 85355; Montenegro,hotel,cameraforensics
https://r-cf.bstatic.com/images/hotel/max1280x900/912/91251936.jpg,42.11192538,19.08722967,2019-12-27T08:28:10+0000,853.0,1280.0,,,Montenegro,Apartmani Kojić; 1a; Bratstva i jedinstva; Žukotrlica; Bar; Bar Municipality; 85355; Montenegro,hotel,cameraforensics
https://q-cf.bstatic.com/images/hotel/max1280x900/152/152227631.jpg,42.11649585,19.08699637,2019-12-22T00:20:32+0000,900.0,1200.0,,,Montenegro,Šušanj-dio; Šušanj; Bar Municipality; 85355; Montenegro,hotel,cameraforensics
https://q-cf.bstatic.com/images/hotel/max1280x900/751/75139566.jpg,42.107232399999994,19.09623383,2019-12-21T16:56:34+0000,900.0,1200.0,,,Montenegro,Ulica kneginje Zorke; Ilino; Bar; Bar Municipality; 85355; Montenegro,hotel,cameraforensics
https://q-cf.bstatic.com/images/hotel/max1280x900/203/203912079.jpg,42.035924,19.145537,2019-12-21T23:59:22+0000,854.0,1280.0,,,Montenegro,Marin Ploča; Dobra Voda-dio; Dobra Voda; Bar Municipality; 85353; Montenegro,hotel,cameraforensics
https://r-cf.bstatic.com/images/hotel/max1280x900/620/62052852.jpg,42.02943204,19.15599883,2019-12-22T09:52:55+0000,853.0,1280.0,,,Montenegro,Brotherhood and Unity Street; Ravanj; Pečurice-dio; Pečurice; Bar Municipality; 85353; Montenegro,hotel,cameraforensics
https://r-cf.bstatic.com/images/hotel/max1280x900/488/48830106.jpg,42.11321995,19.08719748,2019-12-27T13:43:29+0000,899.0,1280.0,,,Montenegro,Ante Đedovića; Žukotrlica; Bar; Bar Municipality; 85355; Montenegro,hotel,cameraforensics
https://r-cf.bstatic.com/images/hotel/max1280x900/106/106923623.jpg,42.03548129,19.14614076,2019-12-27T23:35:40+0000,350.0,550.0,,,Montenegro,Marin Ploča; Dubrava; Pečurice; Bar Municipality; 85353; Montenegro,hotel,cameraforensics
https://q-cf.bstatic.com/images/hotel/max1280x900/755/75544732.jpg,42.08781689,19.10873829,2020-02-17T19:48:02+0000,720.0,1280.0,,,Montenegro,Polje-dio; Polje; Bar Municipality; 85354; Montenegro,hotel,cameraforensics
https://q-cf.bstatic.com/images/hotel/max1280x900/203/203078386.jpg,42.11530924,19.08077046,2020-03-12T16:20:16+0000,720.0,960.0,,,Montenegro,Apartmani Vukoslavčević; 11; Stepenice Mrčele; Zeleni pojas; Bar; Bar Municipality; 85000; Montenegro,hotel,cameraforensics
https://q-cf.bstatic.com/images/hotel/max1280x900/197/197426764.jpg,42.11033511,19.10313089,2019-09-11T07:16:53+0000,720.0,960.0,,,Montenegro,Šušanj-dio; Šušanj; Bar Municipality; 85354; Montenegro,hotel,cameraforensics
https://q-cf.bstatic.com/images/hotel/max1280x900/173/173654681.jpg,42.11033511,19.10313089,2019-09-11T07:17:03+0000,577.0,325.0,,,Montenegro,Šušanj-dio; Šušanj; Bar Municipality; 85354; Montenegro,hotel,cameraforensics
https://q-cf.bstatic.com/images/hotel/max1280x900/924/92481941.jpg,42.04497941,19.14371699,2019-09-11T06:56:28+0000,900.0,675.0,,,Montenegro,Nišice; Dobra Voda; Bar Municipality; 85353; Montenegro,hotel,cameraforensics
https://q-cf.bstatic.com/images/hotel/max1280x900/154/154018595.jpg,42.10802583,19.09101963,2019-09-11T07:06:55+0000,900.0,1200.0,,,Montenegro,Apartments Cindark; IV. proleterske brigade; Ilino; Bar; Bar Municipality; 85355; Montenegro,hotel,cameraforensics
https://r-cf.bstatic.com/images/hotel/max1280x900/205/205109212.jpg,42.04548285,19.139882,2019-09-11T07:31:56+0000,720.0,1280.0,,,Montenegro,Nišice; Dobra Voda; Bar Municipality; 85353; Montenegro,hotel,cameraforensics
https://r-cf.bstatic.com/images/hotel/max1280x900/105/105387592.jpg,42.09803059,19.09186113,2019-09-11T07:36:07+0000,720.0,1280.0,,,Montenegro,Sipa fishing; Maršala Tita; Topolica; Bar; Bar Municipality; 85355; Montenegro,hotel,cameraforensics
https://q-cf.bstatic.com/images/hotel/max1280x900/215/215902983.jpg,42.09790278,19.097345100000002,2019-09-11T07:25:02+0000,900.0,1200.0,,,Montenegro,Burger Place; 6; Jovana Stojanovića; Topolica; Bar; Bar Municipality; 85000; Montenegro,hotel,cameraforensics
https://q-cf.bstatic.com/images/hotel/max1280x900/177/177215160.jpg,42.09761218,19.10250808,2020-05-05T03:08:59+0000,900.0,807.0,,,Montenegro,58; Branimira Baje Bajkovića; Bjeliši; Bar Municipality; 85354; Montenegro,hotel,cameraforensics
https://q-cf.bstatic.com/images/hotel/max1280x900/201/201014875.jpg,42.12213426,19.08155546,2020-05-05T03:35:22+0000,900.0,675.0,,,Montenegro,Vitići; Šušanj; Bar Municipality; 85355; Montenegro,hotel,cameraforensics
https://q-cf.bstatic.com/images/hotel/max1280x900/205/205630821.jpg,42.06626956,19.13228273,2020-05-05T01:51:16+0000,900.0,675.0,,,Montenegro,Gornje Zaljevo; Zaljevo; Bar Municipality; 85354; Montenegro,hotel,cameraforensics
https://q-cf.bstatic.com/images/hotel/max1280x900/215/215179145.jpg,42.14300746,19.04783374,2020-04-05T00:10:54+0000,420.0,630.0,,,Montenegro,Pobrđe; Miljevci; Bar Municipality; 85000; Montenegro,hotel,cameraforensics
https://q-cf.bstatic.com/images/hotel/max1280x900/190/190397360.jpg,42.11800729,19.09307521,2020-04-05T00:32:27+0000,853.0,1280.0,,,Montenegro,Carević; Šušanj-dio; Šušanj; Bar Municipality; 85355; Montenegro,hotel,cameraforensics
https://q-cf.bstatic.com/images/hotel/max1280x900/108/108786471.jpg,42.128261,19.214187,2020-04-04T23:42:03+0000,900.0,675.0,,,Montenegro,Donjepolje; Livari; Bar Municipality; Montenegro,hotel,cameraforensics
https://q-cf.bstatic.com/images/hotel/max1280x900/201/201085155.jpg,42.12657903,19.06636098,2020-04-05T02:50:26+0000,900.0,506.0,,,Montenegro,Villa Vasojevka; Mila Čakalovića; Madžari; Ratac; Sutomore; Bar Municipality; 85355; Montenegro,hotel,cameraforensics
https://q-cf.bstatic.com/images/hotel/max1280x900/151/151641458.jpg,42.142806799999995,19.04894629,2020-04-19T14:36:06+0000,900.0,506.0,,,Montenegro,Apartmani Sutomore; 259b; Pobrđe; Sutomore; Bar Municipality; 85355; Montenegro,hotel,cameraforensics
https://r-cf.bstatic.com/images/hotel/max1280x900/187/187855775.jpg,42.01694502,19.14382569,2020-04-24T17:19:44+0000,803.0,1280.0,,,Montenegro,Masline; Bušat; Kunje; Bar Municipality; 85356; Montenegro,hotel,cameraforensics
https://q-cf.bstatic.com/images/hotel/max1280x900/469/46907612.jpg,42.11478659,19.08412233,2020-04-18T11:11:48+0000,900.0,1200.0,,,Montenegro,Ulica I.; Zeleni pojas; Šušanj; Bar Municipality; 85355; Montenegro,hotel,cameraforensics
https://q-cf.bstatic.com/images/hotel/max1280x900/469/46908132.jpg,42.11478659,19.08412233,2020-04-18T10:05:52+0000,900.0,1200.0,,,Montenegro,Ulica I.; Zeleni pojas; Šušanj; Bar Municipality; 85355; Montenegro,hotel,cameraforensics
https://q-cf.bstatic.com/images/hotel/max1280x900/208/208216976.jpg,42.11328396,19.10310195,2020-04-19T13:57:28+0000,853.0,1280.0,,,Montenegro,Gromanići; Šušanj; Bar Municipality; 85355; Montenegro,hotel,cameraforensics
https://r-cf.bstatic.com/images/hotel/max1280x900/195/195072695.jpg,42.08523876,19.11058764,2020-02-12T01:26:00+0000,900.0,1200.0,,,Montenegro,Polje-dio; Polje; Bar Municipality; 85354; Montenegro,hotel,cameraforensics
https://r-cf.bstatic.com/images/hotel/max1280x900/206/206919204.jpg,42.14193503,19.03897011,2020-05-20T17:08:55+0000,900.0,506.0,,,Montenegro,Mirošica 2; Sutomore; Bar Municipality; 85000; Montenegro,hotel,cameraforensics
https://r-cf.bstatic.com/images/hotel/max1280x900/102/102605465.jpg,42.111041799999995,19.09383059,2020-04-22T12:04:16+0000,853.0,1280.0,,,Montenegro,Ilino; Bar; Bar Municipality; 85355; Montenegro,hotel,cameraforensics
https://r-cf.bstatic.com/images/hotel/max1280x900/187/187587595.jpg,42.09655773,19.09579731,2020-04-11T20:45:07+0000,900.0,506.0,,,Montenegro,DHL & Agencija Slađa; Popa Dukljanina; Topolica; Bar; Bar Municipality; 85000; Montenegro,hotel,cameraforensics
https://q-cf.bstatic.com/images/hotel/max1280x900/156/156760641.jpg,42.03263166,19.14451368,2020-05-08T22:43:35+0000,720.0,1280.0,,,Montenegro,83; Dubrava; Pečurice; Bar Municipality; 85353; Montenegro,hotel,cameraforensics
https://q-cf.bstatic.com/images/hotel/max1280x900/140/140662633.jpg,42.16877602,18.997094,2020-05-04T04:55:32+0000,476.0,634.0,,,Montenegro,Čanj; Bar Municipality; Montenegro,hotel,cameraforensics
https://q-cf.bstatic.com/images/hotel/max1280x900/155/155340409.jpg,42.10866025,19.09000045,2020-05-08T18:36:57+0000,900.0,675.0,,,Montenegro,IV. proleterske brigade; Ilino; Bar; Bar Municipality; 85355; Montenegro,hotel,cameraforensics
https://q-cf.bstatic.com/images/hotel/max1280x900/188/188168913.jpg,42.107636299999996,19.095633,2020-05-08T18:53:25+0000,900.0,1200.0,,,Montenegro,Ulica kneginje Zorke; Ilino; Bar; Bar Municipality; 85355; Montenegro,hotel,cameraforensics
https://q-cf.bstatic.com/images/hotel/max1280x900/135/135247354.jpg,42.03275707,19.14571533,2020-05-08T19:54:08+0000,900.0,1200.0,,,Montenegro,87; Dubrava; Pečurice; Bar Municipality; 85353; Montenegro,hotel,cameraforensics
https://q-cf.bstatic.com/images/hotel/max1280x900/212/212042681.jpg,42.03159558,19.14504725,2020-05-08T23:14:41+0000,900.0,506.0,,,Montenegro,86; Dubrava; Pečurice; Bar Municipality; 85353; Montenegro,hotel,cameraforensics
https://r-cf.bstatic.com/images/hotel/max1280x900/125/12598728.jpg,42.10782874,19.0908695,2020-05-10T15:49:35+0000,900.0,1200.0,,,Montenegro,Apartments Cindark; IV. proleterske brigade; Ilino; Bar; Bar Municipality; 85355; Montenegro,hotel,cameraforensics
https://r-cf.bstatic.com/images/hotel/max1280x900/685/68592632.jpg,42.10699456,19.0956974,2020-04-23T03:52:33+0000,719.0,1280.0,,,Montenegro,Vila Jadran; M-1; Ilino; Bar; Bar Municipality; 85355; Montenegro,hotel,cameraforensics
https://r-cf.bstatic.com/images/hotel/max1280x900/140/140562431.jpg,42.10699456,19.0956974,2020-04-23T02:25:37+0000,853.0,1280.0,,,Montenegro,Vila Jadran; M-1; Ilino; Bar; Bar Municipality; 85355; Montenegro,hotel,cameraforensics
https://r-cf.bstatic.com/images/hotel/max1280x900/148/148730973.jpg,42.133771,19.064969,2020-05-09T06:39:37+0000,900.0,675.0,,,Montenegro,Brca; Bar Municipality; 85355; Montenegro,hotel,cameraforensics
https://r-cf.bstatic.com/images/hotel/max1280x900/194/194840345.jpg,42.08523876,19.11058764,2020-05-09T05:36:15+0000,900.0,1200.0,,,Montenegro,Polje-dio; Polje; Bar Municipality; 85354; Montenegro,hotel,cameraforensics
https://r-cf.bstatic.com/images/hotel/max1280x900/204/204275518.jpg,42.11239579,19.08607304,2019-09-17T04:32:48+0000,768.0,576.0,,,Montenegro,Apart Hotel Monte Vite; 5; Bratstva i jedinstva; Žukotrlica; Bar; Bar Municipality; 85000; Montenegro,hotel,cameraforensics
https://q-cf.bstatic.com/images/hotel/max1280x900/207/207112924.jpg,42.15274462,19.03529135,2020-04-04T23:39:01+0000,900.0,1200.0,,,Montenegro,Haj Nehaj; Zgrade; Bar Municipality; 85000; Montenegro,hotel,cameraforensics
https://q-cf.bstatic.com/images/hotel/max1280x900/107/107130872.jpg,42.11001521,19.09135784,2020-04-17T21:48:44+0000,853.0,1280.0,,,Montenegro,Ilino; Bar; Bar Municipality; 85355; Montenegro,hotel,cameraforensics
https://r-cf.bstatic.com/images/hotel/max1280x900/280/28096232.jpg,42.11366341,19.09642348,2020-04-12T22:23:59+0000,900.0,1200.0,,,Montenegro,Šušanj-dio; Šušanj; Bar Municipality; 85355; Montenegro,hotel,cameraforensics
https://q-cf.bstatic.com/images/hotel/max1280x900/707/70766022.jpg,42.03364173,19.15237248,2020-04-07T00:52:39+0000,571.0,1280.0,,,Montenegro,Bištine; Pečurice; Bar Municipality; 85353; Montenegro,hotel,cameraforensics
https://q-cf.bstatic.com/images/hotel/max1280x900/948/94844232.jpg,42.113837,19.096828,2020-04-04T20:56:12+0000,720.0,1280.0,,,Montenegro,Šušanj-dio; Šušanj; Bar Municipality; 85355; Montenegro,hotel,cameraforensics
https://r-cf.bstatic.com/images/hotel/max1280x900/194/194919206.jpg,42.11758261,19.07948535,2020-03-10T07:43:43+0000,900.0,675.0,,,Montenegro,Zeleni pojas; Šušanj; Bar Municipality; 85355; Montenegro,hotel,cameraforensics
https://r-cf.bstatic.com/images/hotel/max1280x900/109/109113094.jpg,42.02848259,19.1484037,2020-03-10T08:07:56+0000,853.0,1280.0,,,Montenegro,Pionirska ulica; Pečurice-dio; Pečurice; Bar Municipality; 85356; Montenegro,hotel,cameraforensics
https://r-cf.bstatic.com/images/hotel/max1280x900/409/40902561.jpg,42.11535,19.083710999999997,2020-03-10T08:35:16+0000,900.0,1200.0,,,Montenegro,Ulica II.; Zeleni pojas; Šušanj; Bar Municipality; 85355; Montenegro,hotel,cameraforensics
https://r-cf.bstatic.com/images/hotel/max1280x900/139/139346155.jpg,42.11703886,19.09017205,2020-03-10T10:37:50+0000,900.0,667.0,,,Montenegro,Carević; Šušanj-dio; Šušanj; Bar Municipality; 85355; Montenegro,hotel,cameraforensics
https://r-cf.bstatic.com/images/hotel/max1280x900/102/102228936.jpg,42.14490111,19.0210703,2020-02-11T22:52:28+0000,853.0,1280.0,,,Montenegro,Zagrađe; Bar Municipality; 85000; Montenegro,hotel,cameraforensics
https://r-cf.bstatic.com/images/hotel/max1280x900/152/152001239.jpg,42.107163,19.095648,2020-02-11T22:31:03+0000,854.0,1280.0,,,Montenegro,Vila Jadran; M-1; Ilino; Bar; Bar Municipality; 85355; Montenegro,hotel,cameraforensics
https://q-cf.bstatic.com/images/hotel/max1280x900/205/205705975.jpg,42.12622558,19.06427238,2020-02-03T22:42:55+0000,900.0,675.0,,,Montenegro,M-1; Zelen; Sutomore; Bar Municipality; 85355; Montenegro,hotel,cameraforensics
https://q-cf.bstatic.com/images/hotel/max1280x900/153/153714589.jpg,42.14982295,19.03967679,2020-03-08T03:35:42+0000,853.0,1280.0,,,Montenegro,Haj Nehaj; Zgrade; Bar Municipality; 85000; Montenegro,hotel,cameraforensics
https://r-cf.bstatic.com/images/hotel/max1280x900/104/104358053.jpg,42.0451847,19.14345363,2020-03-08T15:24:07+0000,854.0,1280.0,,,Montenegro,Nišice; Dobra Voda; Bar Municipality; 85353; Montenegro,hotel,cameraforensics
https://q-cf.bstatic.com/images/hotel/max1280x900/913/91339523.jpg,42.11285614,19.09323032,2020-03-08T15:49:22+0000,853.0,1280.0,,,Montenegro,Ilino; Bar; Bar Municipality; 85355; Montenegro,hotel,cameraforensics
https://r-cf.bstatic.com/images/hotel/max1280x900/205/205914319.jpg,42.13076855,19.11535175,2020-03-09T03:22:44+0000,853.0,1280.0,,,Montenegro,Zupci; Bar Municipality; 85354; Montenegro,hotel,cameraforensics
https://q-cf.bstatic.com/images/hotel/max1280x900/201/201234991.jpg,42.10136804,19.10463704,2020-02-04T17:48:23+0000,854.0,1280.0,,,Montenegro,Makedonsko naselje; Bar; Bar Municipality; 85354; Montenegro,hotel,cameraforensics
https://q-cf.bstatic.com/images/hotel/max1280x900/168/168642839.jpg,42.03057864,19.15497152,2020-02-21T23:49:07+0000,321.0,1200.0,,,Montenegro,119; Ravanj; Pečurice-dio; Pečurice; Bar Municipality; 85356; Montenegro,hotel,cameraforensics
https://q-cf.bstatic.com/images/hotel/max1280x900/215/215241215.jpg,42.03803441,19.14377868,2020-03-07T23:44:09+0000,900.0,1205.0,,,Montenegro,Marin Ploča; Dobra Voda-dio; Dobra Voda; Bar Municipality; 85353; Montenegro,hotel,cameraforensics
https://q-cf.bstatic.com/images/hotel/max1280x900/187/187125350.jpg,42.1116045,19.09696281,2020-03-07T16:30:01+0000,900.0,596.0,,,Montenegro,Ilino; Bar; Bar Municipality; 85355; Montenegro,hotel,cameraforensics
https://r-cf.bstatic.com/images/hotel/max1280x900/218/218560580.jpg,42.16411232,18.99843187,2020-03-09T02:09:04+0000,853.0,1280.0,,,Montenegro,Biserna Obala; Čanj; Bar Municipality; Montenegro,hotel,cameraforensics
https://r-cf.bstatic.com/images/hotel/max1280x900/199/199760361.jpg,42.14012131,19.04884146,2020-02-29T08:02:47+0000,900.0,675.0,,,Montenegro,Sutomore Petrol; M-1; Staro Sutomore; Sutomore; Bar Municipality; 85000; Montenegro,hotel,cameraforensics
https://r-cf.bstatic.com/images/hotel/max1280x900/208/208653956.jpg,42.14655509,19.084008100000002,2020-02-06T22:38:18+0000,750.0,1000.0,,,Montenegro,Brca; Bar Municipality; Montenegro,hotel,cameraforensics
https://r-cf.bstatic.com/images/hotel/max1280x900/152/152345961.jpg,42.14636234,19.03860549,2020-02-06T22:27:57+0000,900.0,1200.0,,,Montenegro,Mirošica 2; Sutomore; Bar Municipality; 85000; Montenegro,hotel,cameraforensics
https://q-cf.bstatic.com/images/hotel/max1280x900/420/42059676.jpg,42.112275,19.08586,2020-01-14T13:13:22+0000,900.0,1200.0,,,Montenegro,Apart Hotel Monte Vite; 5; Bratstva i jedinstva; Žukotrlica; Bar; Bar Municipality; 85000; Montenegro,hotel,cameraforensics
https://r-cf.bstatic.com/images/hotel/max1280x900/140/140968987.jpg,42.10664434,19.09894288,2020-01-21T07:29:42+0000,900.0,675.0,,,Montenegro,Ilino; Bar; Bar Municipality; 85355; Montenegro,hotel,cameraforensics
https://q-cf.bstatic.com/images/hotel/max1280x900/142/142102453.jpg,42.03803441,19.14377868,2020-01-05T00:27:55+0000,900.0,1273.0,,,Montenegro,Marin Ploča; Dobra Voda-dio; Dobra Voda; Bar Municipality; 85353; Montenegro,hotel,cameraforensics
https://q-cf.bstatic.com/images/hotel/max1280x900/153/153012130.jpg,42.04019889,19.14825914,2020-02-02T12:12:15+0000,900.0,1200.0,,,Montenegro,Pješkeze; Dobra Voda-dio; Dobra Voda; Bar Municipality; 85353; Montenegro,hotel,cameraforensics
https://r-cf.bstatic.com/images/hotel/max1280x900/913/91322485.jpg,42.11285614,19.09323032,2020-01-08T19:18:22+0000,853.0,1280.0,,,Montenegro,Ilino; Bar; Bar Municipality; 85355; Montenegro,hotel,cameraforensics
https://q-cf.bstatic.com/images/hotel/max1280x900/150/150225891.jpg,42.095512,19.092951,2020-01-17T17:27:03+0000,900.0,1200.0,,,Montenegro,Branka Čalovića; Topolica; Bar; Bar Municipality; 85354; Montenegro,hotel,cameraforensics
https://r-cf.bstatic.com/images/hotel/max1280x900/162/162073413.jpg,42.030805,19.151204999999997,2019-09-11T07:32:47+0000,900.0,1200.0,,,Montenegro,109; Pečurice-dio; Pečurice; Bar Municipality; 85353; Montenegro,hotel,cameraforensics
https://r-cf.bstatic.com/images/hotel/max1280x900/197/197418962.jpg,42.11760969,19.07760377,2019-09-17T04:13:47+0000,900.0,675.0,,,Montenegro,Ulica I.; Zeleni pojas; Šušanj; Bar Municipality; 85355; Montenegro,hotel,cameraforensics
https://q-cf.bstatic.com/images/hotel/max1280x900/197/197421974.jpg,42.11760969,19.07760377,2019-09-16T18:38:24+0000,900.0,675.0,,,Montenegro,Ulica I.; Zeleni pojas; Šušanj; Bar Municipality; 85355; Montenegro,hotel,cameraforensics
https://q-cf.bstatic.com/images/hotel/max1280x900/201/201106826.jpg,42.14112882,19.04098034,2019-12-21T14:48:37+0000,900.0,1200.0,,,Montenegro,Mirošica 1; Sutomore; Bar Municipality; 85000; Montenegro,hotel,cameraforensics
https://q-cf.bstatic.com/images/hotel/max1280x900/157/157552523.jpg,42.091211,19.089904,2019-12-19T21:36:28+0000,900.0,1200.0,,,Montenegro,Port of Bar; Sokolana; Bar; Bar Municipality; 85354; Montenegro,hotel,cameraforensics
https://q-cf.bstatic.com/images/hotel/max1280x900/207/207637519.jpg,42.032707,19.144845,2019-12-19T20:11:57+0000,720.0,1280.0,,,Montenegro,83; Dubrava; Pečurice; Bar Municipality; 85353; Montenegro,hotel,cameraforensics
https://r-cf.bstatic.com/images/hotel/max1280x900/203/203169398.jpg,42.117323999999996,19.080243799999998,2019-12-20T09:08:28+0000,900.0,900.0,,,Montenegro,Ulica III.; Zeleni pojas; Šušanj; Bar Municipality; 85355; Montenegro,hotel,cameraforensics
https://r-cf.bstatic.com/images/hotel/max1280x900/215/215838269.jpg,42.12776516,19.06807336,2019-12-20T05:17:37+0000,853.0,1280.0,,,Montenegro,Madžari; Šušanj-dio; Šušanj; Bar Municipality; 85355; Montenegro,hotel,cameraforensics
https://r-cf.bstatic.com/images/hotel/max1280x900/218/218103443.jpg,42.09345560000001,19.1330878,2019-12-20T07:21:32+0000,853.0,1280.0,,,Montenegro,Dino; Starobarska čarsija; Gretva; Stari Bar; Bar Municipality; 85354; Montenegro,hotel,cameraforensics
https://r-cf.bstatic.com/images/hotel/max1280x900/334/33431100.jpg,42.12490127,19.06544209,2020-05-27T14:34:20+0000,853.0,1280.0,,,Montenegro,Apartments Tara; Mila Čakalovića; Madžari; Ratac; Sutomore; Bar Municipality; 85355; Montenegro,hotel,cameraforensics
https://r-cf.bstatic.com/images/hotel/max1280x900/190/190717383.jpg,42.10702735,19.10254255,2020-05-24T06:54:03+0000,900.0,675.0,,,Montenegro,Makedonsko naselje; Bar; Bar Municipality; 85354; Montenegro,hotel,cameraforensics
https://r-cf.bstatic.com/images/hotel/max1280x900/151/151846965.jpg,42.14659672,19.03418132,2020-05-24T04:51:31+0000,900.0,675.0,,,Montenegro,Zagrađe; Bar Municipality; 85000; Montenegro,hotel,cameraforensics
https://q-cf.bstatic.com/images/hotel/max1280x900/779/77968879.jpg,42.0413213,19.14418903,2020-05-29T03:29:37+0000,768.0,1280.0,,,Montenegro,M-1; Nišice; Dobra Voda; Bar Municipality; 85353; Montenegro,hotel,cameraforensics
https://q-cf.bstatic.com/images/hotel/max1280x900/151/151529796.jpg,42.09716362,19.09548819,2020-05-22T07:52:52+0000,900.0,1200.0,,,Montenegro,Lovćen osiguranje; 27; Jovana Tomaševića; Topolica; Bar; Bar Municipality; 85000; Montenegro,hotel,cameraforensics
https://q-cf.bstatic.com/images/hotel/max1280x900/184/184698440.jpg,42.108610399999996,19.09385203,2020-05-22T07:14:53+0000,900.0,1200.0,,,Montenegro,Ilino; Bar; Bar Municipality; 85355; Montenegro,hotel,cameraforensics
https://q-cf.bstatic.com/images/hotel/max1280x900/206/206977743.jpg,42.1511287,19.04454173,2020-05-31T02:33:29+0000,900.0,675.0,,,Montenegro,Jelići; Papani; Bar Municipality; 85000; Montenegro,hotel,cameraforensics
https://q-cf.bstatic.com/images/hotel/max1280x900/207/207913317.jpg,42.13427842,19.06208266,2020-05-18T18:07:28+0000,900.0,1200.0,,,Montenegro,Zelen; Sutomore; Bar Municipality; 85355; Montenegro,hotel,cameraforensics
https://r-cf.bstatic.com/images/hotel/max1280x900/176/176703229.jpg,42.138487,19.043834,2020-05-27T14:45:38+0000,900.0,675.0,,,Montenegro,Mirošica 1; Sutomore; Bar Municipality; 85000; Montenegro,hotel,cameraforensics
https://r-cf.bstatic.com/images/hotel/max1280x900/213/213895235.jpg,42.10176801,19.10160088,2020-05-27T15:31:44+0000,720.0,1280.0,,,Montenegro,c6; Bulevar Revolucije; Makedonsko naselje; Bar; Bar Municipality; 85000; Montenegro,hotel,cameraforensics
https://r-cf.bstatic.com/images/hotel/max1280x900/215/215099310.jpg,42.11639394,19.08316934,2020-05-27T15:51:15+0000,720.0,1280.0,,,Montenegro,Zeleni pojas; Šušanj; Bar Municipality; 85355; Montenegro,hotel,cameraforensics
https://r-cf.bstatic.com/images/hotel/max1280x900/673/67330953.jpg,42.03141863,19.14617121,2020-05-16T16:11:02+0000,900.0,675.0,,,Montenegro,Apartmani Montedom; 5; 90; Dubrava; Dobra Voda; Bar Municipality; 85000; Montenegro,hotel,cameraforensics
https://r-cf.bstatic.com/images/hotel/max1280x900/190/190717097.jpg,42.10702735,19.10254255,2020-05-24T06:45:58+0000,900.0,675.0,,,Montenegro,Makedonsko naselje; Bar; Bar Municipality; 85354; Montenegro,hotel,cameraforensics
https://r-cf.bstatic.com/images/hotel/max1280x900/239/239004478.jpg,42.0315153,19.14422541,2020-12-26T13:29:22+0000,900.0,675.0,,,Montenegro,82; Dubrava; Pečurice; Bar Municipality; 85353; Montenegro,hotel,cameraforensics
https://q-cf.bstatic.com/images/hotel/max1280x900/163/16326595.jpg,42.10982814,19.08951759,2020-02-24T07:10:33+0000,900.0,675.0,,,Montenegro,IV. proleterske brigade; Ilino; Bar; Bar Municipality; 85355; Montenegro,hotel,cameraforensics
https://q-cf.bstatic.com/images/hotel/max1280x900/144/144099296.jpg,42.11162691,19.08679247,2020-02-24T08:21:48+0000,832.0,1280.0,,,Montenegro,3; Omladinska; Ilino; Šušanj; Bar Municipality; 85355; Montenegro,hotel,cameraforensics
https://r-cf.bstatic.com/images/hotel/max1280x900/165/165641786.jpg,42.11015939,19.09116125,2020-02-23T23:37:10+0000,853.0,1280.0,,,Montenegro,Ilino; Bar; Bar Municipality; 85355; Montenegro,hotel,cameraforensics
https://q-cf.bstatic.com/images/hotel/max1280x900/133/133439459.jpg,42.11155827,19.09904145,2020-02-08T23:23:20+0000,480.0,640.0,,,Montenegro,Šušanj-dio; Šušanj; Bar Municipality; 85355; Montenegro,hotel,cameraforensics
https://q-cf.bstatic.com/images/hotel/max1280x900/140/140563287.jpg,42.10699456,19.0956974,2020-02-04T07:50:11+0000,853.0,1280.0,,,Montenegro,Vila Jadran; M-1; Ilino; Bar; Bar Municipality; 85355; Montenegro,hotel,cameraforensics
https://q-cf.bstatic.com/images/hotel/max1280x900/215/215086928.jpg,42.14745341,19.03357913,2020-02-03T18:48:13+0000,412.0,550.0,,,Montenegro,Zagrađe; Bar Municipality; 85000; Montenegro,hotel,cameraforensics
https://q-cf.bstatic.com/images/hotel/max1280x900/211/211892737.jpg,42.11534618,19.08752508,2020-02-03T23:32:03+0000,900.0,675.0,,,Montenegro,Zeleni pojas; Šušanj; Bar Municipality; 85355; Montenegro,hotel,cameraforensics
https://r-cf.bstatic.com/images/hotel/max1280x900/194/194653891.jpg,42.10556007,19.09666518,2020-01-22T12:05:51+0000,900.0,1200.0,,,Montenegro,Topolica; Bar; Bar Municipality; 85355; Montenegro,hotel,cameraforensics
https://r-cf.bstatic.com/images/hotel/max1280x900/762/76263355.jpg,42.10778654,19.09095776,2020-02-03T20:26:02+0000,720.0,1280.0,,,Montenegro,Apartments Cindark; IV. proleterske brigade; Ilino; Bar; Bar Municipality; 85355; Montenegro,hotel,cameraforensics
https://r-cf.bstatic.com/images/hotel/max1280x900/150/150244918.jpg,42.16600983,18.99756342,2020-02-28T13:27:15+0000,900.0,1200.0,,,Montenegro,Gudurić; Stijepa M. Zeca; Biserna Obala; Čanj; Bar Municipality; Montenegro,hotel,cameraforensics
https://r-cf.bstatic.com/images/hotel/max1280x900/211/211993497.jpg,42.12488889,19.07746773,2020-02-29T00:36:31+0000,900.0,675.0,,,Montenegro,Vitići; Šušanj; Bar Municipality; 85355; Montenegro,hotel,cameraforensics
https://q-cf.bstatic.com/images/hotel/max1280x900/209/209355043.jpg,42.031525,19.144176,2020-01-06T21:03:54+0000,853.0,1280.0,,,Montenegro,82; Dubrava; Pečurice; Bar Municipality; 85353; Montenegro,hotel,cameraforensics
https://q-cf.bstatic.com/images/hotel/max1280x900/107/107732616.jpg,42.14589565,19.03164843,2020-09-19T13:26:04+0000,900.0,506.0,,,Montenegro,Zagrađe; Bar Municipality; 85000; Montenegro,hotel,cameraforensics
https://q-cf.bstatic.com/images/hotel/max1280x900/148/148753034.jpg,42.03166864,19.14747674,2020-09-19T12:30:17+0000,900.0,1200.0,,,Montenegro,93; Dubrava; Pečurice; Bar Municipality; 85353; Montenegro,hotel,cameraforensics
https://q-cf.bstatic.com/images/hotel/max1280x900/106/106626996.jpg,42.12089558,19.09334779,2020-09-19T12:30:53+0000,900.0,1200.0,,,Montenegro,Villa Paladin; 207; Gavrila Principa; Žukotrlica; Šušanj; Bar Municipality; 85000; Montenegro,hotel,cameraforensics
https://q-cf.bstatic.com/images/hotel/max1280x900/913/91362311.jpg,42.122570700000004,19.08694267,2020-09-29T20:07:12+0000,900.0,1200.0,,,Montenegro,Carević; Šušanj-dio; Šušanj; Bar Municipality; 85355; Montenegro,hotel,cameraforensics
https://q-cf.bstatic.com/images/hotel/max1280x900/138/138422770.jpg,42.1336379,19.06516314,2020-10-10T18:29:42+0000,900.0,1200.0,,,Montenegro,Brca; Bar Municipality; 85355; Montenegro,hotel,cameraforensics
https://q-cf.bstatic.com/images/hotel/max1280x900/145/145395148.jpg,42.1336379,19.06516314,2020-10-10T18:20:15+0000,900.0,1200.0,,,Montenegro,Brca; Bar Municipality; 85355; Montenegro,hotel,cameraforensics
https://q-cf.bstatic.com/images/hotel/max1280x900/205/205726005.jpg,42.08773324,19.10803556,2020-10-10T18:18:40+0000,900.0,675.0,,,Montenegro,Polje-dio; Polje; Bar Municipality; 85354; Montenegro,hotel,cameraforensics
https://r-cf.bstatic.com/images/hotel/max1280x900/450/45030166.jpg,42.14450986,19.0454658,2020-07-31T02:17:09+0000,900.0,1200.0,,,Montenegro,Rutke; Đinđinovići; Bar Municipality; 85000; Montenegro,hotel,cameraforensics
https://q-cf.bstatic.com/images/hotel/max1280x900/155/155350321.jpg,42.03140381,19.144620899999996,2020-09-28T09:27:17+0000,900.0,675.0,,,Montenegro,84; Dubrava; Pečurice; Bar Municipality; 85353; Montenegro,hotel,cameraforensics
https://r-cf.bstatic.com/images/hotel/max1280x900/621/62175542.jpg,42.03060353,19.14866298,2020-09-29T14:39:59+0000,720.0,1280.0,,,Montenegro,102; Pečurice-dio; Pečurice; Bar Municipality; 85353; Montenegro,hotel,cameraforensics
https://q-cf.bstatic.com/images/hotel/max1280x900/122/122748824.jpg,42.04237647,19.14293124,2020-09-28T15:52:46+0000,853.0,1280.0,,,Montenegro,Nišice; Dobra Voda; Bar Municipality; 85353; Montenegro,hotel,cameraforensics
https://q-cf.bstatic.com/images/hotel/max1280x900/158/158265942.jpg,42.128465999999996,19.062524,2020-09-28T15:48:55+0000,480.0,640.0,,,Montenegro,Zelen; Sutomore; Bar Municipality; 85355; Montenegro,hotel,cameraforensics
https://q-cf.bstatic.com/images/hotel/max1280x900/103/103097246.jpg,42.13180001,19.06230662,2020-09-28T14:45:04+0000,853.0,1280.0,,,Montenegro,Zelen; Sutomore; Bar Municipality; 85355; Montenegro,hotel,cameraforensics
https://q-cf.bstatic.com/images/hotel/max1280x900/148/148623271.jpg,42.154595,19.032932000000002,2020-09-28T17:27:57+0000,900.0,900.0,,,Montenegro,Haj Nehaj; Zgrade; Bar Municipality; 85000; Montenegro,hotel,cameraforensics
https://q-cf.bstatic.com/images/hotel/max1280x900/207/207031330.jpg,42.09921352,19.10036512,2020-09-28T21:06:33+0000,900.0,675.0,,,Montenegro,New Burn d.o.o.; 18; Makedonska; Makedonsko naselje; Bar; Bar Municipality; 85354; Montenegro,hotel,cameraforensics
https://q-cf.bstatic.com/images/hotel/max1280x900/104/104148016.jpg,42.16462653,18.9989984,2020-09-29T20:46:15+0000,853.0,1280.0,,,Montenegro,Galeb; Stijepa M. Zeca; Biserna Obala; Čanj; Bar Municipality; Montenegro,hotel,cameraforensics
https://r-cf.bstatic.com/images/hotel/max1280x900/135/135247308.jpg,42.03275707,19.14571533,2020-10-05T10:11:34+0000,900.0,1200.0,,,Montenegro,87; Dubrava; Pečurice; Bar Municipality; 85353; Montenegro,hotel,cameraforensics
https://r-cf.bstatic.com/images/hotel/max1280x900/145/145671499.jpg,42.03387687,19.14454991,2020-10-02T13:04:38+0000,900.0,1130.0,,,Montenegro,77; Dubrava; Pečurice; Bar Municipality; 85353; Montenegro,hotel,cameraforensics
https://r-cf.bstatic.com/images/hotel/max1280x900/147/147304377.jpg,42.10074,19.102168,2020-10-23T23:36:09+0000,900.0,1268.0,,,Montenegro,Makedonsko naselje; Bar; Bar Municipality; 85354; Montenegro,hotel,cameraforensics
https://r-cf.bstatic.com/images/hotel/max1280x900/102/102836239.jpg,42.08773324,19.10803556,2020-10-23T21:30:24+0000,900.0,675.0,,,Montenegro,Polje-dio; Polje; Bar Municipality; 85354; Montenegro,hotel,cameraforensics
https://r-cf.bstatic.com/images/hotel/max1280x900/125/125749602.jpg,42.03011342,19.14198697,2020-11-02T10:22:03+0000,853.0,1280.0,,,Montenegro,Royal Villas; 80; Dubrava; Pečurice; Bar Municipality; 85353; Montenegro,hotel,cameraforensics
https://r-cf.bstatic.com/images/hotel/max1280x900/206/206093098.jpg,42.10838467,19.09196279,2020-11-02T11:08:53+0000,853.0,1280.0,,,Montenegro,Ilino; Bar; Bar Municipality; 85355; Montenegro,hotel,cameraforensics
https://r-cf.bstatic.com/images/hotel/max1280x900/149/149208875.jpg,42.13222887,19.06385908,2020-12-06T21:09:24+0000,900.0,505.0,,,Montenegro,Vila Tiodorović; M-1; Zelen; Sutomore; Bar Municipality; 85355; Montenegro,hotel,cameraforensics
https://r-cf.bstatic.com/images/hotel/max1280x900/105/105129622.jpg,42.1343716,19.06224382,2020-12-06T21:05:52+0000,853.0,1280.0,,,Montenegro,Zelen; Sutomore; Bar Municipality; 85355; Montenegro,hotel,cameraforensics
https://r-cf.bstatic.com/images/hotel/max1280x900/165/165205264.jpg,42.09748282,19.10711343,2019-12-23T18:18:52+0000,900.0,1200.0,,,Montenegro,Makedonsko naselje; Bjeliši; Bar Municipality; 85354; Montenegro,hotel,cameraforensics
https://r-cf.bstatic.com/images/hotel/max1280x900/206/206006183.jpg,42.030086,19.154285,2019-12-23T04:05:02+0000,854.0,1280.0,,,Montenegro,117; Ravanj; Pečurice-dio; Pečurice; Bar Municipality; 85356; Montenegro,hotel,cameraforensics
https://r-cf.bstatic.com/images/hotel/max1280x900/207/207292335.jpg,42.16329209,19.00236726,2019-12-22T02:25:10+0000,900.0,505.0,,,Montenegro,Zlatibor; Mišićka; Biserna Obala; Čanj; Bar Municipality; Montenegro,hotel,cameraforensics
https://r-cf.bstatic.com/images/hotel/max1280x900/207/207789202.jpg,42.14586916,19.03525093,2019-12-27T20:15:44+0000,900.0,600.0,,,Montenegro,Zagrađe; Bar Municipality; 85000; Montenegro,hotel,cameraforensics
https://q-cf.bstatic.com/images/hotel/max1280x900/196/196766228.jpg,42.033419099999996,19.14436933,2020-07-25T15:27:50+0000,854.0,1280.0,,,Montenegro,77; Dubrava; Pečurice; Bar Municipality; 85353; Montenegro,hotel,cameraforensics
https://q-cf.bstatic.com/images/hotel/max1280x900/547/54783689.jpg,42.16211795,19.00648978,2020-11-24T18:22:02+0000,900.0,1200.0,,,Montenegro,Vila Asanović; Mišićka; Kufin; Čanj; Bar Municipality; Montenegro,hotel,cameraforensics
https://q-cf.bstatic.com/images/hotel/max1280x900/329/32992081.jpg,42.13580601,19.05883584,2020-11-24T17:50:06+0000,900.0,1200.0,,,Montenegro,Staro Sutomore; Sutomore; Bar Municipality; 85000; Montenegro,hotel,cameraforensics
https://q-cf.bstatic.com/images/hotel/max1280x900/207/207769081.jpg,42.03562113,19.14743546,2020-07-04T23:26:26+0000,720.0,1280.0,,,Montenegro,Marin Ploča; Dubrava; Pečurice; Bar Municipality; 85353; Montenegro,hotel,cameraforensics
https://r-cf.bstatic.com/images/hotel/max1280x900/143/143809217.jpg,42.03140997,19.1501677,2020-07-17T10:32:23+0000,842.0,1280.0,,,Montenegro,105; Pečurice-dio; Pečurice; Bar Municipality; 85353; Montenegro,hotel,cameraforensics
https://r-cf.bstatic.com/images/hotel/max1280x900/154/154237397.jpg,42.09128936,19.11996416,2020-07-17T09:55:08+0000,853.0,1280.0,,,Montenegro,Gornja Čeluga; Čeluga; Bar Municipality; 85354; Montenegro,hotel,cameraforensics
https://r-cf.bstatic.com/images/hotel/max1280x900/189/189610878.jpg,42.13004908,19.1135237,2020-05-19T07:55:30+0000,900.0,675.0,,,Montenegro,Zupci; Bar Municipality; 85354; Montenegro,hotel,cameraforensics
https://r-cf.bstatic.com/images/hotel/max1280x900/234/234217690.jpg,42.11651186,19.08272842,2020-07-22T13:03:09+0000,900.0,675.0,,,Montenegro,Ulica IV.; Zeleni pojas; Šušanj; Bar Municipality; 85355; Montenegro,hotel,cameraforensics
https://q-cf.bstatic.com/images/hotel/max1280x900/279/27997389.jpg,42.10797111,19.09603,2020-06-25T08:36:00+0000,850.0,1280.0,,,Montenegro,Ilino; Bar; Bar Municipality; 85355; Montenegro,hotel,cameraforensics
https://q-cf.bstatic.com/images/hotel/max1280x900/103/103933177.jpg,42.04240693,19.14359361,2020-06-27T03:47:43+0000,900.0,1200.0,,,Montenegro,Nišice; Dobra Voda; Bar Municipality; 85353; Montenegro,hotel,cameraforensics
https://r-cf.bstatic.com/images/hotel/max1280x900/207/207079144.jpg,42.03326078,19.14520428,2020-06-29T05:11:12+0000,900.0,1200.0,,,Montenegro,83; Dubrava; Pečurice; Bar Municipality; 85353; Montenegro,hotel,cameraforensics
https://q-cf.bstatic.com/images/hotel/max1280x900/639/63961493.jpg,42.11703886,19.09017205,2020-06-25T16:10:28+0000,450.0,800.0,,,Montenegro,Carević; Šušanj-dio; Šušanj; Bar Municipality; 85355; Montenegro,hotel,cameraforensics
https://q-cf.bstatic.com/images/hotel/max1280x900/207/207028025.jpg,42.108885,19.093841,2020-06-25T11:10:47+0000,853.0,1280.0,,,Montenegro,Ilino; Bar; Bar Municipality; 85355; Montenegro,hotel,cameraforensics
https://q-cf.bstatic.com/images/hotel/max1280x900/184/184535721.jpg,42.095356,19.094110999999998,2020-06-25T12:00:55+0000,900.0,600.0,,,Montenegro,Scandal; Branka Čalovića; Topolica; Bar; Bar Municipality; 85354; Montenegro,hotel,cameraforensics
https://r-cf.bstatic.com/images/hotel/max1280x900/707/70734245.jpg,42.11944621,19.09075544,2020-05-27T13:54:30+0000,900.0,1200.0,,,Montenegro,Carević; Šušanj-dio; Šušanj; Bar Municipality; 85355; Montenegro,hotel,cameraforensics
https://r-cf.bstatic.com/images/hotel/max1280x900/912/91245538.jpg,42.10664434,19.09894288,2020-03-22T01:42:41+0000,853.0,1280.0,,,Montenegro,Ilino; Bar; Bar Municipality; 85355; Montenegro,hotel,cameraforensics
https://r-cf.bstatic.com/images/hotel/max1280x900/139/139063454.jpg,42.029603,19.141944,2020-03-23T01:06:52+0000,765.0,1024.0,,,Montenegro,Royal Villas; 80; Dubrava; Pečurice; Bar Municipality; 85353; Montenegro,hotel,cameraforensics
https://r-cf.bstatic.com/images/hotel/max1280x900/151/151327185.jpg,42.14210416,19.03913804,2020-03-23T10:57:14+0000,900.0,675.0,,,Montenegro,Apartmani Blagoje; 79a; Cara Lazara; Mirošica 1; Sutomore; Bar Municipality; 85000; Montenegro,hotel,cameraforensics
https://q-cf.bstatic.com/images/hotel/max1280x900/102/102807931.jpg,42.01412411,19.15005237,2020-03-21T23:07:16+0000,853.0,1280.0,,,Montenegro,Masline; Bušat; Kunje; Bar Municipality; 85356; Montenegro,hotel,cameraforensics
https://r-cf.bstatic.com/images/hotel/max1280x900/772/77256616.jpg,42.0413213,19.14418903,2020-06-09T14:01:47+0000,900.0,506.0,,,Montenegro,M-1; Nišice; Dobra Voda; Bar Municipality; 85353; Montenegro,hotel,cameraforensics
https://q-cf.bstatic.com/images/hotel/max1280x900/188/188165630.jpg,42.11593666,19.09186183,2020-05-18T14:34:18+0000,900.0,675.0,,,Montenegro,Carević; Šušanj-dio; Šušanj; Bar Municipality; 85355; Montenegro,hotel,cameraforensics
https://q-cf.bstatic.com/images/hotel/max1280x900/345/34505701.jpg,42.03427327,19.15260855,2020-05-18T14:32:23+0000,860.0,1280.0,,,Montenegro,Bištine; Pečurice; Bar Municipality; 85353; Montenegro,hotel,cameraforensics
https://r-cf.bstatic.com/images/hotel/max1280x900/209/209661988.jpg,42.02908661,19.14901972,2020-05-18T02:30:08+0000,900.0,1200.0,,,Montenegro,106; Pečurice-dio; Pečurice; Bar Municipality; 85356; Montenegro,hotel,cameraforensics
https://q-cf.bstatic.com/images/hotel/max1280x900/127/127614886.jpg,42.14462859,19.02120173,2020-05-18T14:52:41+0000,853.0,1280.0,,,Montenegro,Zagrađe; Bar Municipality; 85000; Montenegro,hotel,cameraforensics
https://r-cf.bstatic.com/images/hotel/max1280x900/184/184698471.jpg,42.108610399999996,19.09385203,2020-05-27T15:14:40+0000,900.0,675.0,,,Montenegro,Ilino; Bar; Bar Municipality; 85355; Montenegro,hotel,cameraforensics
https://r-cf.bstatic.com/images/hotel/max1280x900/213/213525318.jpg,42.09555901,19.10730376,2020-05-27T13:59:14+0000,900.0,438.0,,,Montenegro,Bjeliši; Bar Municipality; 85354; Montenegro,hotel,cameraforensics
https://r-cf.bstatic.com/images/hotel/max1280x900/194/194172498.jpg,42.1393954,19.04669965,2020-06-29T01:31:19+0000,853.0,1280.0,,,Montenegro,Crveni krst Sutomore; Vuka Karadžića; Mirošica 1; Staro Sutomore; Sutomore; Bar Municipality; 85000; Montenegro,hotel,cameraforensics
https://q-cf.bstatic.com/images/hotel/max1280x900/263/26378804.jpg,42.11395200000001,19.086082,2020-05-04T07:44:39+0000,900.0,675.0,,,Montenegro,Apartmani Milošev; 17; 1. bokeljske brigade; Žukotrlica; Bar; Bar Municipality; 85000; Montenegro,hotel,cameraforensics
https://r-cf.bstatic.com/images/hotel/max1280x900/143/143834445.jpg,42.03535812,19.14386401,2020-05-16T15:48:35+0000,900.0,1200.0,,,Montenegro,IDEA; Marin Ploča; Dobra Voda-dio; Dobra Voda; Bar Municipality; 85353; Montenegro,hotel,cameraforensics
https://r-cf.bstatic.com/images/hotel/max1280x900/215/215581651.jpg,42.13427842,19.06208266,2020-05-24T07:54:22+0000,900.0,675.0,,,Montenegro,Zelen; Sutomore; Bar Municipality; 85355; Montenegro,hotel,cameraforensics
https://q-cf.bstatic.com/images/hotel/max1280x900/211/211370019.jpg,42.14772298,19.04733449,2020-05-28T23:58:07+0000,791.0,1280.0,,,Montenegro,Rutke; Đinđinovići; Bar Municipality; 85000; Montenegro,hotel,cameraforensics
https://q-cf.bstatic.com/images/hotel/max1280x900/152/152974699.jpg,42.111182,19.087058,2020-05-22T07:52:19+0000,853.0,1280.0,,,Montenegro,IV. proleterske brigade; Žukotrlica; Bar; Bar Municipality; 85355; Montenegro,hotel,cameraforensics
https://q-cf.bstatic.com/images/hotel/max1280x900/217/217094748.jpg,42.10724642,19.08732688,2020-05-22T07:25:58+0000,534.0,712.0,,,Montenegro,Apart-Hotel Kuće Lekovića; IV. proleterske brigade; Ilino; Bar; Bar Municipality; 85355; Montenegro,hotel,cameraforensics
https://q-cf.bstatic.com/images/hotel/max1280x900/484/48463857.jpg,42.14321956,19.02474895,2020-05-22T06:36:43+0000,900.0,1200.0,,,Montenegro,Zagrađe; Bar Municipality; 85000; Montenegro,hotel,cameraforensics
https://q-cf.bstatic.com/images/hotel/max1280x900/164/164504363.jpg,42.13941145,19.04838614,2020-05-22T07:02:19+0000,480.0,640.0,,,Montenegro,Staro Sutomore; Sutomore; Bar Municipality; 85000; Montenegro,hotel,cameraforensics
https://r-cf.bstatic.com/images/hotel/max1280x900/103/103969008.jpg,42.1273981,19.06689584,2020-05-10T17:46:58+0000,900.0,540.0,,,Montenegro,Madžari; Šušanj-dio; Šušanj; Bar Municipality; 85355; Montenegro,hotel,cameraforensics
https://q-cf.bstatic.com/images/hotel/max1280x900/143/143888212.jpg,42.09377617,19.13384805,2020-05-10T00:24:38+0000,900.0,1200.0,,,Montenegro,Restoran Kaldrma; Starobarska čarsija; Stari Bar-dio; Stari Bar; Bar Municipality; 85354; Montenegro,hotel,cameraforensics
https://q-cf.bstatic.com/images/hotel/max1280x900/103/103444218.jpg,42.15074017,19.03716892,2020-05-10T05:22:23+0000,900.0,506.0,,,Montenegro,Haj Nehaj; Sutomore; Bar Municipality; 85000; Montenegro,hotel,cameraforensics
https://q-cf.bstatic.com/images/hotel/max1280x900/112/112089163.jpg,42.116735999999996,19.080597,2020-05-10T06:05:21+0000,450.0,600.0,,,Montenegro,Ulica II.; Zeleni pojas; Šušanj; Bar Municipality; 85355; Montenegro,hotel,cameraforensics
https://r-cf.bstatic.com/images/hotel/max1280x900/208/208360713.jpg,42.02863804,19.15230966,2020-05-17T07:11:22+0000,900.0,600.0,,,Montenegro,116; Ravanj; Pečurice-dio; Pečurice; Bar Municipality; 85356; Montenegro,hotel,cameraforensics
https://r-cf.bstatic.com/images/hotel/max1280x900/211/211711202.jpg,42.028648,19.14947189,2020-05-16T19:35:23+0000,853.0,1280.0,,,Montenegro,108; Pečurice-dio; Pečurice; Bar Municipality; 85356; Montenegro,hotel,cameraforensics
https://q-cf.bstatic.com/images/hotel/max1280x900/186/186254940.jpg,42.03731336,19.14319847,2020-04-04T21:49:12+0000,720.0,960.0,,,Montenegro,Marin Ploča; Dobra Voda-dio; Dobra Voda; Bar Municipality; 85353; Montenegro,hotel,cameraforensics
https://q-cf.bstatic.com/images/hotel/max1280x900/665/66501180.jpg,42.11465532,19.09112154,2020-04-04T21:23:29+0000,426.0,639.0,,,Montenegro,Šušanj-dio; Šušanj; Bar Municipality; 85355; Montenegro,hotel,cameraforensics
https://q-cf.bstatic.com/images/hotel/max1280x900/205/205469079.jpg,42.101405,19.101434,2020-04-04T23:51:30+0000,853.0,1280.0,,,Montenegro,c6; Bulevar Revolucije; Makedonsko naselje; Bar; Bar Municipality; 85000; Montenegro,hotel,cameraforensics
https://r-cf.bstatic.com/images/hotel/max1280x900/145/145129642.jpg,42.1431966,19.03956392,2020-05-19T04:30:12+0000,719.0,1280.0,,,Montenegro,Kosovska; Mirošica 2; Sutomore; Bar Municipality; 85000; Montenegro,hotel,cameraforensics
https://r-cf.bstatic.com/images/hotel/max1280x900/448/44887400.jpg,42.105166,19.096946,2020-01-21T11:52:20+0000,900.0,600.0,,,Montenegro,Hotel Pharos; Bulevar 24. novembra; Topolica; Bar; Bar Municipality; 85354; Montenegro,hotel,cameraforensics
https://r-cf.bstatic.com/images/hotel/max1280x900/627/62795701.jpg,42.112275,19.08586,2020-01-21T10:27:46+0000,900.0,1200.0,,,Montenegro,Apart Hotel Monte Vite; 5; Bratstva i jedinstva; Žukotrlica; Bar; Bar Municipality; 85000; Montenegro,hotel,cameraforensics
https://q-cf.bstatic.com/images/hotel/max1280x900/163/163092619.jpg,42.01183194,19.15746331,2020-01-04T05:52:49+0000,900.0,1200.0,,,Montenegro,Alići; Kunje-dio; Kunje; Bar Municipality; 85356; Montenegro,hotel,cameraforensics
https://q-cf.bstatic.com/images/hotel/max1280x900/208/208186931.jpg,42.05499917,19.14892104,2020-01-04T16:04:40+0000,719.0,1280.0,,,Montenegro,Jankovići; Dobra Voda-dio; Dobra Voda; Bar Municipality; 85353; Montenegro,hotel,cameraforensics
https://q-cf.bstatic.com/images/hotel/max1280x900/720/72098712.jpg,42.14199744,19.04541805,2020-01-14T00:58:59+0000,853.0,1280.0,,,Montenegro,Mirošica 1; Sutomore; Bar Municipality; 85000; Montenegro,hotel,cameraforensics
https://q-cf.bstatic.com/images/hotel/max1280x900/152/152550262.jpg,42.105166,19.096946,2020-01-14T02:51:08+0000,900.0,601.0,,,Montenegro,Hotel Pharos; Bulevar 24. novembra; Topolica; Bar; Bar Municipality; 85354; Montenegro,hotel,cameraforensics
https://q-cf.bstatic.com/images/hotel/max1280x900/720/72099915.jpg,42.14199744,19.04541805,2020-01-14T01:39:49+0000,853.0,1280.0,,,Montenegro,Mirošica 1; Sutomore; Bar Municipality; 85000; Montenegro,hotel,cameraforensics
https://r-cf.bstatic.com/images/hotel/max1280x900/211/211271506.jpg,42.116344,19.076949,2020-04-11T20:49:05+0000,900.0,1200.0,,,Montenegro,M-1; Žukotrlica; Bar; Bar Municipality; 85355; Montenegro,hotel,cameraforensics
https://r-cf.bstatic.com/images/hotel/max1280x900/213/21397502.jpg,42.13406754,19.06521142,2020-03-12T09:07:16+0000,853.0,1280.0,,,Montenegro,Apartments Sergej; M-1; Zelen; Sutomore; Bar Municipality; 85355; Montenegro,hotel,cameraforensics
https://q-cf.bstatic.com/images/hotel/max1280x900/200/200496900.jpg,42.0969107,19.093839499999998,2020-03-12T13:21:24+0000,900.0,1200.0,,,Montenegro,Cosmetics; Maršala Tita; Topolica; Bar; Bar Municipality; 85354; Montenegro,hotel,cameraforensics
https://q-cf.bstatic.com/images/hotel/max1280x900/195/195966492.jpg,42.1398915,19.04851513,2020-03-12T14:30:54+0000,853.0,1280.0,,,Montenegro,Staro Sutomore; Sutomore; Bar Municipality; 85000; Montenegro,hotel,cameraforensics
https://q-cf.bstatic.com/images/hotel/max1280x900/146/146732327.jpg,42.13370721,19.06543449,2020-03-12T15:36:24+0000,854.0,1280.0,,,Montenegro,Guest House Vukmarkovic; 93; M-1; Zelen; Sutomore; Bar Municipality; 85355; Montenegro,hotel,cameraforensics
https://q-cf.bstatic.com/images/hotel/max1280x900/362/36217614.jpg,42.11269316,19.086470600000002,2020-04-06T03:31:17+0000,900.0,1200.0,,,Montenegro,Žukotrlica; Bar; Bar Municipality; 85355; Montenegro,hotel,cameraforensics
https://r-cf.bstatic.com/images/hotel/max1280x900/152/152407694.jpg,42.11199947,19.09197147,2020-02-11T22:43:34+0000,900.0,600.0,,,Montenegro,15; Jovana Jovanovića Zmaja; Ilino; Bar; Bar Municipality; 85355; Montenegro,hotel,cameraforensics
https://q-cf.bstatic.com/images/hotel/max1280x900/654/65480364.jpg,42.14492120000001,19.02773237,2020-03-05T23:11:12+0000,900.0,1200.0,,,Montenegro,Zagrađe; Bar Municipality; 85000; Montenegro,hotel,cameraforensics
https://r-cf.bstatic.com/images/hotel/max1280x900/792/79238585.jpg,42.11168089,19.10192549,2020-02-03T21:20:26+0000,853.0,1280.0,,,Montenegro,Šušanj-dio; Šušanj; Bar Municipality; 85354; Montenegro,hotel,cameraforensics
https://q-cf.bstatic.com/images/hotel/max1280x900/210/210579810.jpg,42.03458300000001,19.142761,2020-02-04T19:19:07+0000,853.0,1280.0,,,Montenegro,Šnsa Cafe; Marin Ploča; Dobra Voda-dio; Dobra Voda; Bar Municipality; 85353; Montenegro,hotel,cameraforensics
https://r-cf.bstatic.com/images/hotel/max1280x900/107/107130856.jpg,42.11001521,19.09135784,2020-02-06T12:30:12+0000,853.0,1280.0,,,Montenegro,Ilino; Bar; Bar Municipality; 85355; Montenegro,hotel,cameraforensics
https://r-cf.bstatic.com/images/hotel/max1280x900/148/148854455.jpg,42.16170818,18.99569637,2020-02-06T12:09:28+0000,900.0,1200.0,,,Montenegro,Vila Ljiljana; Mišićka; Biserna Obala; Čanj; Bar Municipality; Montenegro,hotel,cameraforensics
https://q-cf.bstatic.com/images/hotel/max1280x900/997/99791801.jpg,42.10024667,19.0990448,2020-01-18T22:13:28+0000,900.0,675.0,,,Montenegro,Pavlin; Bulevar 24. novembra; Makedonsko naselje; Bar; Bar Municipality; 85354; Montenegro,hotel,cameraforensics
https://q-cf.bstatic.com/images/hotel/max1280x900/997/99791829.jpg,42.10024667,19.0990448,2020-01-18T22:13:29+0000,900.0,675.0,,,Montenegro,Pavlin; Bulevar 24. novembra; Makedonsko naselje; Bar; Bar Municipality; 85354; Montenegro,hotel,cameraforensics
https://q-cf.bstatic.com/images/hotel/max1280x900/209/209619588.jpg,42.03109411,19.14724957,2020-01-18T23:08:15+0000,900.0,506.0,,,Montenegro,94; Dubrava; Pečurice; Bar Municipality; 85353; Montenegro,hotel,cameraforensics
https://r-cf.bstatic.com/images/hotel/max1280x900/766/76608173.jpg,42.15837243,19.02738476,2020-01-08T02:31:48+0000,900.0,1200.0,,,Montenegro,M-1; Bjelila; Zagrađe; Bar Municipality; 85000; Montenegro,hotel,cameraforensics
https://r-cf.bstatic.com/images/hotel/max1280x900/214/214892614.jpg,42.08223778,19.10871248,2020-01-21T16:48:13+0000,720.0,1280.0,,,Montenegro,Polje-dio; Polje; Bar Municipality; 85354; Montenegro,hotel,cameraforensics
https://r-cf.bstatic.com/images/hotel/max1280x900/147/147623771.jpg,42.095512,19.092951,2020-01-21T17:20:20+0000,900.0,1200.0,,,Montenegro,Branka Čalovića; Topolica; Bar; Bar Municipality; 85354; Montenegro,hotel,cameraforensics
https://q-cf.bstatic.com/images/hotel/max1280x900/186/186795378.jpg,42.09611277,19.09333102,2020-03-09T21:47:32+0000,900.0,1200.0,,,Montenegro,Topolica; Bar; Bar Municipality; 85354; Montenegro,hotel,cameraforensics
https://r-cf.bstatic.com/images/hotel/max1280x900/145/145501672.jpg,42.032469799999994,19.14518952,2020-03-02T14:53:43+0000,853.0,1280.0,,,Montenegro,85; Dubrava; Pečurice; Bar Municipality; 85353; Montenegro,hotel,cameraforensics
https://r-cf.bstatic.com/images/hotel/max1280x900/402/40244323.jpg,42.03547653,19.14568573,2020-03-02T15:09:37+0000,848.0,1280.0,,,Montenegro,Marin Ploča; Dubrava; Pečurice; Bar Municipality; 85353; Montenegro,hotel,cameraforensics
https://q-cf.bstatic.com/images/hotel/max1280x900/194/194650957.jpg,42.11810524,19.07705072,2020-02-18T07:43:33+0000,900.0,1200.0,,,Montenegro,Ulica I.; Zeleni pojas; Šušanj; Bar Municipality; 85355; Montenegro,hotel,cameraforensics
https://q-cf.bstatic.com/images/hotel/max1280x900/494/49416265.jpg,42.11531279,19.089455899999997,2020-03-07T18:26:47+0000,900.0,675.0,,,Montenegro,Šušanj-dio; Šušanj; Bar Municipality; 85355; Montenegro,hotel,cameraforensics
https://q-cf.bstatic.com/images/hotel/max1280x900/913/91341273.jpg,42.11285614,19.09323032,2020-03-08T15:58:03+0000,853.0,1280.0,,,Montenegro,Ilino; Bar; Bar Municipality; 85355; Montenegro,hotel,cameraforensics
https://q-cf.bstatic.com/images/hotel/max1280x900/606/60681897.jpg,42.112153,19.094225,2019-09-11T06:54:55+0000,853.0,1280.0,,,Montenegro,Apartments Sabović; 62; Gavrila Principa; Ilino; Bar; Bar Municipality; 85355; Montenegro,hotel,cameraforensics
https://r-cf.bstatic.com/images/hotel/max1280x900/684/68455588.jpg,42.13538831,19.06083677,2019-09-11T07:05:15+0000,853.0,1280.0,,,Montenegro,Južno more; M-1; Staro Sutomore; Sutomore; Bar Municipality; 85000; Montenegro,hotel,cameraforensics
https://r-cf.bstatic.com/images/hotel/max1280x900/215/215313431.jpg,42.14359046,19.02344942,2019-09-11T07:25:13+0000,900.0,675.0,,,Montenegro,Zagrađe; Bar Municipality; 85000; Montenegro,hotel,cameraforensics
https://r-cf.bstatic.com/images/hotel/max1280x900/156/156454216.jpg,42.042485,19.143545,2019-09-11T07:26:07+0000,768.0,1024.0,,,Montenegro,Nišice; Dobra Voda; Bar Municipality; 85353; Montenegro,hotel,cameraforensics
https://q-cf.bstatic.com/images/hotel/max1280x900/206/206292793.jpg,42.030086,19.154285,2019-09-11T07:19:31+0000,513.0,770.0,,,Montenegro,117; Ravanj; Pečurice-dio; Pečurice; Bar Municipality; 85356; Montenegro,hotel,cameraforensics
https://q-cf.bstatic.com/images/hotel/max1280x900/100/100878374.jpg,42.09834181,19.11487698,2020-05-05T04:11:57+0000,853.0,1280.0,,,Montenegro,R-28; Sustaš-dio; Sustaš; Bar Municipality; 85354; Montenegro,hotel,cameraforensics
https://q-cf.bstatic.com/images/hotel/max1280x900/698/69842498.jpg,42.03985216,19.14862074,2020-05-05T02:44:21+0000,853.0,1280.0,,,Montenegro,Pješkeze; Dobra Voda-dio; Dobra Voda; Bar Municipality; 85353; Montenegro,hotel,cameraforensics
https://q-cf.bstatic.com/images/hotel/max1280x900/220/220701471.jpg,42.09834181,19.11487698,2020-05-05T03:47:46+0000,853.0,1280.0,,,Montenegro,R-28; Sustaš-dio; Sustaš; Bar Municipality; 85354; Montenegro,hotel,cameraforensics
https://r-cf.bstatic.com/images/hotel/max1280x900/134/134028656.jpg,42.03328893,19.14512699,2020-05-09T05:04:48+0000,900.0,675.0,,,Montenegro,83; Dubrava; Pečurice; Bar Municipality; 85353; Montenegro,hotel,cameraforensics
https://q-cf.bstatic.com/images/hotel/max1280x900/215/215540363.jpg,42.01224871,19.15258169,2020-04-04T22:43:06+0000,900.0,1200.0,,,Montenegro,Masline; Bušat; Kunje; Bar Municipality; 85356; Montenegro,hotel,cameraforensics
https://r-cf.bstatic.com/images/hotel/max1280x900/140/140184824.jpg,42.095512,19.092951,2019-09-17T03:58:21+0000,854.0,1280.0,,,Montenegro,Branka Čalovića; Topolica; Bar; Bar Municipality; 85354; Montenegro,hotel,cameraforensics
https://r-cf.bstatic.com/images/hotel/max1280x900/134/134915708.jpg,42.029044,19.154835000000002,2019-09-17T03:58:21+0000,720.0,1280.0,,,Montenegro,122; Ravanj; Pečurice-dio; Pečurice; Bar Municipality; 85356; Montenegro,hotel,cameraforensics
https://r-cf.bstatic.com/images/hotel/max1280x900/109/109974888.jpg,42.14350209,19.05056387,2019-09-17T06:41:07+0000,900.0,1200.0,,,Montenegro,Pobrđe; Miljevci; Bar Municipality; 85000; Montenegro,hotel,cameraforensics
https://r-cf.bstatic.com/images/hotel/max1280x900/150/150616799.jpg,42.14552973,19.03837323,2019-09-17T07:31:59+0000,768.0,1024.0,,,Montenegro,Mirošica 2; Sutomore; Bar Municipality; 85000; Montenegro,hotel,cameraforensics
https://q-cf.bstatic.com/images/hotel/max1280x900/149/149202664.jpg,42.14046446,19.04544357,2019-12-21T14:27:33+0000,900.0,675.0,,,Montenegro,Mirošica 1; Sutomore; Bar Municipality; 85000; Montenegro,hotel,cameraforensics
https://q-cf.bstatic.com/images/hotel/max1280x900/215/215838287.jpg,42.12776516,19.06807336,2019-12-19T18:03:11+0000,853.0,1280.0,,,Montenegro,Madžari; Šušanj-dio; Šušanj; Bar Municipality; 85355; Montenegro,hotel,cameraforensics
https://q-cf.bstatic.com/images/hotel/max1280x900/211/211892727.jpg,42.11534618,19.08752508,2019-12-19T19:17:12+0000,900.0,675.0,,,Montenegro,Zeleni pojas; Šušanj; Bar Municipality; 85355; Montenegro,hotel,cameraforensics
https://r-cf.bstatic.com/images/hotel/max1280x900/209/209340633.jpg,42.1349972,19.06107853,2019-12-20T05:20:19+0000,853.0,1280.0,,,Montenegro,Zelen; Sutomore; Bar Municipality; 85355; Montenegro,hotel,cameraforensics
https://r-cf.bstatic.com/images/hotel/max1280x900/199/199853972.jpg,42.10778549,19.09077501,2019-12-20T07:56:24+0000,900.0,1200.0,,,Montenegro,Apartments Cindark; IV. proleterske brigade; Ilino; Bar; Bar Municipality; 85355; Montenegro,hotel,cameraforensics
https://r-cf.bstatic.com/images/hotel/max1280x900/204/204304293.jpg,42.0333,19.143154,2019-12-20T07:35:18+0000,900.0,1200.0,,,Montenegro,Kalamper Hotel & Spa; 174; Dubrava; Pečurice; Bar Municipality; 85353; Montenegro,hotel,cameraforensics
https://r-cf.bstatic.com/images/hotel/max1280x900/211/211517101.jpg,42.14677067,19.03421044,2020-05-24T03:25:36+0000,900.0,1205.0,,,Montenegro,Zagrađe; Bar Municipality; 85000; Montenegro,hotel,cameraforensics
https://q-cf.bstatic.com/images/hotel/max1280x900/173/173861233.jpg,42.03684433,19.14471137,2020-05-28T23:37:47+0000,853.0,1280.0,,,Montenegro,Marin Ploča; Dobra Voda-dio; Dobra Voda; Bar Municipality; 85353; Montenegro,hotel,cameraforensics
https://q-cf.bstatic.com/images/hotel/max1280x900/568/56821990.jpg,42.13290417,19.06464279,2020-05-29T01:06:24+0000,900.0,1200.0,,,Montenegro,Apartment Saly; M-1; Zelen; Sutomore; Bar Municipality; 85355; Montenegro,hotel,cameraforensics
https://q-cf.bstatic.com/images/hotel/max1280x900/143/143616799.jpg,42.14751815,19.03783143,2020-05-29T01:05:54+0000,900.0,506.0,,,Montenegro,Haj Nehaj; Sutomore; Bar Municipality; 85000; Montenegro,hotel,cameraforensics
https://q-cf.bstatic.com/images/hotel/max1280x900/928/92882616.jpg,42.14312708,19.05002743,2020-05-29T06:09:19+0000,900.0,675.0,,,Montenegro,Pobrđe; Miljevci; Bar Municipality; 85000; Montenegro,hotel,cameraforensics
https://q-cf.bstatic.com/images/hotel/max1280x900/151/151845854.jpg,42.147943100000006,19.03962298,2020-05-08T21:42:26+0000,900.0,601.0,,,Montenegro,M-1; Haj Nehaj; Sutomore; Bar Municipality; 85000; Montenegro,hotel,cameraforensics
https://q-cf.bstatic.com/images/hotel/max1280x900/181/181317221.jpg,42.028648,19.14947189,2020-05-08T21:19:11+0000,900.0,675.0,,,Montenegro,108; Pečurice-dio; Pečurice; Bar Municipality; 85356; Montenegro,hotel,cameraforensics
https://q-cf.bstatic.com/images/hotel/max1280x900/155/155276702.jpg,42.03263166,19.14451368,2020-05-08T22:43:30+0000,900.0,675.0,,,Montenegro,83; Dubrava; Pečurice; Bar Municipality; 85353; Montenegro,hotel,cameraforensics
https://r-cf.bstatic.com/images/hotel/max1280x900/189/189610883.jpg,42.13004908,19.1135237,2020-05-19T08:04:26+0000,900.0,1200.0,,,Montenegro,Zupci; Bar Municipality; 85354; Montenegro,hotel,cameraforensics
https://r-cf.bstatic.com/images/hotel/max1280x900/999/99982071.jpg,42.13854584,19.05006123,2020-06-28T23:01:08+0000,900.0,675.0,,,Montenegro,Staro Sutomore; Sutomore; Bar Municipality; 85000; Montenegro,hotel,cameraforensics
https://r-cf.bstatic.com/images/hotel/max1280x900/192/192258618.jpg,42.08822291,19.11268383,2020-06-29T00:55:50+0000,900.0,675.0,,,Montenegro,Ronkula; Burtaiši; Bar Municipality; 85354; Montenegro,hotel,cameraforensics
https://r-cf.bstatic.com/images/hotel/max1280x900/222/222701029.jpg,42.03458300000001,19.142761,2020-06-29T04:13:41+0000,900.0,1200.0,,,Montenegro,Šnsa Cafe; Marin Ploča; Dobra Voda-dio; Dobra Voda; Bar Municipality; 85353; Montenegro,hotel,cameraforensics
https://r-cf.bstatic.com/images/hotel/max1280x900/223/223832777.jpg,42.04460157,19.14111261,2020-12-11T21:30:33+0000,900.0,1200.0,,,Montenegro,Nišice; Dobra Voda; Bar Municipality; 85353; Montenegro,hotel,cameraforensics
https://q-cf.bstatic.com/images/hotel/max1280x900/144/144382495.jpg,42.09430587,19.09494638,2020-12-25T10:37:33+0000,900.0,675.0,,,Montenegro,Lovćen Banka; Ulica JNA; Topolica; Bar; Bar Municipality; 85354; Montenegro,hotel,cameraforensics
