url,latitude,longitude,date,height,width,media,copyRight,country,address,keyword,source
https://live.staticflickr.com/65535/49149062937_b4cde95e1d_o.jpg,33.24435555555556,-8.48908055555555,,,,,,Morocco,Ibis; RN1; El Jadida; El Jadida Province; Casablanca-Settat; 24000; Morocco,hotel,cameraforensics
https://q-cf.bstatic.com/images/hotel/max1280x900/238/238140308.jpg,33.24664433,-8.49889701,,,,,,Morocco,El Jadida; El Jadida Province; Casablanca-Settat; 24000; Morocco,hotel,cameraforensics
https://q-cf.bstatic.com/images/hotel/max1280x900/236/236492242.jpg,33.24664433,-8.49889701,,,,,,Morocco,El Jadida; El Jadida Province; Casablanca-Settat; 24000; Morocco,hotel,cameraforensics
https://live.staticflickr.com/7529/15880527437_6369ba56ac_o.jpg,33.24445,-8.490872999999999,,,,,,Morocco,EX Hotel Doukala; RN1; El Jadida; El Jadida Province; Casablanca-Settat; 24000; Morocco,hotel,cameraforensics
https://r-cf.bstatic.com/images/hotel/max1280x900/163/163918104.jpg,33.24456948,-8.48907083,,,,,,Morocco,Ibis; RN1; El Jadida; El Jadida Province; Casablanca-Settat; 24000; Morocco,hotel,cameraforensics
https://live.staticflickr.com/65535/49148757037_d7f24099ac_o.jpg,33.24558888888889,-8.489275,,,,,,Morocco,El Jadida; El Jadida Province; Casablanca-Settat; 24000; Morocco,hotel,cameraforensics
https://q-cf.bstatic.com/images/hotel/max1280x900/186/186603903.jpg,33.24518861,-8.49062383,,,,,,Morocco,Ibis; RN1; El Jadida; El Jadida Province; Casablanca-Settat; 24000; Morocco,hotel,cameraforensics
https://live.staticflickr.com/4856/45949643435_0dd69ebd3e_o.jpg,33.24478055555556,-8.494686111111111,,,,,,Morocco,EX Hotel Marhaba; Avenue Mohammed VI شارع محمد السادس; El Jadida; El Jadida Province; Casablanca-Settat; 24010; Morocco,hotel,cameraforensics
https://live.staticflickr.com/3716/10848014346_d4d9035c9a_o.jpg,33.24419722222222,-8.48771111111111,,,,,,Morocco,El Jadida; El Jadida Province; Casablanca-Settat; 24000; Morocco,hotel,cameraforensics
https://r-cf.bstatic.com/images/hotel/max1280x900/193/193447585.jpg,33.24640569,-8.49668252,,,,,,Morocco,Pharamcie El Mohit; Avenue Mohammed VI شارع محمد السادس; El Jadida; El Jadida Province; Casablanca-Settat; 24010; Morocco,hotel,cameraforensics
https://live.staticflickr.com/3942/15129652503_b843eaedda_o.jpg,31.62396944444444,-8.003027777777781,,,,,,Morocco,Arkech; Avenue Echouhada; El Hara; Guéliz ⴳⵉⵍⵉⵣ گليز; Marrakesh; arrondissement de Guéliz كليز; Pachalik de Marrakech; Préfecture de Marrakech عمالة مراكش; Marrakech-Safi; 40000; Morocco,hotel,cameraforensics
https://live.staticflickr.com/1457/26478937722_d82c5d7f13_o.jpg,31.61866666666667,-8.00899166666667,,,,,,Morocco,Boulevard Mohammed VI شارع محمد السادس; L'Hivernage; Guéliz ⴳⵉⵍⵉⵣ گليز; Marrakesh; arrondissement de Guéliz كليز; Pachalik de Marrakech; Préfecture de Marrakech عمالة مراكش; Marrakech-Safi; 40020; Morocco,hotel,cameraforensics
https://live.staticflickr.com/7551/16306476215_ab5c40d8c8_o.jpg,31.61889027777778,-8.00559777777778,,,,,,Morocco,Av. du President Kennedy; Avenue Prince Moulay Rachid; L'Hivernage; Guéliz ⴳⵉⵍⵉⵣ گليز; Marrakesh; arrondissement de Guéliz كليز; Pachalik de Marrakech; Préfecture de Marrakech عمالة مراكش; Marrakech-Safi; 40 000; Morocco,hotel,cameraforensics
https://live.staticflickr.com/7320/12809554253_4235d6161b_o.jpg,31.62289166666667,-8.00239166666667,,,,,,Morocco,Suite Novotel Marrakech; Avenue Echouhada; El Hara; Guéliz ⴳⵉⵍⵉⵣ گليز; Marrakesh; arrondissement de Guéliz كليز; Pachalik de Marrakech; Préfecture de Marrakech عمالة مراكش; Marrakech-Safi; 40000; Morocco,hotel,cameraforensics
https://r-cf.bstatic.com/images/hotel/max1280x900/166/166007421.jpg,31.61951671,-8.00974005,,,,,,Morocco,Banque Populaire; Boulevard Mohammed VI شارع محمد السادس; L'Hivernage; Guéliz ⴳⵉⵍⵉⵣ گليز; Marrakesh; arrondissement de Guéliz كليز; Pachalik de Marrakech; Préfecture de Marrakech عمالة مراكش; Marrakech-Safi; 40020; Morocco,hotel,cameraforensics
https://q-cf.bstatic.com/images/hotel/max1280x900/137/137483353.jpg,31.619078000000002,-8.011357,,,,,,Morocco,Nice view on the Atlas mountains from the Food Court Terasse; Avenue Prince Moulay Rachid; L'Hivernage; Marrakesh; arrondissement de Guéliz كليز; Pachalik de Marrakech; Préfecture de Marrakech عمالة مراكش; Marrakech-Safi; 40020; Morocco,hotel,cameraforensics
https://r-cf.bstatic.com/images/hotel/max1280x900/265/26535519.jpg,31.62175683,-8.00794423,,,,,,Morocco,La Villa Canaille; Rue Ksar El Kebir زنقة القصر الكبير; L'Hivernage; Guéliz ⴳⵉⵍⵉⵣ گليز; Marrakesh; arrondissement de Guéliz كليز; Pachalik de Marrakech; Préfecture de Marrakech عمالة مراكش; Marrakech-Safi; 40020; Morocco,hotel,cameraforensics
https://live.staticflickr.com/65535/49339142928_d54bf3fa6e_o.jpg,31.623925,-8.003127777777781,,,,,,Morocco,Arkech; Avenue Echouhada; El Hara; Guéliz ⴳⵉⵍⵉⵣ گليز; Marrakesh; arrondissement de Guéliz كليز; Pachalik de Marrakech; Préfecture de Marrakech عمالة مراكش; Marrakech-Safi; 40000; Morocco,hotel,cameraforensics
https://q-cf.bstatic.com/images/hotel/max1280x900/137/137487434.jpg,31.619078000000002,-8.011357,,,,,,Morocco,Nice view on the Atlas mountains from the Food Court Terasse; Avenue Prince Moulay Rachid; L'Hivernage; Marrakesh; arrondissement de Guéliz كليز; Pachalik de Marrakech; Préfecture de Marrakech عمالة مراكش; Marrakech-Safi; 40020; Morocco,hotel,cameraforensics
https://r-cf.bstatic.com/images/hotel/max1280x900/133/133844465.jpg,31.61778974,-8.00983945,,,,,,Morocco,Savoy Le Grand Hotel; Avenue Prince Moulay Rachid; L'Hivernage; Marrakesh; arrondissement de Guéliz كليز; Pachalik de Marrakech; Préfecture de Marrakech عمالة مراكش; Marrakech-Safi; 40020; Morocco,hotel,cameraforensics
https://live.staticflickr.com/62/31315317690_0125846ef1_o.jpg,33.58997222222221,-7.62524722222222,,,,,,Morocco,Consulat d'Espagne; Rue Curie; Sidi Belyout; Casablanca; arrondissement de Sidi Belyout مقاطعة سيدي بليوط; préfecture d'arrondissements de Casablanca-Anfa عمالة مقاطعات الدار البيضاء أنفا; Prefecture of Casablanca; Casablanca-Settat; 20070; Morocco,hotel,cameraforensics
https://q-cf.bstatic.com/images/hotel/max1280x900/222/222128166.jpg,33.59347287,-7.63217915,,,,,,Morocco,Blendcorner; Rue Ghadfa Beni Almada Ni; Sidi Belyout; Casablanca; arrondissement de Sidi Belyout مقاطعة سيدي بليوط; préfecture d'arrondissements de Casablanca-Anfa عمالة مقاطعات الدار البيضاء أنفا; Prefecture of Casablanca; Casablanca-Settat; 20250; Morocco,hotel,cameraforensics
https://q-cf.bstatic.com/images/hotel/max1280x900/120/120117553.jpg,33.58970558,-7.63314575,,,,,,Morocco,Hotel Yto; Rue Théophile Gauthier; Sidi Belyout; Casablanca; arrondissement de Sidi Belyout مقاطعة سيدي بليوط; préfecture d'arrondissements de Casablanca-Anfa عمالة مقاطعات الدار البيضاء أنفا; Prefecture of Casablanca; Casablanca-Settat; 20060; Morocco,hotel,cameraforensics
https://q-cf.bstatic.com/images/hotel/max1280x900/212/212116167.jpg,33.59000718,-7.63910694,,,,,,Morocco,Cap Realty; 164; Boulevard d'Anfa شارع أنفا; Casablanca; arrondissement d'El Maarif مقاطعة المعاريف; préfecture d'arrondissements de Casablanca-Anfa عمالة مقاطعات الدار البيضاء أنفا; Prefecture of Casablanca; Casablanca-Settat; 75015; Morocco,hotel,cameraforensics
https://q-cf.bstatic.com/images/hotel/max1280x900/207/207011351.jpg,33.59289045,-7.63040971,,,,,,Morocco,Rue Franklin; Sidi Belyout; Casablanca; arrondissement de Sidi Belyout مقاطعة سيدي بليوط; préfecture d'arrondissements de Casablanca-Anfa عمالة مقاطعات الدار البيضاء أنفا; Prefecture of Casablanca; Casablanca-Settat; 20012; Morocco,hotel,cameraforensics
http://static.panoramio.com/photos/original/91343970.jpg,33.58933333333334,-7.64,,,,,,Morocco,Les Arènes; Boulevard d'Anfa شارع أنفا; Casablanca; arrondissement d'El Maarif مقاطعة المعاريف; Pachalik de Casablanca; Prefecture of Casablanca; Casablanca-Settat; 75015; Morocco,hotel,cameraforensics
http://static.panoramio.com/photos/original/91343941.jpg,33.58933333333334,-7.64016666666667,,,,,,Morocco,Pizza Hut; Boulevard d'Anfa شارع أنفا; El Maarif ⵍⵎⵄⴰⵔⵉⴼ المعاريف; Casablanca; arrondissement d'El Maarif مقاطعة المعاريف; préfecture d'arrondissements de Casablanca-Anfa عمالة مقاطعات الدار البيضاء أنفا; Prefecture of Casablanca; Casablanca-Settat; 75015; Morocco,hotel,cameraforensics
https://live.staticflickr.com/7367/12144864995_d28f7963de_o.jpg,33.58335833333334,-7.638855555555558,,,,,,Morocco,Rue Ennahas Nahoui; El Maarif ⵍⵎⵄⴰⵔⵉⴼ المعاريف; Casablanca; arrondissement d'El Maarif مقاطعة المعاريف; préfecture d'arrondissements de Casablanca-Anfa عمالة مقاطعات الدار البيضاء أنفا; Prefecture of Casablanca; Casablanca-Settat; 20330; Morocco,hotel,cameraforensics
https://q-cf.bstatic.com/images/hotel/max1280x900/180/180666686.jpg,33.58970558,-7.63314575,,,,,,Morocco,Hotel Yto; Rue Théophile Gauthier; Sidi Belyout; Casablanca; arrondissement de Sidi Belyout مقاطعة سيدي بليوط; préfecture d'arrondissements de Casablanca-Anfa عمالة مقاطعات الدار البيضاء أنفا; Prefecture of Casablanca; Casablanca-Settat; 20060; Morocco,hotel,cameraforensics
https://q-cf.bstatic.com/images/hotel/max1280x900/219/219265342.jpg,33.58713116,-7.63976569,,,,,,Morocco,Voga; Boulevard Al Massira Al Khadra; El Maarif ⵍⵎⵄⴰⵔⵉⴼ المعاريف; Casablanca; arrondissement d'El Maarif مقاطعة المعاريف; Pachalik de Casablanca; Prefecture of Casablanca; Casablanca-Settat; 75015; Morocco,hotel,cameraforensics
https://live.staticflickr.com/681/22579749369_7c46493901_o.jpg,31.622186111111112,-8.0002,,,,,,Morocco,The Pearl Marrakech; Rue du Temple; L'Hivernage; Guéliz ⴳⵉⵍⵉⵣ گليز; Marrakesh; arrondissement de Guéliz كليز; Pachalik de Marrakech; Préfecture de Marrakech عمالة مراكش; Marrakech-Safi; 40000; Morocco,hotel,cameraforensics
https://live.staticflickr.com/5510/12111705963_2542044206_o.jpg,31.62826444444444,-8.0063,,,,,,Morocco,Restaurant Orgnaza; Rue Moulay El Hassan; El Hara; Guéliz ⴳⵉⵍⵉⵣ گليز; Marrakesh; arrondissement de Guéliz كليز; Pachalik de Marrakech; Préfecture de Marrakech عمالة مراكش; Marrakech-Safi; 40000; Morocco,hotel,cameraforensics
https://q-cf.bstatic.com/images/hotel/max1280x900/207/207952753.jpg,31.625248499999998,-8.014122500000001,,,,,,Morocco,Hôtel les Idrissides; Boulevard Mohammed VI شارع محمد السادس; L'Hivernage; Guéliz ⴳⵉⵍⵉⵣ گليز; Marrakesh; arrondissement de Guéliz كليز; Pachalik de Marrakech; Préfecture de Marrakech عمالة مراكش; Marrakech-Safi; 40020; Morocco,hotel,cameraforensics
https://r-cf.bstatic.com/images/hotel/max1280x900/209/209541389.jpg,33.39275459,-7.56433667,,,,,,Morocco,Nouaceur; Pachalik de Nouaceur باشوية النواصر; Nouaceur Province; Casablanca-Settat; 29002; Morocco,hotel,cameraforensics
https://r-cf.bstatic.com/images/hotel/max1280x900/223/223215160.jpg,33.39118,-7.563762400000001,,,,,,Morocco,Nouaceur; Pachalik de Nouaceur باشوية النواصر; Nouaceur Province; Casablanca-Settat; 29002; Morocco,hotel,cameraforensics
http://static.panoramio.com/photos/original/122505161.jpg,33.393025,-7.56572138888889,,,,,,Morocco,Relax Hotel Airport; RP3038; Nouaceur; Pachalik de Nouaceur باشوية النواصر; Nouaceur Province; Casablanca-Settat; 29002; Morocco,hotel,cameraforensics
https://live.staticflickr.com/2862/12496942465_82a8af8255_o.jpg,33.394,-7.567,,,,,,Morocco,Nouaceur; Pachalik de Nouaceur باشوية النواصر; Nouaceur Province; Casablanca-Settat; 29002; Morocco,hotel,cameraforensics
https://r-cf.bstatic.com/images/hotel/max1280x900/232/232194277.jpg,33.3880647,-7.56043107,,,,,,Morocco,Nouaceur; Pachalik de Nouaceur باشوية النواصر; Nouaceur Province; Casablanca-Settat; 29002; Morocco,hotel,cameraforensics
https://r-cf.bstatic.com/images/hotel/max1280x900/183/183650880.jpg,33.39118,-7.563762,,,,,,Morocco,Nouaceur; Pachalik de Nouaceur باشوية النواصر; Nouaceur Province; Casablanca-Settat; 29002; Morocco,hotel,cameraforensics
https://r-cf.bstatic.com/images/hotel/max1280x900/175/175560788.jpg,33.391498999999996,-7.562145,,,,,,Morocco,Nouaceur; Pachalik de Nouaceur باشوية النواصر; Nouaceur Province; Casablanca-Settat; 29002; Morocco,hotel,cameraforensics
https://live.staticflickr.com/7353/12472512175_897944a3ba_o.jpg,33.39366666666667,-7.56583333333333,,,,,,Morocco,Relax Hotel Airport; RP3038; Nouaceur; Pachalik de Nouaceur باشوية النواصر; Nouaceur Province; Casablanca-Settat; 29002; Morocco,hotel,cameraforensics
https://live.staticflickr.com/7322/12497103703_d8e3719ec5_o.jpg,33.39383333333333,-7.56633333333333,,,,,,Morocco,Atlas Sky Hotel; RP3038; Nouaceur; Pachalik de Nouaceur باشوية النواصر; Nouaceur Province; Casablanca-Settat; 29002; Morocco,hotel,cameraforensics
https://live.staticflickr.com/3828/12475136145_4fb5eab82e_o.jpg,33.39366666666667,-7.56583333333333,,,,,,Morocco,Relax Hotel Airport; RP3038; Nouaceur; Pachalik de Nouaceur باشوية النواصر; Nouaceur Province; Casablanca-Settat; 29002; Morocco,hotel,cameraforensics
https://live.staticflickr.com/7349/12693923424_c7edb8908e_o.jpg,33.597194444444455,-7.67075833333333,,,,,,Morocco,Hôtel le Lido thalasso & spa (ex-Riad Salam); Boulevard de la Corniche; Aïn Diab; Anfa ⴰⵏⴼⴰ أنفا; Casablanca; arrondissement d'Anfa مقاطعة أنفا; préfecture d'arrondissements de Casablanca-Anfa عمالة مقاطعات الدار البيضاء أنفا; Prefecture of Casablanca; Casablanca-Settat; 20000; Morocco,hotel,cameraforensics
https://live.staticflickr.com/5606/15359934478_1d9e5eff10_o.jpg,33.595863888888886,-7.67770277777778,,,,,,Morocco,McDonald's; Boulevard de la Corniche; Aïn Diab; Anfa ⴰⵏⴼⴰ أنفا; Casablanca; arrondissement d'Anfa مقاطعة أنفا; préfecture d'arrondissements de Casablanca-Anfa عمالة مقاطعات الدار البيضاء أنفا; Prefecture of Casablanca; Casablanca-Settat; 20052; Morocco,hotel,cameraforensics
https://q-cf.bstatic.com/images/hotel/max1280x900/216/216395790.jpg,33.5962687,-7.6741382,,,,,,Morocco,Venize ice; Boulevard de la Corniche; Aïn Diab; Anfa ⴰⵏⴼⴰ أنفا; Casablanca; arrondissement d'Anfa مقاطعة أنفا; préfecture d'arrondissements de Casablanca-Anfa عمالة مقاطعات الدار البيضاء أنفا; Prefecture of Casablanca; Casablanca-Settat; 20052; Morocco,hotel,cameraforensics
https://r-cf.bstatic.com/images/hotel/max1280x900/190/190769661.jpg,33.59839671,-7.66569436,,,,,,Morocco,McKinsey & Company; Boulevard de la Corniche; Anfa ⴰⵏⴼⴰ أنفا; Casablanca; arrondissement d'Anfa مقاطعة أنفا; préfecture d'arrondissements de Casablanca-Anfa عمالة مقاطعات الدار البيضاء أنفا; Prefecture of Casablanca; Casablanca-Settat; 20180; Morocco,hotel,cameraforensics
https://live.staticflickr.com/7681/17327286201_bdf05d97b1_o.jpg,33.599575,-7.66578611111111,,,,,,Morocco,Little Barton's; Boulevard de la Corniche; Anfa ⴰⵏⴼⴰ أنفا; Casablanca; arrondissement d'Anfa مقاطعة أنفا; Pachalik de Casablanca; Prefecture of Casablanca; Casablanca-Settat; 20054; Morocco,hotel,cameraforensics
https://live.staticflickr.com/7547/15620478907_c19a098552_o.jpg,33.59689330555555,-7.671984222222218,,,,,,Morocco,Tahiti Beach Club; Boulevard de la Corniche; Aïn Diab; Anfa ⴰⵏⴼⴰ أنفا; Casablanca; arrondissement d'Anfa مقاطعة أنفا; Pachalik de Casablanca; Prefecture of Casablanca; Casablanca-Settat; 20052; Morocco,hotel,cameraforensics
https://q-cf.bstatic.com/images/hotel/max1280x900/386/38623904.jpg,33.59688197,-7.67041907,,,,,,Morocco,Rent Car; Boulevard de la Corniche; Aïn Diab; Anfa ⴰⵏⴼⴰ أنفا; Casablanca; arrondissement d'Anfa مقاطعة أنفا; Pachalik de Casablanca; Prefecture of Casablanca; Casablanca-Settat; 20052; Morocco,hotel,cameraforensics
http://static.panoramio.com/photos/original/93636814.jpg,33.59583333333333,-7.67611111111111,,,,,,Morocco,Rue de la Mer Egée; Aïn Diab; Anfa ⴰⵏⴼⴰ أنفا; Casablanca; arrondissement d'Anfa مقاطعة أنفا; préfecture d'arrondissements de Casablanca-Anfa عمالة مقاطعات الدار البيضاء أنفا; Prefecture of Casablanca; Casablanca-Settat; 20180; Morocco,hotel,cameraforensics
http://static.panoramio.com/photos/original/123344056.jpg,33.59611388888889,-7.67796111111111,,,,,,Morocco,Miami; Boulevard de la Corniche; Aïn Diab; Anfa ⴰⵏⴼⴰ أنفا; Casablanca; arrondissement d'Anfa مقاطعة أنفا; Pachalik de Casablanca; Prefecture of Casablanca; Casablanca-Settat; 20052; Morocco,hotel,cameraforensics
http://static.panoramio.com/photos/original/35999185.jpg,33.596396666666664,-7.674925,,,,,,Morocco,Luigi; Boulevard de la Corniche; Aïn Diab; Anfa ⴰⵏⴼⴰ أنفا; Casablanca; arrondissement d'Anfa مقاطعة أنفا; Pachalik de Casablanca; Prefecture of Casablanca; Casablanca-Settat; 20052; Morocco,hotel,cameraforensics
https://r-cf.bstatic.com/images/hotel/max1280x900/523/52304777.jpg,33.6010776,-7.66035408,,,,,,Morocco,Le Relais de Paris; Avenue Mohamed Habib Sinaceur; Anfa ⴰⵏⴼⴰ أنفا; Casablanca; arrondissement d'Anfa مقاطعة أنفا; Pachalik de Casablanca; Prefecture of Casablanca; Casablanca-Settat; 20054; Morocco,hotel,cameraforensics
https://q-cf.bstatic.com/images/hotel/max1280x900/523/52306094.jpg,33.6010776,-7.66035408,,,,,,Morocco,Le Relais de Paris; Avenue Mohamed Habib Sinaceur; Anfa ⴰⵏⴼⴰ أنفا; Casablanca; arrondissement d'Anfa مقاطعة أنفا; Pachalik de Casablanca; Prefecture of Casablanca; Casablanca-Settat; 20054; Morocco,hotel,cameraforensics
https://q-cf.bstatic.com/images/hotel/max1280x900/523/52304254.jpg,33.6010776,-7.66035408,,,,,,Morocco,Le Relais de Paris; Avenue Mohamed Habib Sinaceur; Anfa ⴰⵏⴼⴰ أنفا; Casablanca; arrondissement d'Anfa مقاطعة أنفا; Pachalik de Casablanca; Prefecture of Casablanca; Casablanca-Settat; 20054; Morocco,hotel,cameraforensics
https://live.staticflickr.com/5496/9053051740_ecbfe85592_o.jpg,33.5995,-7.66566666666667,,,,,,Morocco,Little Barton's; Boulevard de la Corniche; Anfa ⴰⵏⴼⴰ أنفا; Casablanca; arrondissement d'Anfa مقاطعة أنفا; Pachalik de Casablanca; Prefecture of Casablanca; Casablanca-Settat; 20054; Morocco,hotel,cameraforensics
https://r-cf.bstatic.com/images/hotel/max1280x900/675/67590645.jpg,33.599142900000004,-7.66354859,,,,,,Morocco,Anfaplace; Boulevard de la Corniche; Anfa ⴰⵏⴼⴰ أنفا; Casablanca; arrondissement d'Anfa مقاطعة أنفا; préfecture d'arrondissements de Casablanca-Anfa عمالة مقاطعات الدار البيضاء أنفا; Prefecture of Casablanca; Casablanca-Settat; Morocco,hotel,cameraforensics
https://q-cf.bstatic.com/images/hotel/max1280x900/189/189158284.jpg,33.59839671,-7.66569436,,,,,,Morocco,McKinsey & Company; Boulevard de la Corniche; Anfa ⴰⵏⴼⴰ أنفا; Casablanca; arrondissement d'Anfa مقاطعة أنفا; préfecture d'arrondissements de Casablanca-Anfa عمالة مقاطعات الدار البيضاء أنفا; Prefecture of Casablanca; Casablanca-Settat; 20180; Morocco,hotel,cameraforensics
https://live.staticflickr.com/4427/37308920692_970720e3d2_o.jpg,33.60624444444444,-7.656088888888887,,,,,,Morocco,Boulevard de la Corniche; Anfa ⴰⵏⴼⴰ أنفا; Casablanca; arrondissement d'Anfa مقاطعة أنفا; préfecture d'arrondissements de Casablanca-Anfa عمالة مقاطعات الدار البيضاء أنفا; Prefecture of Casablanca; Casablanca-Settat; 20054; Morocco,hotel,cameraforensics
https://q-cf.bstatic.com/images/hotel/max1280x900/790/79018490.jpg,33.59779573,-7.66631126,,,,,,Morocco,McKinsey & Company; Boulevard de la Corniche; Anfa ⴰⵏⴼⴰ أنفا; Casablanca; arrondissement d'Anfa مقاطعة أنفا; préfecture d'arrondissements de Casablanca-Anfa عمالة مقاطعات الدار البيضاء أنفا; Prefecture of Casablanca; Casablanca-Settat; 20180; Morocco,hotel,cameraforensics
https://r-cf.bstatic.com/images/hotel/max1280x900/126/126657196.jpg,33.59373535,-7.63508509,,,,,,Morocco,Pomme de Pain Ziraoui; Boulevard Ziraoui; Sidi Belyout; Casablanca; arrondissement de Sidi Belyout مقاطعة سيدي بليوط; Pachalik de Casablanca; Prefecture of Casablanca; Casablanca-Settat; 20053; Morocco,hotel,cameraforensics
http://static.panoramio.com/photos/original/126311621.jpg,33.593486999999996,-7.6375850000000005,,,,,,Morocco,Boulevard Mohamed Zerktouni; Casablanca; arrondissement d'Anfa مقاطعة أنفا; préfecture d'arrondissements de Casablanca-Anfa عمالة مقاطعات الدار البيضاء أنفا; Prefecture of Casablanca; Casablanca-Settat; 20053; Morocco,hotel,cameraforensics
https://r-cf.bstatic.com/images/hotel/max1280x900/166/166761341.jpg,33.5965616,-7.6397777,,,,,,Morocco,Rue El Hajeb; Casablanca; arrondissement d'Anfa مقاطعة أنفا; préfecture d'arrondissements de Casablanca-Anfa عمالة مقاطعات الدار البيضاء أنفا; Prefecture of Casablanca; Casablanca-Settat; 10011; Morocco,hotel,cameraforensics
https://live.staticflickr.com/979/41500370744_c40777286e_o.jpg,33.59409722222222,-7.67713055555556,,,,,,Morocco,LV LOUNGE CASABLANCA; 4; Rue de la Mer Jaune; Aïn Diab; Anfa ⴰⵏⴼⴰ أنفا; Casablanca; arrondissement d'Anfa مقاطعة أنفا; préfecture d'arrondissements de Casablanca-Anfa عمالة مقاطعات الدار البيضاء أنفا; Prefecture of Casablanca; Casablanca-Settat; 20052; Morocco,hotel,cameraforensics
https://live.staticflickr.com/65535/48550142627_2abe892e53_o.jpg,33.58692222222222,-7.6803305555555585,,,,,,Morocco,Ain Diab Plage; Boulevard de la Grande Ceinture; Carrières Schneider; Anfa ⴰⵏⴼⴰ أنفا; Casablanca; arrondissement d'Anfa مقاطعة أنفا; Pachalik de Casablanca; Prefecture of Casablanca; Casablanca-Settat; 20052; Morocco,hotel,cameraforensics
http://static.panoramio.com/photos/original/127601731.jpg,33.590903999999995,-7.679972,,,,,,Morocco,Sijilmassa سجلماسة; Boulevard de l'Ocean Atlantique; Aïn Diab; Anfa ⴰⵏⴼⴰ أنفا; Casablanca; arrondissement d'Anfa مقاطعة أنفا; Pachalik de Casablanca; Prefecture of Casablanca; Casablanca-Settat; 20052; Morocco,hotel,cameraforensics
https://q-cf.bstatic.com/images/hotel/max1280x900/685/68583784.jpg,33.59144388,-7.67893106,,,,,,Morocco,Aïn Diab; Anfa ⴰⵏⴼⴰ أنفا; Casablanca; arrondissement d'Anfa مقاطعة أنفا; préfecture d'arrondissements de Casablanca-Anfa عمالة مقاطعات الدار البيضاء أنفا; Prefecture of Casablanca; Casablanca-Settat; 20052; Morocco,hotel,cameraforensics
https://q-cf.bstatic.com/images/hotel/max1280x900/172/172244228.jpg,33.595667999999996,-7.631985,,,,,,Morocco,Boulevard Ziraoui; Sidi Belyout; Casablanca; arrondissement de Sidi Belyout مقاطعة سيدي بليوط; préfecture d'arrondissements de Casablanca-Anfa عمالة مقاطعات الدار البيضاء أنفا; Prefecture of Casablanca; Casablanca-Settat; 20053; Morocco,hotel,cameraforensics
https://live.staticflickr.com/7281/16021234503_e4dc2b247f_o.jpg,31.62070833333333,-7.99816666666667,,,,,,Morocco,Jardins de La Mamounia; Boulevard El Yarmouk; Medina; Marrakesh; arrondissement de Marrakech-Medina مراكش المدينة; Pachalik de Marrakech; Préfecture de Marrakech عمالة مراكش; Marrakech-Safi; 40 000; Morocco,hotel,cameraforensics
https://live.staticflickr.com/376/18776903828_1efe9042c7_o.jpg,31.61983055555556,-7.994769444444442,,,,,,Morocco,40; Derb Sidi M'Barek; Medina; Marrakesh; arrondissement de Marrakech-Medina مراكش المدينة; Pachalik de Marrakech; Préfecture de Marrakech عمالة مراكش; Marrakech-Safi; 40 000; Morocco,hotel,cameraforensics
https://live.staticflickr.com/2141/13167539324_c5631fc68a_o.jpg,31.62191111111111,-7.99784166666667,,,,,,Morocco,Mamounia; Avenue Houman El Fetouaki; Medina; Marrakesh; arrondissement de Marrakech-Medina مراكش المدينة; Pachalik de Marrakech; Préfecture de Marrakech عمالة مراكش; Marrakech-Safi; 40 000; Morocco,hotel,cameraforensics
http://static.panoramio.com/photos/original/100799561.jpg,31.62746666666667,-7.99639666666667,,,,,,Morocco,Ensemble Artisanal; Boulevard Mohammed V شارع محمد الخامس; El Hara; Medina; Marrakesh; arrondissement de Marrakech-Medina مراكش المدينة; Pachalik de Marrakech; Préfecture de Marrakech عمالة مراكش; Marrakech-Safi; 40 000; Morocco,hotel,cameraforensics
https://live.staticflickr.com/7058/6817826910_0d72dfe537_o.jpg,31.62666666666667,-7.9955,,,,,,Morocco,Ensemble Artisanal; Boulevard Mohammed V شارع محمد الخامس; El Hara; Medina; Marrakesh; arrondissement de Marrakech-Medina مراكش المدينة; Pachalik de Marrakech; Préfecture de Marrakech عمالة مراكش; Marrakech-Safi; 40 000; Morocco,hotel,cameraforensics
https://live.staticflickr.com/7355/8720390140_61a75316db_o.jpg,31.624000000000002,-7.99383333333333,,,,,,Morocco,Koutoubia Mosque; Rue Koutoubia; Mechouar Kasbah; Medina; Marrakesh; arrondissement de Marrakech-Medina مراكش المدينة; Pachalik de Marrakech; Préfecture de Marrakech عمالة مراكش; Marrakech-Safi; 40000; Morocco,hotel,cameraforensics
https://live.staticflickr.com/4422/36827640512_a157f360f4_o.jpg,33.59163888888889,-7.6248416666666685,,,,,,Morocco,parking gratuit; Rue d'Alger; Sidi Belyout; Casablanca; arrondissement de Sidi Belyout مقاطعة سيدي بليوط; préfecture d'arrondissements de Casablanca-Anfa عمالة مقاطعات الدار البيضاء أنفا; Prefecture of Casablanca; Casablanca-Settat; 20070; Morocco,hotel,cameraforensics
https://live.staticflickr.com/8403/8706151852_504cbf9a8f_o.jpg,33.59516666666666,-7.6278333333333315,,,,,,Morocco,BMCI البنك المغربي للتجارة والصناعة; Boulevard d'Anfa; Sidi Belyout; Casablanca; arrondissement de Sidi Belyout مقاطعة سيدي بليوط; Pachalik de Casablanca; Prefecture of Casablanca; Casablanca-Settat; 20070; Morocco,hotel,cameraforensics
https://q-cf.bstatic.com/images/hotel/max1280x900/137/137712327.jpg,33.5951058,-7.62741387,,,,,,Morocco,Société Générale سوسيتيه جنرال; Boulevard d'Anfa; Sidi Belyout; Casablanca; arrondissement de Sidi Belyout مقاطعة سيدي بليوط; Pachalik de Casablanca; Prefecture of Casablanca; Casablanca-Settat; 20070; Morocco,hotel,cameraforensics
https://r-cf.bstatic.com/images/hotel/max1280x900/678/67898656.jpg,31.62925201,-8.00819421,,,,,,Morocco,Patron de la mer; Rue Cadi El Makhzine; Guéliz ⴳⵉⵍⵉⵣ گليز; Marrakesh; arrondissement de Guéliz كليز; Pachalik de Marrakech; Préfecture de Marrakech عمالة مراكش; Marrakech-Safi; 4000; Morocco,hotel,cameraforensics
https://r-cf.bstatic.com/images/hotel/max1280x900/826/82647289.jpg,31.62070277,-8.01870632,,,,,,Morocco,Four Seasons; Avenue de la Menara; Guéliz ⴳⵉⵍⵉⵣ گليز; Marrakesh; arrondissement de Guéliz كليز; Pachalik de Marrakech; Préfecture de Marrakech عمالة مراكش; Marrakech-Safi; 40020; Morocco,hotel,cameraforensics
https://live.staticflickr.com/1594/24839464560_faf49f7d42_o.jpg,31.572391666666668,-7.985686111111113,,,,,,Morocco,Tassoultante; caïdat de Tasoultante; cercle de Saada; Préfecture de Marrakech عمالة مراكش; Marrakech-Safi; 41000; Morocco,hotel,cameraforensics
https://r-cf.bstatic.com/images/hotel/max1280x900/932/93210982.jpg,31.586112300000003,-7.98480749,,,,,,Morocco,Hotel Kasbah Le Mirage Marrakeche; Rue Oqba Ben Nafaa; Zone Touristique de l'Agdal ⵜⴰⵎⵏⴰⴹⵜ ⵜⴰⵎⴰⵍⵍⴰⵢⴰⵏⵜ ⵏ ⵓⴳⴷⴰⵍ; Mechouar Kasbah; caïdat de Tasoultante; Pachalik de Méchouar Kasba; Préfecture de Marrakech عمالة مراكش; Marrakech-Safi; 40035; Morocco,hotel,cameraforensics
https://live.staticflickr.com/3741/32838955233_e89d07d116_o.jpg,31.57861166666667,-7.984166666666669,,,,,,Morocco,Kenzy Club Agdal Medina; Rue Oqba Ben Nafaa; Zone Touristique de l'Agdal ⵜⴰⵎⵏⴰⴹⵜ ⵜⴰⵎⴰⵍⵍⴰⵢⴰⵏⵜ ⵏ ⵓⴳⴷⴰⵍ; Tassoultante; caïdat de Tasoultante; cercle de Saada; Préfecture de Marrakech عمالة مراكش; Marrakech-Safi; 40035; Morocco,hotel,cameraforensics
https://live.staticflickr.com/2881/33523247271_b08fd8fd3b_o.jpg,31.57861166666667,-7.984166666666669,,,,,,Morocco,Kenzy Club Agdal Medina; Rue Oqba Ben Nafaa; Zone Touristique de l'Agdal ⵜⴰⵎⵏⴰⴹⵜ ⵜⴰⵎⴰⵍⵍⴰⵢⴰⵏⵜ ⵏ ⵓⴳⴷⴰⵍ; Tassoultante; caïdat de Tasoultante; cercle de Saada; Préfecture de Marrakech عمالة مراكش; Marrakech-Safi; 40035; Morocco,hotel,cameraforensics
https://live.staticflickr.com/8294/29202993533_04f298bb01_o.jpg,31.57831944444445,-7.9860638888888875,,,,,,Morocco,Kenzy Club Agdal Medina; Rue Oqba Ben Nafaa; Zone Touristique de l'Agdal ⵜⴰⵎⵏⴰⴹⵜ ⵜⴰⵎⴰⵍⵍⴰⵢⴰⵏⵜ ⵏ ⵓⴳⴷⴰⵍ; Tassoultante; caïdat de Tasoultante; cercle de Saada; Préfecture de Marrakech عمالة مراكش; Marrakech-Safi; 40035; Morocco,hotel,cameraforensics
https://live.staticflickr.com/3629/3502383088_31de2b70c3_o.jpg,31.58083333333333,-7.98233333333333,,,,,,Morocco,Circuit Moulay Al Hassan; Rue Oqba Ben Nafaa; Zone Touristique de l'Agdal ⵜⴰⵎⵏⴰⴹⵜ ⵜⴰⵎⴰⵍⵍⴰⵢⴰⵏⵜ ⵏ ⵓⴳⴷⴰⵍ; Mechouar Kasbah; caïdat de Tasoultante; Pachalik de Méchouar Kasba; Préfecture de Marrakech عمالة مراكش; Marrakech-Safi; 40035; Morocco,hotel,cameraforensics
https://r-cf.bstatic.com/images/hotel/max1280x900/223/223976457.jpg,31.572765000000004,-7.980337,,,,,,Morocco,Marrakesh; arrondissement de Sidi Youssef Ben Ali سيدي يوسف بن علي; caïdat de Tasoultante; Pachalik de Marrakech; Préfecture de Marrakech عمالة مراكش; Marrakech-Safi; 41000; Morocco,hotel,cameraforensics
https://q-cf.bstatic.com/images/hotel/max1280x900/931/93109499.jpg,31.58435653,-7.98516538,,,,,,Morocco,Boulevard Mohammed VI شارع محمد السادس; Agdal; Zone Touristique de l'Agdal ⵜⴰⵎⵏⴰⴹⵜ ⵜⴰⵎⴰⵍⵍⴰⵢⴰⵏⵜ ⵏ ⵓⴳⴷⴰⵍ; Mechouar Kasbah; caïdat de Tasoultante; Pachalik de Méchouar Kasba; Préfecture de Marrakech عمالة مراكش; Marrakech-Safi; 40 000; Morocco,hotel,cameraforensics
https://q-cf.bstatic.com/images/hotel/max1280x900/197/197304833.jpg,31.57599045,-7.98225133,,,,,,Morocco,Tassoultante; caïdat de Tasoultante; cercle de Saada; Préfecture de Marrakech عمالة مراكش; Marrakech-Safi; 41000; Morocco,hotel,cameraforensics
https://q-cf.bstatic.com/images/hotel/max1280x900/164/164348417.jpg,31.58435653,-7.98516538,,,,,,Morocco,Boulevard Mohammed VI شارع محمد السادس; Agdal; Zone Touristique de l'Agdal ⵜⴰⵎⵏⴰⴹⵜ ⵜⴰⵎⴰⵍⵍⴰⵢⴰⵏⵜ ⵏ ⵓⴳⴷⴰⵍ; Mechouar Kasbah; caïdat de Tasoultante; Pachalik de Méchouar Kasba; Préfecture de Marrakech عمالة مراكش; Marrakech-Safi; 40 000; Morocco,hotel,cameraforensics
https://live.staticflickr.com/7286/16379025832_6a04001f34_o.jpg,33.588091999999996,-7.62199883333333,,,,,,Morocco,Boulevard Moulay Youssef; Sidi Belyout; Casablanca; arrondissement de Sidi Belyout مقاطعة سيدي بليوط; Pachalik de Casablanca; Prefecture of Casablanca; Casablanca-Settat; 20070; Morocco,hotel,cameraforensics
https://r-cf.bstatic.com/images/hotel/max1280x900/755/7552244.jpg,33.58353413,-7.62355953,,,,,,Morocco,Rue Ali Ben Abi Taleb; Quartier Palmier; Sidi Belyout; Casablanca; arrondissement de Sidi Belyout مقاطعة سيدي بليوط; Pachalik de Casablanca; Prefecture of Casablanca; Casablanca-Settat; 20340; Morocco,hotel,cameraforensics
https://live.staticflickr.com/65535/49010625702_f0536cc690_o.jpg,33.58290447222222,-7.61565769444444,,,,,,Morocco,Eglise Notre Dame de Lourdes; Boulevard Mohamed Zerktouni; Casablanca; arrondissement d'El Maarif مقاطعة المعاريف; Pachalik de Casablanca; Prefecture of Casablanca; Casablanca-Settat; 20006; Morocco,hotel,cameraforensics
https://live.staticflickr.com/7058/6943994003_6e60f19654_o.jpg,33.59069722222223,-7.62510833333333,,,,,,Morocco,Consulat d'Espagne; Rue Curie; Sidi Belyout; Casablanca; arrondissement de Sidi Belyout مقاطعة سيدي بليوط; préfecture d'arrondissements de Casablanca-Anfa عمالة مقاطعات الدار البيضاء أنفا; Prefecture of Casablanca; Casablanca-Settat; 20070; Morocco,hotel,cameraforensics
https://q-cf.bstatic.com/images/hotel/max1280x900/197/197247508.jpg,33.58642663,-7.62149692,,,,,,Morocco,Sushi Kiosque; Rue Omar Slaoui; Quartier Palmier; Sidi Belyout; Casablanca; arrondissement de Sidi Belyout مقاطعة سيدي بليوط; Pachalik de Casablanca; Prefecture of Casablanca; Casablanca-Settat; 20032; Morocco,hotel,cameraforensics
https://r-cf.bstatic.com/images/hotel/max1280x900/168/168285011.jpg,33.585459,-7.623394,,,,,,Morocco,47; Rue Ibn Tofail زنقة ابن طفيل; Quartier Palmier; Sidi Belyout; Casablanca; arrondissement de Sidi Belyout مقاطعة سيدي بليوط; Pachalik de Casablanca; Prefecture of Casablanca; Casablanca-Settat; 20032; Morocco,hotel,cameraforensics
https://r-cf.bstatic.com/images/hotel/max1280x900/199/199552764.jpg,33.5872009,-7.6187224,,,,,,Morocco,Optique Optemetrie Miri; Rue Mostafa Al Maani; Quartier Palmier; Sidi Belyout; Casablanca; arrondissement de Sidi Belyout مقاطعة سيدي بليوط; Pachalik de Casablanca; Prefecture of Casablanca; Casablanca-Settat; 20500; Morocco,hotel,cameraforensics
https://live.staticflickr.com/817/41216567341_2b85cd521b_o.jpg,33.58281666666667,-7.6156916666666685,,,,,,Morocco,Eglise Notre Dame de Lourdes; Boulevard Mohamed Zerktouni; Casablanca; arrondissement d'El Maarif مقاطعة المعاريف; Pachalik de Casablanca; Prefecture of Casablanca; Casablanca-Settat; 20006; Morocco,hotel,cameraforensics
https://68.media.tumblr.com/b4aab193811f0419e99baabeb45c10c9/tumblr_onhsmpjEpK1uz3x65o1_1280.jpg,33.58651388888889,-7.619880555555558,,,,,,Morocco,11; Rue de Bar le Duc; Sidi Belyout; Casablanca; arrondissement de Sidi Belyout مقاطعة سيدي بليوط; Pachalik de Casablanca; Prefecture of Casablanca; Casablanca-Settat; 20032; Morocco,hotel,cameraforensics
https://q-cf.bstatic.com/images/hotel/max1280x900/142/142640642.jpg,29.77927775,-6.15715027,2020-01-05T12:07:26+0000,539.0,720.0,,,Morocco,M'Hamid El Ghizlane; caïdat de M'Hamid; cercle de Zagora; Zagora Province; Drâa-Tafilalet; Morocco,hotel,cameraforensics
https://q-cf.bstatic.com/images/hotel/max1280x900/337/33777550.jpg,29.85473,-6.2199519999999975,2019-12-24T01:03:28+0000,720.0,1280.0,,,Morocco,M'Hamid El Ghizlane; caïdat de M'Hamid; cercle de Zagora; Zagora Province; Drâa-Tafilalet; Morocco,hotel,cameraforensics
https://r-cf.bstatic.com/images/hotel/max1280x900/950/95067347.jpg,29.84184034,-6.14969105,2019-12-16T15:25:51+0000,853.0,1280.0,,,Morocco,M'Hamid El Ghizlane; caïdat de M'Hamid; cercle de Zagora; Zagora Province; Drâa-Tafilalet; Morocco,hotel,cameraforensics
https://r-cf.bstatic.com/images/hotel/max1280x900/176/176264351.jpg,29.85065177,-6.21245742,2019-12-16T13:49:41+0000,900.0,1200.0,,,Morocco,Erg Chegaga; M'Hamid El Ghizlane; caïdat de M'Hamid; cercle de Zagora; Zagora Province; Drâa-Tafilalet; Morocco,hotel,cameraforensics
https://q-cf.bstatic.com/images/hotel/max1280x900/163/163930823.jpg,29.85332688,-6.21684564,2020-04-10T19:17:44+0000,581.0,1032.0,,,Morocco,M'Hamid El Ghizlane; caïdat de M'Hamid; cercle de Zagora; Zagora Province; Drâa-Tafilalet; Morocco,hotel,cameraforensics
https://r-cf.bstatic.com/images/hotel/max1280x900/229/229573478.jpg,29.86433664,-6.23617861,2020-07-07T17:57:33+0000,761.0,1280.0,,,Morocco,Camp; M'Hamid El Ghizlane; caïdat de M'Hamid; cercle de Zagora; Zagora Province; Drâa-Tafilalet; Morocco,hotel,cameraforensics
https://q-cf.bstatic.com/images/hotel/max1280x900/239/23948377.jpg,29.81502960000001,-6.01776123,2020-03-08T07:08:24+0000,900.0,1200.0,,,Morocco,M'Hamid El Ghizlane; caïdat de M'Hamid; cercle de Zagora; Zagora Province; Drâa-Tafilalet; Morocco,hotel,cameraforensics
https://q-cf.bstatic.com/images/hotel/max1280x900/165/165613053.jpg,29.85332688,-6.21684564,2020-04-10T19:17:45+0000,900.0,1200.0,,,Morocco,M'Hamid El Ghizlane; caïdat de M'Hamid; cercle de Zagora; Zagora Province; Drâa-Tafilalet; Morocco,hotel,cameraforensics
https://r-cf.bstatic.com/images/hotel/max1280x900/239/23949028.jpg,29.81502960000001,-6.01776123,2020-03-13T15:24:01+0000,900.0,1200.0,,,Morocco,M'Hamid El Ghizlane; caïdat de M'Hamid; cercle de Zagora; Zagora Province; Drâa-Tafilalet; Morocco,hotel,cameraforensics
https://q-cf.bstatic.com/images/hotel/max1280x900/131/131640933.jpg,29.85473,-6.2199519999999975,2020-02-27T22:57:13+0000,900.0,456.0,,,Morocco,M'Hamid El Ghizlane; caïdat de M'Hamid; cercle de Zagora; Zagora Province; Drâa-Tafilalet; Morocco,hotel,cameraforensics
https://q-cf.bstatic.com/images/hotel/max1280x900/194/194904457.jpg,29.85065177,-6.21245742,2019-11-18T10:42:46+0000,900.0,598.0,,,Morocco,Erg Chegaga; M'Hamid El Ghizlane; caïdat de M'Hamid; cercle de Zagora; Zagora Province; Drâa-Tafilalet; Morocco,hotel,cameraforensics
https://q-cf.bstatic.com/images/hotel/max1280x900/726/72697936.jpg,29.81502960000001,-6.01776123,2020-06-18T01:47:06+0000,900.0,1200.0,,,Morocco,M'Hamid El Ghizlane; caïdat de M'Hamid; cercle de Zagora; Zagora Province; Drâa-Tafilalet; Morocco,hotel,cameraforensics
https://q-cf.bstatic.com/images/hotel/max1280x900/163/163947403.jpg,29.85332688,-6.21684564,2020-07-30T23:28:19+0000,540.0,720.0,,,Morocco,M'Hamid El Ghizlane; caïdat de M'Hamid; cercle de Zagora; Zagora Province; Drâa-Tafilalet; Morocco,hotel,cameraforensics
https://r-cf.bstatic.com/images/hotel/max1280x900/164/164100837.jpg,29.85332688,-6.21684564,2020-05-08T03:46:37+0000,581.0,1032.0,,,Morocco,M'Hamid El Ghizlane; caïdat de M'Hamid; cercle de Zagora; Zagora Province; Drâa-Tafilalet; Morocco,hotel,cameraforensics
https://r-cf.bstatic.com/images/hotel/max1280x900/180/180727420.jpg,29.83046381,-6.20418549,2019-09-28T07:13:26+0000,900.0,1200.0,,,Morocco,M'Hamid El Ghizlane; caïdat de M'Hamid; cercle de Zagora; Zagora Province; Drâa-Tafilalet; Morocco,hotel,cameraforensics
https://r-cf.bstatic.com/images/hotel/max1280x900/599/59993762.jpg,29.85473,-6.2199519999999975,2020-02-02T09:11:26+0000,900.0,1200.0,,,Morocco,M'Hamid El Ghizlane; caïdat de M'Hamid; cercle de Zagora; Zagora Province; Drâa-Tafilalet; Morocco,hotel,cameraforensics
https://r-cf.bstatic.com/images/hotel/max1280x900/950/95067323.jpg,29.84184034,-6.14969105,2019-11-21T07:23:23+0000,900.0,636.0,,,Morocco,M'Hamid El Ghizlane; caïdat de M'Hamid; cercle de Zagora; Zagora Province; Drâa-Tafilalet; Morocco,hotel,cameraforensics
https://q-cf.bstatic.com/images/hotel/max1280x900/176/176255194.jpg,29.85065177,-6.21245742,2019-11-18T10:42:44+0000,900.0,1200.0,,,Morocco,Erg Chegaga; M'Hamid El Ghizlane; caïdat de M'Hamid; cercle de Zagora; Zagora Province; Drâa-Tafilalet; Morocco,hotel,cameraforensics
https://r-cf.bstatic.com/images/hotel/max1280x900/194/194904372.jpg,29.85065177,-6.21245742,2019-11-20T23:42:25+0000,900.0,1200.0,,,Morocco,Erg Chegaga; M'Hamid El Ghizlane; caïdat de M'Hamid; cercle de Zagora; Zagora Province; Drâa-Tafilalet; Morocco,hotel,cameraforensics
https://r-cf.bstatic.com/images/hotel/max1280x900/165/165209061.jpg,29.83046381,-6.20418549,2019-09-28T07:13:27+0000,450.0,337.0,,,Morocco,M'Hamid El Ghizlane; caïdat de M'Hamid; cercle de Zagora; Zagora Province; Drâa-Tafilalet; Morocco,hotel,cameraforensics
https://r-cf.bstatic.com/images/hotel/max1280x900/179/179075587.jpg,29.77927775,-6.15715027,2019-12-15T21:10:01+0000,900.0,1200.0,,,Morocco,M'Hamid El Ghizlane; caïdat de M'Hamid; cercle de Zagora; Zagora Province; Drâa-Tafilalet; Morocco,hotel,cameraforensics
https://r-cf.bstatic.com/images/hotel/max1280x900/164/164100817.jpg,29.85332688,-6.21684564,2020-06-28T10:53:33+0000,774.0,1032.0,,,Morocco,M'Hamid El Ghizlane; caïdat de M'Hamid; cercle de Zagora; Zagora Province; Drâa-Tafilalet; Morocco,hotel,cameraforensics
https://r-cf.bstatic.com/images/hotel/max1280x900/171/171381419.jpg,29.85332688,-6.21684564,2020-09-13T00:08:21+0000,900.0,675.0,,,Morocco,M'Hamid El Ghizlane; caïdat de M'Hamid; cercle de Zagora; Zagora Province; Drâa-Tafilalet; Morocco,hotel,cameraforensics
https://r-cf.bstatic.com/images/hotel/max1280x900/239/23949075.jpg,29.81502960000001,-6.01776123,2020-07-22T20:39:34+0000,900.0,1200.0,,,Morocco,M'Hamid El Ghizlane; caïdat de M'Hamid; cercle de Zagora; Zagora Province; Drâa-Tafilalet; Morocco,hotel,cameraforensics
https://r-cf.bstatic.com/images/hotel/max1280x900/118/118743168.jpg,29.81502960000001,-6.01776123,2020-07-22T20:39:33+0000,900.0,1200.0,,,Morocco,M'Hamid El Ghizlane; caïdat de M'Hamid; cercle de Zagora; Zagora Province; Drâa-Tafilalet; Morocco,hotel,cameraforensics
https://q-cf.bstatic.com/images/hotel/max1280x900/165/165209084.jpg,29.83046381,-6.20418549,2019-09-14T15:07:13+0000,412.0,550.0,,,Morocco,M'Hamid El Ghizlane; caïdat de M'Hamid; cercle de Zagora; Zagora Province; Drâa-Tafilalet; Morocco,hotel,cameraforensics
https://r-cf.bstatic.com/images/hotel/max1280x900/950/95067303.jpg,29.84184034,-6.14969105,2019-12-12T19:01:42+0000,864.0,1280.0,,,Morocco,M'Hamid El Ghizlane; caïdat de M'Hamid; cercle de Zagora; Zagora Province; Drâa-Tafilalet; Morocco,hotel,cameraforensics
https://q-cf.bstatic.com/images/hotel/max1280x900/180/180750149.jpg,29.81502960000001,-6.01776123,2020-05-01T21:01:53+0000,900.0,1195.0,,,Morocco,M'Hamid El Ghizlane; caïdat de M'Hamid; cercle de Zagora; Zagora Province; Drâa-Tafilalet; Morocco,hotel,cameraforensics
https://q-cf.bstatic.com/images/hotel/max1280x900/171/171381417.jpg,29.85332688,-6.21684564,2020-08-20T03:35:36+0000,900.0,1200.0,,,Morocco,M'Hamid El Ghizlane; caïdat de M'Hamid; cercle de Zagora; Zagora Province; Drâa-Tafilalet; Morocco,hotel,cameraforensics
https://r-cf.bstatic.com/images/hotel/max1280x900/165/165218272.jpg,29.83046381,-6.20418549,2019-10-04T11:59:02+0000,720.0,1280.0,,,Morocco,M'Hamid El Ghizlane; caïdat de M'Hamid; cercle de Zagora; Zagora Province; Drâa-Tafilalet; Morocco,hotel,cameraforensics
https://r-cf.bstatic.com/images/hotel/max1280x900/177/177338315.jpg,29.81502960000001,-6.01776123,2020-05-18T22:40:04+0000,771.0,1280.0,,,Morocco,M'Hamid El Ghizlane; caïdat de M'Hamid; cercle de Zagora; Zagora Province; Drâa-Tafilalet; Morocco,hotel,cameraforensics
https://r-cf.bstatic.com/images/hotel/max1280x900/229/229667019.jpg,29.86433664,-6.23617861,2020-08-01T14:02:43+0000,683.0,1024.0,,,Morocco,Camp; M'Hamid El Ghizlane; caïdat de M'Hamid; cercle de Zagora; Zagora Province; Drâa-Tafilalet; Morocco,hotel,cameraforensics
https://r-cf.bstatic.com/images/hotel/max1280x900/163/163930830.jpg,29.85332688,-6.21684564,2020-04-21T18:37:36+0000,320.0,480.0,,,Morocco,M'Hamid El Ghizlane; caïdat de M'Hamid; cercle de Zagora; Zagora Province; Drâa-Tafilalet; Morocco,hotel,cameraforensics
https://r-cf.bstatic.com/images/hotel/max1280x900/194/194892142.jpg,29.85065177,-6.21245742,2019-12-01T07:16:55+0000,900.0,1200.0,,,Morocco,Erg Chegaga; M'Hamid El Ghizlane; caïdat de M'Hamid; cercle de Zagora; Zagora Province; Drâa-Tafilalet; Morocco,hotel,cameraforensics
https://q-cf.bstatic.com/images/hotel/max1280x900/163/163649730.jpg,29.85332688,-6.21684564,2020-05-04T21:52:28+0000,900.0,1200.0,,,Morocco,M'Hamid El Ghizlane; caïdat de M'Hamid; cercle de Zagora; Zagora Province; Drâa-Tafilalet; Morocco,hotel,cameraforensics
https://q-cf.bstatic.com/images/hotel/max1280x900/599/59993620.jpg,29.85473,-6.2199519999999975,2020-01-19T12:18:39+0000,900.0,1200.0,,,Morocco,M'Hamid El Ghizlane; caïdat de M'Hamid; cercle de Zagora; Zagora Province; Drâa-Tafilalet; Morocco,hotel,cameraforensics
https://q-cf.bstatic.com/images/hotel/max1280x900/950/95068906.jpg,29.84184034,-6.14969105,2019-10-23T04:07:58+0000,850.0,1280.0,,,Morocco,M'Hamid El Ghizlane; caïdat de M'Hamid; cercle de Zagora; Zagora Province; Drâa-Tafilalet; Morocco,hotel,cameraforensics
https://q-cf.bstatic.com/images/hotel/max1280x900/194/194897524.jpg,29.85065177,-6.21245742,2019-11-30T06:06:00+0000,900.0,1200.0,,,Morocco,Erg Chegaga; M'Hamid El Ghizlane; caïdat de M'Hamid; cercle de Zagora; Zagora Province; Drâa-Tafilalet; Morocco,hotel,cameraforensics
https://r-cf.bstatic.com/images/hotel/max1280x900/180/180727167.jpg,29.83046381,-6.20418549,2019-10-02T22:35:51+0000,900.0,1200.0,,,Morocco,M'Hamid El Ghizlane; caïdat de M'Hamid; cercle de Zagora; Zagora Province; Drâa-Tafilalet; Morocco,hotel,cameraforensics
https://r-cf.bstatic.com/images/hotel/max1280x900/165/165209078.jpg,29.83046381,-6.20418549,2019-10-03T14:51:40+0000,413.0,550.0,,,Morocco,M'Hamid El Ghizlane; caïdat de M'Hamid; cercle de Zagora; Zagora Province; Drâa-Tafilalet; Morocco,hotel,cameraforensics
https://q-cf.bstatic.com/images/hotel/max1280x900/599/59993697.jpg,29.85473,-6.2199519999999975,2019-10-26T19:05:05+0000,900.0,1200.0,,,Morocco,M'Hamid El Ghizlane; caïdat de M'Hamid; cercle de Zagora; Zagora Province; Drâa-Tafilalet; Morocco,hotel,cameraforensics
https://q-cf.bstatic.com/images/hotel/max1280x900/890/89052191.jpg,29.85065177,-6.21245742,2019-11-14T02:58:57+0000,900.0,1200.0,,,Morocco,Erg Chegaga; M'Hamid El Ghizlane; caïdat de M'Hamid; cercle de Zagora; Zagora Province; Drâa-Tafilalet; Morocco,hotel,cameraforensics
https://q-cf.bstatic.com/images/hotel/max1280x900/304/30448859.jpg,29.85473,-6.2199519999999975,2019-12-08T09:19:15+0000,853.0,1280.0,,,Morocco,M'Hamid El Ghizlane; caïdat de M'Hamid; cercle de Zagora; Zagora Province; Drâa-Tafilalet; Morocco,hotel,cameraforensics
https://r-cf.bstatic.com/images/hotel/max1280x900/169/169272662.jpg,29.77927775,-6.15715027,2019-12-18T05:00:53+0000,900.0,1200.0,,,Morocco,M'Hamid El Ghizlane; caïdat de M'Hamid; cercle de Zagora; Zagora Province; Drâa-Tafilalet; Morocco,hotel,cameraforensics
https://r-cf.bstatic.com/images/hotel/max1280x900/722/72286244.jpg,29.81502960000001,-6.01776123,2020-08-22T03:41:14+0000,900.0,1200.0,,,Morocco,M'Hamid El Ghizlane; caïdat de M'Hamid; cercle de Zagora; Zagora Province; Drâa-Tafilalet; Morocco,hotel,cameraforensics
https://r-cf.bstatic.com/images/hotel/max1280x900/180/180727165.jpg,29.83046381,-6.20418549,2019-09-18T03:43:04+0000,413.0,550.0,,,Morocco,M'Hamid El Ghizlane; caïdat de M'Hamid; cercle de Zagora; Zagora Province; Drâa-Tafilalet; Morocco,hotel,cameraforensics
https://q-cf.bstatic.com/images/hotel/max1280x900/229/229667071.jpg,29.86433664,-6.23617861,2020-11-29T02:12:15+0000,852.0,1280.0,,,Morocco,Camp; M'Hamid El Ghizlane; caïdat de M'Hamid; cercle de Zagora; Zagora Province; Drâa-Tafilalet; Morocco,hotel,cameraforensics
https://q-cf.bstatic.com/images/hotel/max1280x900/194/194897802.jpg,29.85065177,-6.21245742,2020-01-07T22:20:38+0000,900.0,1200.0,,,Morocco,Erg Chegaga; M'Hamid El Ghizlane; caïdat de M'Hamid; cercle de Zagora; Zagora Province; Drâa-Tafilalet; Morocco,hotel,cameraforensics
https://q-cf.bstatic.com/images/hotel/max1280x900/163/163947389.jpg,29.85332688,-6.21684564,2020-07-26T19:05:34+0000,478.0,640.0,,,Morocco,M'Hamid El Ghizlane; caïdat de M'Hamid; cercle de Zagora; Zagora Province; Drâa-Tafilalet; Morocco,hotel,cameraforensics
https://q-cf.bstatic.com/images/hotel/max1280x900/176/176260230.jpg,29.85065177,-6.21245742,2019-12-12T21:30:43+0000,900.0,1200.0,,,Morocco,Erg Chegaga; M'Hamid El Ghizlane; caïdat de M'Hamid; cercle de Zagora; Zagora Province; Drâa-Tafilalet; Morocco,hotel,cameraforensics
https://q-cf.bstatic.com/images/hotel/max1280x900/165/165218283.jpg,29.83046381,-6.20418549,2019-09-17T23:33:53+0000,533.0,800.0,,,Morocco,M'Hamid El Ghizlane; caïdat de M'Hamid; cercle de Zagora; Zagora Province; Drâa-Tafilalet; Morocco,hotel,cameraforensics
https://q-cf.bstatic.com/images/hotel/max1280x900/134/134214182.jpg,29.77927775,-6.15715027,2020-01-08T16:53:17+0000,900.0,602.0,,,Morocco,M'Hamid El Ghizlane; caïdat de M'Hamid; cercle de Zagora; Zagora Province; Drâa-Tafilalet; Morocco,hotel,cameraforensics
https://r-cf.bstatic.com/images/hotel/max1280x900/203/203355389.jpg,29.77927775,-6.15715027,2020-01-10T15:43:36+0000,416.0,720.0,,,Morocco,M'Hamid El Ghizlane; caïdat de M'Hamid; cercle de Zagora; Zagora Province; Drâa-Tafilalet; Morocco,hotel,cameraforensics
https://q-cf.bstatic.com/images/hotel/max1280x900/165/165613059.jpg,29.85332688,-6.21684564,2020-10-09T10:09:37+0000,900.0,1200.0,,,Morocco,M'Hamid El Ghizlane; caïdat de M'Hamid; cercle de Zagora; Zagora Province; Drâa-Tafilalet; Morocco,hotel,cameraforensics
https://r-cf.bstatic.com/images/hotel/max1280x900/599/59993694.jpg,29.85473,-6.2199519999999975,2020-03-16T07:11:43+0000,900.0,1200.0,,,Morocco,M'Hamid El Ghizlane; caïdat de M'Hamid; cercle de Zagora; Zagora Province; Drâa-Tafilalet; Morocco,hotel,cameraforensics
https://q-cf.bstatic.com/images/hotel/max1280x900/135/135785433.jpg,29.77927775,-6.15715027,2019-12-13T01:33:04+0000,477.0,720.0,,,Morocco,M'Hamid El Ghizlane; caïdat de M'Hamid; cercle de Zagora; Zagora Province; Drâa-Tafilalet; Morocco,hotel,cameraforensics
https://q-cf.bstatic.com/images/hotel/max1280x900/118/118743160.jpg,29.81502960000001,-6.01776123,2020-06-25T09:50:00+0000,900.0,1200.0,,,Morocco,M'Hamid El Ghizlane; caïdat de M'Hamid; cercle de Zagora; Zagora Province; Drâa-Tafilalet; Morocco,hotel,cameraforensics
https://q-cf.bstatic.com/images/hotel/max1280x900/180/180727185.jpg,29.83046381,-6.20418549,2019-09-19T21:29:52+0000,774.0,1032.0,,,Morocco,M'Hamid El Ghizlane; caïdat de M'Hamid; cercle de Zagora; Zagora Province; Drâa-Tafilalet; Morocco,hotel,cameraforensics
https://q-cf.bstatic.com/images/hotel/max1280x900/598/59869292.jpg,29.85473,-6.2199519999999975,2020-02-11T05:18:17+0000,900.0,1200.0,,,Morocco,M'Hamid El Ghizlane; caïdat de M'Hamid; cercle de Zagora; Zagora Province; Drâa-Tafilalet; Morocco,hotel,cameraforensics
https://r-cf.bstatic.com/images/hotel/max1280x900/176/176255190.jpg,29.85065177,-6.21245742,2020-01-10T05:05:08+0000,900.0,1200.0,,,Morocco,Erg Chegaga; M'Hamid El Ghizlane; caïdat de M'Hamid; cercle de Zagora; Zagora Province; Drâa-Tafilalet; Morocco,hotel,cameraforensics
https://r-cf.bstatic.com/images/hotel/max1280x900/176/176271146.jpg,29.85065177,-6.21245742,2019-11-22T23:10:49+0000,900.0,675.0,,,Morocco,Erg Chegaga; M'Hamid El Ghizlane; caïdat de M'Hamid; cercle de Zagora; Zagora Province; Drâa-Tafilalet; Morocco,hotel,cameraforensics
https://r-cf.bstatic.com/images/hotel/max1280x900/176/176260239.jpg,29.85065177,-6.21245742,2019-11-14T05:38:21+0000,900.0,1200.0,,,Morocco,Erg Chegaga; M'Hamid El Ghizlane; caïdat de M'Hamid; cercle de Zagora; Zagora Province; Drâa-Tafilalet; Morocco,hotel,cameraforensics
https://q-cf.bstatic.com/images/hotel/max1280x900/229/229689046.jpg,29.86433664,-6.23617861,2020-12-23T06:46:47+0000,780.0,1040.0,,,Morocco,Camp; M'Hamid El Ghizlane; caïdat de M'Hamid; cercle de Zagora; Zagora Province; Drâa-Tafilalet; Morocco,hotel,cameraforensics
https://q-cf.bstatic.com/images/hotel/max1280x900/950/95067318.jpg,29.84184034,-6.14969105,2019-11-18T08:12:11+0000,838.0,1280.0,,,Morocco,M'Hamid El Ghizlane; caïdat de M'Hamid; cercle de Zagora; Zagora Province; Drâa-Tafilalet; Morocco,hotel,cameraforensics
https://r-cf.bstatic.com/images/hotel/max1280x900/172/172497685.jpg,29.85332688,-6.21684564,2020-07-23T18:28:49+0000,900.0,1200.0,,,Morocco,M'Hamid El Ghizlane; caïdat de M'Hamid; cercle de Zagora; Zagora Province; Drâa-Tafilalet; Morocco,hotel,cameraforensics
https://r-cf.bstatic.com/images/hotel/max1280x900/176/176255188.jpg,29.85065177,-6.21245742,2019-11-14T05:38:20+0000,900.0,1200.0,,,Morocco,Erg Chegaga; M'Hamid El Ghizlane; caïdat de M'Hamid; cercle de Zagora; Zagora Province; Drâa-Tafilalet; Morocco,hotel,cameraforensics
https://r-cf.bstatic.com/images/hotel/max1280x900/165/165613048.jpg,29.85332688,-6.21684564,2020-05-26T11:24:00+0000,900.0,1200.0,,,Morocco,M'Hamid El Ghizlane; caïdat de M'Hamid; cercle de Zagora; Zagora Province; Drâa-Tafilalet; Morocco,hotel,cameraforensics
https://q-cf.bstatic.com/images/hotel/max1280x900/229/229665723.jpg,29.86433664,-6.23617861,2020-09-29T03:29:31+0000,853.0,1280.0,,,Morocco,Camp; M'Hamid El Ghizlane; caïdat de M'Hamid; cercle de Zagora; Zagora Province; Drâa-Tafilalet; Morocco,hotel,cameraforensics
https://r-cf.bstatic.com/images/hotel/max1280x900/337/33777568.jpg,29.85473,-6.2199519999999975,2020-01-04T08:32:37+0000,720.0,1280.0,,,Morocco,M'Hamid El Ghizlane; caïdat de M'Hamid; cercle de Zagora; Zagora Province; Drâa-Tafilalet; Morocco,hotel,cameraforensics
https://r-cf.bstatic.com/images/hotel/max1280x900/599/59993662.jpg,29.85473,-6.2199519999999975,2020-01-23T19:15:35+0000,900.0,1200.0,,,Morocco,M'Hamid El Ghizlane; caïdat de M'Hamid; cercle de Zagora; Zagora Province; Drâa-Tafilalet; Morocco,hotel,cameraforensics
https://r-cf.bstatic.com/images/hotel/max1280x900/185/185410489.jpg,29.77927775,-6.15715027,2019-12-14T18:26:47+0000,480.0,720.0,,,Morocco,M'Hamid El Ghizlane; caïdat de M'Hamid; cercle de Zagora; Zagora Province; Drâa-Tafilalet; Morocco,hotel,cameraforensics
https://q-cf.bstatic.com/images/hotel/max1280x900/992/99278620.jpg,29.83046381,-6.20418549,2019-09-17T08:29:24+0000,854.0,1280.0,,,Morocco,M'Hamid El Ghizlane; caïdat de M'Hamid; cercle de Zagora; Zagora Province; Drâa-Tafilalet; Morocco,hotel,cameraforensics
https://q-cf.bstatic.com/images/hotel/max1280x900/163/163649718.jpg,29.85332688,-6.21684564,2020-08-02T22:02:36+0000,864.0,864.0,,,Morocco,M'Hamid El Ghizlane; caïdat de M'Hamid; cercle de Zagora; Zagora Province; Drâa-Tafilalet; Morocco,hotel,cameraforensics
https://r-cf.bstatic.com/images/hotel/max1280x900/164/164100824.jpg,29.85332688,-6.21684564,2020-08-20T15:12:19+0000,581.0,1032.0,,,Morocco,M'Hamid El Ghizlane; caïdat de M'Hamid; cercle de Zagora; Zagora Province; Drâa-Tafilalet; Morocco,hotel,cameraforensics
https://r-cf.bstatic.com/images/hotel/max1280x900/337/33777565.jpg,29.85473,-6.2199519999999975,2020-02-15T13:13:29+0000,720.0,1280.0,,,Morocco,M'Hamid El Ghizlane; caïdat de M'Hamid; cercle de Zagora; Zagora Province; Drâa-Tafilalet; Morocco,hotel,cameraforensics
https://r-cf.bstatic.com/images/hotel/max1280x900/172/172497654.jpg,29.85332688,-6.21684564,2020-08-20T15:12:34+0000,360.0,360.0,,,Morocco,M'Hamid El Ghizlane; caïdat de M'Hamid; cercle de Zagora; Zagora Province; Drâa-Tafilalet; Morocco,hotel,cameraforensics
https://q-cf.bstatic.com/images/hotel/max1280x900/169/169272726.jpg,29.77927775,-6.15715027,2019-12-23T22:29:20+0000,900.0,900.0,,,Morocco,M'Hamid El Ghizlane; caïdat de M'Hamid; cercle de Zagora; Zagora Province; Drâa-Tafilalet; Morocco,hotel,cameraforensics
https://q-cf.bstatic.com/images/hotel/max1280x900/229/229665480.jpg,29.86433664,-6.23617861,2020-12-08T12:54:01+0000,853.0,1280.0,,,Morocco,Camp; M'Hamid El Ghizlane; caïdat de M'Hamid; cercle de Zagora; Zagora Province; Drâa-Tafilalet; Morocco,hotel,cameraforensics
https://q-cf.bstatic.com/images/hotel/max1280x900/194/194899564.jpg,29.85065177,-6.21245742,2019-12-14T07:14:27+0000,900.0,1200.0,,,Morocco,Erg Chegaga; M'Hamid El Ghizlane; caïdat de M'Hamid; cercle de Zagora; Zagora Province; Drâa-Tafilalet; Morocco,hotel,cameraforensics
https://q-cf.bstatic.com/images/hotel/max1280x900/992/99278883.jpg,29.83046381,-6.20418549,2019-09-17T03:08:12+0000,855.0,1280.0,,,Morocco,M'Hamid El Ghizlane; caïdat de M'Hamid; cercle de Zagora; Zagora Province; Drâa-Tafilalet; Morocco,hotel,cameraforensics
https://q-cf.bstatic.com/images/hotel/max1280x900/197/197521195.jpg,29.77927775,-6.15715027,2019-12-14T09:27:22+0000,900.0,675.0,,,Morocco,M'Hamid El Ghizlane; caïdat de M'Hamid; cercle de Zagora; Zagora Province; Drâa-Tafilalet; Morocco,hotel,cameraforensics
https://q-cf.bstatic.com/images/hotel/max1280x900/163/163930814.jpg,29.85332688,-6.21684564,2020-12-03T11:44:55+0000,900.0,1200.0,,,Morocco,M'Hamid El Ghizlane; caïdat de M'Hamid; cercle de Zagora; Zagora Province; Drâa-Tafilalet; Morocco,hotel,cameraforensics
https://q-cf.bstatic.com/images/hotel/max1280x900/135/135785509.jpg,29.77927775,-6.15715027,2019-12-30T20:05:29+0000,480.0,720.0,,,Morocco,M'Hamid El Ghizlane; caïdat de M'Hamid; cercle de Zagora; Zagora Province; Drâa-Tafilalet; Morocco,hotel,cameraforensics
https://q-cf.bstatic.com/images/hotel/max1280x900/141/141803722.jpg,29.77927775,-6.15715027,2019-10-23T02:33:51+0000,864.0,1152.0,,,Morocco,M'Hamid El Ghizlane; caïdat de M'Hamid; cercle de Zagora; Zagora Province; Drâa-Tafilalet; Morocco,hotel,cameraforensics
https://q-cf.bstatic.com/images/hotel/max1280x900/202/202880479.jpg,29.77927775,-6.15715027,2019-10-23T02:42:43+0000,480.0,480.0,,,Morocco,M'Hamid El Ghizlane; caïdat de M'Hamid; cercle de Zagora; Zagora Province; Drâa-Tafilalet; Morocco,hotel,cameraforensics
https://r-cf.bstatic.com/images/hotel/max1280x900/163/163649715.jpg,29.85332688,-6.21684564,2020-07-29T08:53:03+0000,774.0,1032.0,,,Morocco,M'Hamid El Ghizlane; caïdat de M'Hamid; cercle de Zagora; Zagora Province; Drâa-Tafilalet; Morocco,hotel,cameraforensics
https://r-cf.bstatic.com/images/hotel/max1280x900/131/131641640.jpg,29.85473,-6.2199519999999975,2020-02-14T11:19:18+0000,900.0,675.0,,,Morocco,M'Hamid El Ghizlane; caïdat de M'Hamid; cercle de Zagora; Zagora Province; Drâa-Tafilalet; Morocco,hotel,cameraforensics
https://q-cf.bstatic.com/images/hotel/max1280x900/992/99278885.jpg,29.83046381,-6.20418549,2019-09-18T10:53:32+0000,855.0,1280.0,,,Morocco,M'Hamid El Ghizlane; caïdat de M'Hamid; cercle de Zagora; Zagora Province; Drâa-Tafilalet; Morocco,hotel,cameraforensics
https://q-cf.bstatic.com/images/hotel/max1280x900/194/194897797.jpg,29.85065177,-6.21245742,2019-12-16T03:52:04+0000,900.0,1200.0,,,Morocco,Erg Chegaga; M'Hamid El Ghizlane; caïdat de M'Hamid; cercle de Zagora; Zagora Province; Drâa-Tafilalet; Morocco,hotel,cameraforensics
https://r-cf.bstatic.com/images/hotel/max1280x900/599/59993497.jpg,29.85473,-6.2199519999999975,2019-12-28T10:45:51+0000,900.0,675.0,,,Morocco,M'Hamid El Ghizlane; caïdat de M'Hamid; cercle de Zagora; Zagora Province; Drâa-Tafilalet; Morocco,hotel,cameraforensics
https://q-cf.bstatic.com/images/hotel/max1280x900/138/138766459.jpg,29.77927775,-6.15715027,2019-10-17T13:03:46+0000,853.0,1280.0,,,Morocco,M'Hamid El Ghizlane; caïdat de M'Hamid; cercle de Zagora; Zagora Province; Drâa-Tafilalet; Morocco,hotel,cameraforensics
https://r-cf.bstatic.com/images/hotel/max1280x900/165/165209074.jpg,29.83046381,-6.20418549,2019-09-11T00:25:21+0000,900.0,675.0,,,Morocco,M'Hamid El Ghizlane; caïdat de M'Hamid; cercle de Zagora; Zagora Province; Drâa-Tafilalet; Morocco,hotel,cameraforensics
https://r-cf.bstatic.com/images/hotel/max1280x900/176/176258338.jpg,29.85065177,-6.21245742,2020-01-05T20:36:55+0000,900.0,1200.0,,,Morocco,Erg Chegaga; M'Hamid El Ghizlane; caïdat de M'Hamid; cercle de Zagora; Zagora Province; Drâa-Tafilalet; Morocco,hotel,cameraforensics
https://r-cf.bstatic.com/images/hotel/max1280x900/174/174327889.jpg,29.77927775,-6.15715027,2020-01-06T16:37:32+0000,900.0,1200.0,,,Morocco,M'Hamid El Ghizlane; caïdat de M'Hamid; cercle de Zagora; Zagora Province; Drâa-Tafilalet; Morocco,hotel,cameraforensics
https://q-cf.bstatic.com/images/hotel/max1280x900/184/184374652.jpg,29.85065177,-6.21245742,2020-01-05T00:58:29+0000,900.0,1200.0,,,Morocco,Erg Chegaga; M'Hamid El Ghizlane; caïdat de M'Hamid; cercle de Zagora; Zagora Province; Drâa-Tafilalet; Morocco,hotel,cameraforensics
https://q-cf.bstatic.com/images/hotel/max1280x900/151/151955831.jpg,29.77927775,-6.15715027,2020-01-05T05:14:40+0000,720.0,1069.0,,,Morocco,M'Hamid El Ghizlane; caïdat de M'Hamid; cercle de Zagora; Zagora Province; Drâa-Tafilalet; Morocco,hotel,cameraforensics
https://r-cf.bstatic.com/images/hotel/max1280x900/950/95067336.jpg,29.84184034,-6.14969105,2020-01-06T11:01:49+0000,818.0,1280.0,,,Morocco,M'Hamid El Ghizlane; caïdat de M'Hamid; cercle de Zagora; Zagora Province; Drâa-Tafilalet; Morocco,hotel,cameraforensics
https://q-cf.bstatic.com/images/hotel/max1280x900/992/99278629.jpg,29.83046381,-6.20418549,2019-09-11T00:02:44+0000,854.0,1280.0,,,Morocco,M'Hamid El Ghizlane; caïdat de M'Hamid; cercle de Zagora; Zagora Province; Drâa-Tafilalet; Morocco,hotel,cameraforensics
https://q-cf.bstatic.com/images/hotel/max1280x900/180/180727179.jpg,29.83046381,-6.20418549,2019-09-11T00:03:26+0000,900.0,1176.0,,,Morocco,M'Hamid El Ghizlane; caïdat de M'Hamid; cercle de Zagora; Zagora Province; Drâa-Tafilalet; Morocco,hotel,cameraforensics
https://q-cf.bstatic.com/images/hotel/max1280x900/182/182708331.jpg,29.77927775,-6.15715027,2019-10-17T13:13:44+0000,900.0,1200.0,,,Morocco,M'Hamid El Ghizlane; caïdat de M'Hamid; cercle de Zagora; Zagora Province; Drâa-Tafilalet; Morocco,hotel,cameraforensics
https://q-cf.bstatic.com/images/hotel/max1280x900/163/163930821.jpg,29.85332688,-6.21684564,2020-04-10T19:17:43+0000,581.0,1032.0,,,Morocco,M'Hamid El Ghizlane; caïdat de M'Hamid; cercle de Zagora; Zagora Province; Drâa-Tafilalet; Morocco,hotel,cameraforensics
https://r-cf.bstatic.com/images/hotel/max1280x900/180/180777221.jpg,29.85065177,-6.21245742,2020-01-06T09:12:52+0000,900.0,1200.0,,,Morocco,Erg Chegaga; M'Hamid El Ghizlane; caïdat de M'Hamid; cercle de Zagora; Zagora Province; Drâa-Tafilalet; Morocco,hotel,cameraforensics
https://q-cf.bstatic.com/images/hotel/max1280x900/172/172497692.jpg,29.85332688,-6.21684564,2020-08-01T18:01:05+0000,640.0,640.0,,,Morocco,M'Hamid El Ghizlane; caïdat de M'Hamid; cercle de Zagora; Zagora Province; Drâa-Tafilalet; Morocco,hotel,cameraforensics
https://q-cf.bstatic.com/images/hotel/max1280x900/599/59993737.jpg,29.85473,-6.2199519999999975,2020-02-27T22:57:26+0000,900.0,1200.0,,,Morocco,M'Hamid El Ghizlane; caïdat de M'Hamid; cercle de Zagora; Zagora Province; Drâa-Tafilalet; Morocco,hotel,cameraforensics
https://q-cf.bstatic.com/images/hotel/max1280x900/182/182973891.jpg,29.77927775,-6.15715027,2020-01-05T13:07:23+0000,900.0,675.0,,,Morocco,M'Hamid El Ghizlane; caïdat de M'Hamid; cercle de Zagora; Zagora Province; Drâa-Tafilalet; Morocco,hotel,cameraforensics
https://q-cf.bstatic.com/images/hotel/max1280x900/171/171381414.jpg,29.85332688,-6.21684564,2020-08-01T18:01:01+0000,774.0,1032.0,,,Morocco,M'Hamid El Ghizlane; caïdat de M'Hamid; cercle de Zagora; Zagora Province; Drâa-Tafilalet; Morocco,hotel,cameraforensics
https://r-cf.bstatic.com/images/hotel/max1280x900/134/134214184.jpg,29.77927775,-6.15715027,2019-11-30T06:54:46+0000,900.0,675.0,,,Morocco,M'Hamid El Ghizlane; caïdat de M'Hamid; cercle de Zagora; Zagora Province; Drâa-Tafilalet; Morocco,hotel,cameraforensics
https://q-cf.bstatic.com/images/hotel/max1280x900/337/33777552.jpg,29.85473,-6.2199519999999975,2019-10-28T01:42:15+0000,720.0,1280.0,,,Morocco,M'Hamid El Ghizlane; caïdat de M'Hamid; cercle de Zagora; Zagora Province; Drâa-Tafilalet; Morocco,hotel,cameraforensics
https://r-cf.bstatic.com/images/hotel/max1280x900/176/176889740.jpg,29.81502960000001,-6.01776123,2020-04-07T07:18:24+0000,900.0,1200.0,,,Morocco,M'Hamid El Ghizlane; caïdat de M'Hamid; cercle de Zagora; Zagora Province; Drâa-Tafilalet; Morocco,hotel,cameraforensics
https://r-cf.bstatic.com/images/hotel/max1280x900/134/134214198.jpg,29.77927775,-6.15715027,2019-11-30T07:04:14+0000,900.0,602.0,,,Morocco,M'Hamid El Ghizlane; caïdat de M'Hamid; cercle de Zagora; Zagora Province; Drâa-Tafilalet; Morocco,hotel,cameraforensics
https://q-cf.bstatic.com/images/hotel/max1280x900/134/134214177.jpg,29.77927775,-6.15715027,2019-11-19T16:28:52+0000,900.0,602.0,,,Morocco,M'Hamid El Ghizlane; caïdat de M'Hamid; cercle de Zagora; Zagora Province; Drâa-Tafilalet; Morocco,hotel,cameraforensics
https://r-cf.bstatic.com/images/hotel/max1280x900/194/194897548.jpg,29.85065177,-6.21245742,2019-11-20T23:42:23+0000,900.0,1200.0,,,Morocco,Erg Chegaga; M'Hamid El Ghizlane; caïdat de M'Hamid; cercle de Zagora; Zagora Province; Drâa-Tafilalet; Morocco,hotel,cameraforensics
https://q-cf.bstatic.com/images/hotel/max1280x900/142/142551292.jpg,29.77927775,-6.15715027,2019-11-19T16:28:54+0000,864.0,938.0,,,Morocco,M'Hamid El Ghizlane; caïdat de M'Hamid; cercle de Zagora; Zagora Province; Drâa-Tafilalet; Morocco,hotel,cameraforensics
https://r-cf.bstatic.com/images/hotel/max1280x900/599/59993526.jpg,29.85473,-6.2199519999999975,2019-10-28T09:45:36+0000,900.0,1200.0,,,Morocco,M'Hamid El Ghizlane; caïdat de M'Hamid; cercle de Zagora; Zagora Province; Drâa-Tafilalet; Morocco,hotel,cameraforensics
https://q-cf.bstatic.com/images/hotel/max1280x900/134/134216534.jpg,29.77927775,-6.15715027,2019-11-19T16:28:53+0000,900.0,900.0,,,Morocco,M'Hamid El Ghizlane; caïdat de M'Hamid; cercle de Zagora; Zagora Province; Drâa-Tafilalet; Morocco,hotel,cameraforensics
https://r-cf.bstatic.com/images/hotel/max1280x900/180/180728490.jpg,29.83046381,-6.20418549,2019-09-28T07:13:25+0000,768.0,576.0,,,Morocco,M'Hamid El Ghizlane; caïdat de M'Hamid; cercle de Zagora; Zagora Province; Drâa-Tafilalet; Morocco,hotel,cameraforensics
https://q-cf.bstatic.com/images/hotel/max1280x900/177/177337710.jpg,29.81502960000001,-6.01776123,2020-06-18T01:46:27+0000,720.0,1280.0,,,Morocco,M'Hamid El Ghizlane; caïdat de M'Hamid; cercle de Zagora; Zagora Province; Drâa-Tafilalet; Morocco,hotel,cameraforensics
https://r-cf.bstatic.com/images/hotel/max1280x900/165/165209056.jpg,29.83046381,-6.20418549,2019-09-28T07:13:47+0000,360.0,480.0,,,Morocco,M'Hamid El Ghizlane; caïdat de M'Hamid; cercle de Zagora; Zagora Province; Drâa-Tafilalet; Morocco,hotel,cameraforensics
https://q-cf.bstatic.com/images/hotel/max1280x900/180/180727169.jpg,29.83046381,-6.20418549,2019-09-11T00:02:45+0000,900.0,1200.0,,,Morocco,M'Hamid El Ghizlane; caïdat de M'Hamid; cercle de Zagora; Zagora Province; Drâa-Tafilalet; Morocco,hotel,cameraforensics
https://q-cf.bstatic.com/images/hotel/max1280x900/599/59993667.jpg,29.85473,-6.2199519999999975,2020-02-05T15:43:59+0000,900.0,1200.0,,,Morocco,M'Hamid El Ghizlane; caïdat de M'Hamid; cercle de Zagora; Zagora Province; Drâa-Tafilalet; Morocco,hotel,cameraforensics
https://q-cf.bstatic.com/images/hotel/max1280x900/148/148423418.jpg,29.77927775,-6.15715027,2019-11-24T04:19:35+0000,720.0,1280.0,,,Morocco,M'Hamid El Ghizlane; caïdat de M'Hamid; cercle de Zagora; Zagora Province; Drâa-Tafilalet; Morocco,hotel,cameraforensics
https://r-cf.bstatic.com/images/hotel/max1280x900/950/95067355.jpg,29.84184034,-6.14969105,2019-12-09T18:01:48+0000,720.0,1280.0,,,Morocco,M'Hamid El Ghizlane; caïdat de M'Hamid; cercle de Zagora; Zagora Province; Drâa-Tafilalet; Morocco,hotel,cameraforensics
https://r-cf.bstatic.com/images/hotel/max1280x900/599/59993754.jpg,29.85473,-6.2199519999999975,2020-02-18T19:51:34+0000,900.0,1200.0,,,Morocco,M'Hamid El Ghizlane; caïdat de M'Hamid; cercle de Zagora; Zagora Province; Drâa-Tafilalet; Morocco,hotel,cameraforensics
https://r-cf.bstatic.com/images/hotel/max1280x900/194/194897543.jpg,29.85065177,-6.21245742,2019-12-08T03:28:43+0000,900.0,1200.0,,,Morocco,Erg Chegaga; M'Hamid El Ghizlane; caïdat de M'Hamid; cercle de Zagora; Zagora Province; Drâa-Tafilalet; Morocco,hotel,cameraforensics
https://q-cf.bstatic.com/images/hotel/max1280x900/164/164100842.jpg,29.85332688,-6.21684564,2020-08-20T03:35:22+0000,774.0,1032.0,,,Morocco,M'Hamid El Ghizlane; caïdat de M'Hamid; cercle de Zagora; Zagora Province; Drâa-Tafilalet; Morocco,hotel,cameraforensics
https://r-cf.bstatic.com/images/hotel/max1280x900/180/180728590.jpg,29.83046381,-6.20418549,2019-10-04T03:47:04+0000,533.0,800.0,,,Morocco,M'Hamid El Ghizlane; caïdat de M'Hamid; cercle de Zagora; Zagora Province; Drâa-Tafilalet; Morocco,hotel,cameraforensics
https://r-cf.bstatic.com/images/hotel/max1280x900/184/184072877.jpg,29.77927775,-6.15715027,2019-12-09T17:58:37+0000,900.0,900.0,,,Morocco,M'Hamid El Ghizlane; caïdat de M'Hamid; cercle de Zagora; Zagora Province; Drâa-Tafilalet; Morocco,hotel,cameraforensics
https://q-cf.bstatic.com/images/hotel/max1280x900/599/59993609.jpg,29.85473,-6.2199519999999975,2020-01-26T08:38:05+0000,900.0,1200.0,,,Morocco,M'Hamid El Ghizlane; caïdat de M'Hamid; cercle de Zagora; Zagora Province; Drâa-Tafilalet; Morocco,hotel,cameraforensics
https://q-cf.bstatic.com/images/hotel/max1280x900/200/20038285.jpg,29.81502960000001,-6.01776123,2020-06-16T21:37:11+0000,900.0,1200.0,,,Morocco,M'Hamid El Ghizlane; caïdat de M'Hamid; cercle de Zagora; Zagora Province; Drâa-Tafilalet; Morocco,hotel,cameraforensics
https://q-cf.bstatic.com/images/hotel/max1280x900/163/163930815.jpg,29.85332688,-6.21684564,2020-05-04T22:21:47+0000,581.0,1032.0,,,Morocco,M'Hamid El Ghizlane; caïdat de M'Hamid; cercle de Zagora; Zagora Province; Drâa-Tafilalet; Morocco,hotel,cameraforensics
https://q-cf.bstatic.com/images/hotel/max1280x900/180/180727173.jpg,29.83046381,-6.20418549,2019-09-11T00:03:34+0000,900.0,1200.0,,,Morocco,M'Hamid El Ghizlane; caïdat de M'Hamid; cercle de Zagora; Zagora Province; Drâa-Tafilalet; Morocco,hotel,cameraforensics
https://r-cf.bstatic.com/images/hotel/max1280x900/337/33777543.jpg,29.85473,-6.2199519999999975,2020-01-20T15:29:09+0000,800.0,1280.0,,,Morocco,M'Hamid El Ghizlane; caïdat de M'Hamid; cercle de Zagora; Zagora Province; Drâa-Tafilalet; Morocco,hotel,cameraforensics
https://r-cf.bstatic.com/images/hotel/max1280x900/180/180750314.jpg,29.81502960000001,-6.01776123,2020-06-21T01:32:24+0000,900.0,1200.0,,,Morocco,M'Hamid El Ghizlane; caïdat de M'Hamid; cercle de Zagora; Zagora Province; Drâa-Tafilalet; Morocco,hotel,cameraforensics
https://q-cf.bstatic.com/images/hotel/max1280x900/337/33777542.jpg,29.85473,-6.2199519999999975,2020-01-18T08:41:50+0000,720.0,1280.0,,,Morocco,M'Hamid El Ghizlane; caïdat de M'Hamid; cercle de Zagora; Zagora Province; Drâa-Tafilalet; Morocco,hotel,cameraforensics
https://r-cf.bstatic.com/images/hotel/max1280x900/164/164100849.jpg,29.85332688,-6.21684564,2020-08-03T05:13:47+0000,900.0,675.0,,,Morocco,M'Hamid El Ghizlane; caïdat de M'Hamid; cercle de Zagora; Zagora Province; Drâa-Tafilalet; Morocco,hotel,cameraforensics
https://r-cf.bstatic.com/images/hotel/max1280x900/200/20038012.jpg,29.81502960000001,-6.01776123,2020-03-28T16:38:17+0000,900.0,1200.0,,,Morocco,M'Hamid El Ghizlane; caïdat de M'Hamid; cercle de Zagora; Zagora Province; Drâa-Tafilalet; Morocco,hotel,cameraforensics
https://q-cf.bstatic.com/images/hotel/max1280x900/165/165613046.jpg,29.85332688,-6.21684564,2020-05-04T21:52:37+0000,900.0,675.0,,,Morocco,M'Hamid El Ghizlane; caïdat de M'Hamid; cercle de Zagora; Zagora Province; Drâa-Tafilalet; Morocco,hotel,cameraforensics
https://r-cf.bstatic.com/images/hotel/max1280x900/164/164320680.jpg,29.85332688,-6.21684564,2020-04-21T19:15:41+0000,774.0,1032.0,,,Morocco,M'Hamid El Ghizlane; caïdat de M'Hamid; cercle de Zagora; Zagora Province; Drâa-Tafilalet; Morocco,hotel,cameraforensics
https://q-cf.bstatic.com/images/hotel/max1280x900/992/99278766.jpg,29.83046381,-6.20418549,2019-09-16T11:23:40+0000,855.0,1280.0,,,Morocco,M'Hamid El Ghizlane; caïdat de M'Hamid; cercle de Zagora; Zagora Province; Drâa-Tafilalet; Morocco,hotel,cameraforensics
https://r-cf.bstatic.com/images/hotel/max1280x900/337/33777566.jpg,29.85473,-6.2199519999999975,2020-01-20T15:29:10+0000,720.0,1280.0,,,Morocco,M'Hamid El Ghizlane; caïdat de M'Hamid; cercle de Zagora; Zagora Province; Drâa-Tafilalet; Morocco,hotel,cameraforensics
https://r-cf.bstatic.com/images/hotel/max1280x900/992/99278820.jpg,29.83046381,-6.20418549,2019-09-16T11:25:14+0000,855.0,1280.0,,,Morocco,M'Hamid El Ghizlane; caïdat de M'Hamid; cercle de Zagora; Zagora Province; Drâa-Tafilalet; Morocco,hotel,cameraforensics
https://r-cf.bstatic.com/images/hotel/max1280x900/191/191654471.jpg,29.77927775,-6.15715027,2020-01-03T01:54:30+0000,900.0,720.0,,,Morocco,M'Hamid El Ghizlane; caïdat de M'Hamid; cercle de Zagora; Zagora Province; Drâa-Tafilalet; Morocco,hotel,cameraforensics
https://q-cf.bstatic.com/images/hotel/max1280x900/141/141803842.jpg,29.77927775,-6.15715027,2019-12-28T15:22:22+0000,864.0,1152.0,,,Morocco,M'Hamid El Ghizlane; caïdat de M'Hamid; cercle de Zagora; Zagora Province; Drâa-Tafilalet; Morocco,hotel,cameraforensics
https://q-cf.bstatic.com/images/hotel/max1280x900/239/23949651.jpg,29.81502960000001,-6.01776123,2020-06-21T04:11:30+0000,900.0,1200.0,,,Morocco,M'Hamid El Ghizlane; caïdat de M'Hamid; cercle de Zagora; Zagora Province; Drâa-Tafilalet; Morocco,hotel,cameraforensics
https://q-cf.bstatic.com/images/hotel/max1280x900/151/151956297.jpg,29.77927775,-6.15715027,2019-11-30T19:38:21+0000,900.0,1254.0,,,Morocco,M'Hamid El Ghizlane; caïdat de M'Hamid; cercle de Zagora; Zagora Province; Drâa-Tafilalet; Morocco,hotel,cameraforensics
https://r-cf.bstatic.com/images/hotel/max1280x900/337/33777563.jpg,29.85473,-6.2199519999999975,2020-03-06T18:09:53+0000,900.0,600.0,,,Morocco,M'Hamid El Ghizlane; caïdat de M'Hamid; cercle de Zagora; Zagora Province; Drâa-Tafilalet; Morocco,hotel,cameraforensics
https://r-cf.bstatic.com/images/hotel/max1280x900/992/99278634.jpg,29.83046381,-6.20418549,2019-09-26T08:43:33+0000,854.0,1280.0,,,Morocco,M'Hamid El Ghizlane; caïdat de M'Hamid; cercle de Zagora; Zagora Province; Drâa-Tafilalet; Morocco,hotel,cameraforensics
https://q-cf.bstatic.com/images/hotel/max1280x900/596/59620047.jpg,29.81502960000001,-6.01776123,2020-06-21T03:45:33+0000,853.0,1280.0,,,Morocco,M'Hamid El Ghizlane; caïdat de M'Hamid; cercle de Zagora; Zagora Province; Drâa-Tafilalet; Morocco,hotel,cameraforensics
https://r-cf.bstatic.com/images/hotel/max1280x900/194/194897816.jpg,29.85065177,-6.21245742,2020-01-02T12:18:18+0000,900.0,1200.0,,,Morocco,Erg Chegaga; M'Hamid El Ghizlane; caïdat de M'Hamid; cercle de Zagora; Zagora Province; Drâa-Tafilalet; Morocco,hotel,cameraforensics
https://r-cf.bstatic.com/images/hotel/max1280x900/177/177337277.jpg,29.81502960000001,-6.01776123,2020-07-07T11:01:36+0000,720.0,1280.0,,,Morocco,M'Hamid El Ghizlane; caïdat de M'Hamid; cercle de Zagora; Zagora Province; Drâa-Tafilalet; Morocco,hotel,cameraforensics
https://r-cf.bstatic.com/images/hotel/max1280x900/180/180750235.jpg,29.81502960000001,-6.01776123,2020-07-07T10:45:39+0000,900.0,900.0,,,Morocco,M'Hamid El Ghizlane; caïdat de M'Hamid; cercle de Zagora; Zagora Province; Drâa-Tafilalet; Morocco,hotel,cameraforensics
https://q-cf.bstatic.com/images/hotel/max1280x900/598/59869135.jpg,29.85473,-6.2199519999999975,2020-02-29T04:13:55+0000,900.0,1200.0,,,Morocco,M'Hamid El Ghizlane; caïdat de M'Hamid; cercle de Zagora; Zagora Province; Drâa-Tafilalet; Morocco,hotel,cameraforensics
https://r-cf.bstatic.com/images/hotel/max1280x900/180/180728259.jpg,29.83046381,-6.20418549,2019-10-02T07:23:05+0000,413.0,550.0,,,Morocco,M'Hamid El Ghizlane; caïdat de M'Hamid; cercle de Zagora; Zagora Province; Drâa-Tafilalet; Morocco,hotel,cameraforensics
https://r-cf.bstatic.com/images/hotel/max1280x900/163/163930819.jpg,29.85332688,-6.21684564,2020-08-01T12:37:58+0000,581.0,1032.0,,,Morocco,M'Hamid El Ghizlane; caïdat de M'Hamid; cercle de Zagora; Zagora Province; Drâa-Tafilalet; Morocco,hotel,cameraforensics
https://r-cf.bstatic.com/images/hotel/max1280x900/180/180728262.jpg,29.83046381,-6.20418549,2019-09-28T21:57:57+0000,640.0,960.0,,,Morocco,M'Hamid El Ghizlane; caïdat de M'Hamid; cercle de Zagora; Zagora Province; Drâa-Tafilalet; Morocco,hotel,cameraforensics
https://r-cf.bstatic.com/images/hotel/max1280x900/142/142640675.jpg,29.77927775,-6.15715027,2019-12-26T06:15:26+0000,480.0,720.0,,,Morocco,M'Hamid El Ghizlane; caïdat de M'Hamid; cercle de Zagora; Zagora Province; Drâa-Tafilalet; Morocco,hotel,cameraforensics
https://r-cf.bstatic.com/images/hotel/max1280x900/337/33777562.jpg,29.85473,-6.2199519999999975,2019-10-26T21:14:42+0000,853.0,1280.0,,,Morocco,M'Hamid El Ghizlane; caïdat de M'Hamid; cercle de Zagora; Zagora Province; Drâa-Tafilalet; Morocco,hotel,cameraforensics
https://q-cf.bstatic.com/images/hotel/max1280x900/229/229689014.jpg,29.86433664,-6.23617861,2020-08-14T01:01:02+0000,780.0,1040.0,,,Morocco,Camp; M'Hamid El Ghizlane; caïdat de M'Hamid; cercle de Zagora; Zagora Province; Drâa-Tafilalet; Morocco,hotel,cameraforensics
https://r-cf.bstatic.com/images/hotel/max1280x900/599/59993584.jpg,29.85473,-6.2199519999999975,2019-10-26T21:14:43+0000,900.0,1200.0,,,Morocco,M'Hamid El Ghizlane; caïdat de M'Hamid; cercle de Zagora; Zagora Province; Drâa-Tafilalet; Morocco,hotel,cameraforensics
https://q-cf.bstatic.com/images/hotel/max1280x900/194/194904453.jpg,29.85065177,-6.21245742,2019-11-14T02:58:56+0000,900.0,1200.0,,,Morocco,Erg Chegaga; M'Hamid El Ghizlane; caïdat de M'Hamid; cercle de Zagora; Zagora Province; Drâa-Tafilalet; Morocco,hotel,cameraforensics
https://q-cf.bstatic.com/images/hotel/max1280x900/229/229693693.jpg,29.86433664,-6.23617861,2020-08-14T01:21:18+0000,853.0,1280.0,,,Morocco,Camp; M'Hamid El Ghizlane; caïdat de M'Hamid; cercle de Zagora; Zagora Province; Drâa-Tafilalet; Morocco,hotel,cameraforensics
https://r-cf.bstatic.com/images/hotel/max1280x900/177/177338290.jpg,29.81502960000001,-6.01776123,2020-07-21T01:12:59+0000,727.0,1280.0,,,Morocco,M'Hamid El Ghizlane; caïdat de M'Hamid; cercle de Zagora; Zagora Province; Drâa-Tafilalet; Morocco,hotel,cameraforensics
https://r-cf.bstatic.com/images/hotel/max1280x900/165/165613060.jpg,29.85332688,-6.21684564,2020-08-24T21:36:35+0000,900.0,1200.0,,,Morocco,M'Hamid El Ghizlane; caïdat de M'Hamid; cercle de Zagora; Zagora Province; Drâa-Tafilalet; Morocco,hotel,cameraforensics
https://r-cf.bstatic.com/images/hotel/max1280x900/599/59993522.jpg,29.85473,-6.2199519999999975,2020-03-16T08:42:39+0000,900.0,1200.0,,,Morocco,M'Hamid El Ghizlane; caïdat de M'Hamid; cercle de Zagora; Zagora Province; Drâa-Tafilalet; Morocco,hotel,cameraforensics
https://r-cf.bstatic.com/images/hotel/max1280x900/165/165219880.jpg,29.83046381,-6.20418549,2019-09-18T03:44:15+0000,850.0,1280.0,,,Morocco,M'Hamid El Ghizlane; caïdat de M'Hamid; cercle de Zagora; Zagora Province; Drâa-Tafilalet; Morocco,hotel,cameraforensics
https://q-cf.bstatic.com/images/hotel/max1280x900/138/138766316.jpg,29.77927775,-6.15715027,2019-12-13T01:42:15+0000,853.0,1280.0,,,Morocco,M'Hamid El Ghizlane; caïdat de M'Hamid; cercle de Zagora; Zagora Province; Drâa-Tafilalet; Morocco,hotel,cameraforensics
https://r-cf.bstatic.com/images/hotel/max1280x900/194/194904397.jpg,29.85065177,-6.21245742,2019-12-16T05:34:16+0000,900.0,1200.0,,,Morocco,Erg Chegaga; M'Hamid El Ghizlane; caïdat de M'Hamid; cercle de Zagora; Zagora Province; Drâa-Tafilalet; Morocco,hotel,cameraforensics
https://r-cf.bstatic.com/images/hotel/max1280x900/180/180727199.jpg,29.83046381,-6.20418549,2019-10-03T15:13:17+0000,900.0,1200.0,,,Morocco,M'Hamid El Ghizlane; caïdat de M'Hamid; cercle de Zagora; Zagora Province; Drâa-Tafilalet; Morocco,hotel,cameraforensics
https://q-cf.bstatic.com/images/hotel/max1280x900/180/180750288.jpg,29.81502960000001,-6.01776123,2020-07-07T21:31:23+0000,900.0,900.0,,,Morocco,M'Hamid El Ghizlane; caïdat de M'Hamid; cercle de Zagora; Zagora Province; Drâa-Tafilalet; Morocco,hotel,cameraforensics
https://q-cf.bstatic.com/images/hotel/max1280x900/362/36267972.jpg,29.81502960000001,-6.01776123,2020-04-24T23:14:42+0000,900.0,1200.0,,,Morocco,M'Hamid El Ghizlane; caïdat de M'Hamid; cercle de Zagora; Zagora Province; Drâa-Tafilalet; Morocco,hotel,cameraforensics
https://r-cf.bstatic.com/images/hotel/max1280x900/138/138766237.jpg,29.77927775,-6.15715027,2019-11-14T08:38:21+0000,853.0,1280.0,,,Morocco,M'Hamid El Ghizlane; caïdat de M'Hamid; cercle de Zagora; Zagora Province; Drâa-Tafilalet; Morocco,hotel,cameraforensics
https://r-cf.bstatic.com/images/hotel/max1280x900/176/176271153.jpg,29.85065177,-6.21245742,2019-11-22T23:10:50+0000,900.0,675.0,,,Morocco,Erg Chegaga; M'Hamid El Ghizlane; caïdat de M'Hamid; cercle de Zagora; Zagora Province; Drâa-Tafilalet; Morocco,hotel,cameraforensics
https://r-cf.bstatic.com/images/hotel/max1280x900/194/194891466.jpg,29.85065177,-6.21245742,2019-11-22T23:10:51+0000,900.0,675.0,,,Morocco,Erg Chegaga; M'Hamid El Ghizlane; caïdat de M'Hamid; cercle de Zagora; Zagora Province; Drâa-Tafilalet; Morocco,hotel,cameraforensics
https://q-cf.bstatic.com/images/hotel/max1280x900/194/194904405.jpg,29.85065177,-6.21245742,2019-11-22T05:47:20+0000,900.0,1200.0,,,Morocco,Erg Chegaga; M'Hamid El Ghizlane; caïdat de M'Hamid; cercle de Zagora; Zagora Province; Drâa-Tafilalet; Morocco,hotel,cameraforensics
https://r-cf.bstatic.com/images/hotel/max1280x900/163/163649719.jpg,29.85332688,-6.21684564,2020-07-23T18:28:47+0000,852.0,1280.0,,,Morocco,M'Hamid El Ghizlane; caïdat de M'Hamid; cercle de Zagora; Zagora Province; Drâa-Tafilalet; Morocco,hotel,cameraforensics
https://r-cf.bstatic.com/images/hotel/max1280x900/599/59993527.jpg,29.85473,-6.2199519999999975,2020-01-23T19:15:34+0000,900.0,1200.0,,,Morocco,M'Hamid El Ghizlane; caïdat de M'Hamid; cercle de Zagora; Zagora Province; Drâa-Tafilalet; Morocco,hotel,cameraforensics
https://q-cf.bstatic.com/images/hotel/max1280x900/992/99278785.jpg,29.83046381,-6.20418549,2019-09-17T08:29:10+0000,900.0,601.0,,,Morocco,M'Hamid El Ghizlane; caïdat de M'Hamid; cercle de Zagora; Zagora Province; Drâa-Tafilalet; Morocco,hotel,cameraforensics
https://r-cf.bstatic.com/images/hotel/max1280x900/165/165209076.jpg,29.83046381,-6.20418549,2019-09-25T23:48:57+0000,801.0,1280.0,,,Morocco,M'Hamid El Ghizlane; caïdat de M'Hamid; cercle de Zagora; Zagora Province; Drâa-Tafilalet; Morocco,hotel,cameraforensics
https://q-cf.bstatic.com/images/hotel/max1280x900/165/165209082.jpg,29.83046381,-6.20418549,2019-09-17T03:07:54+0000,367.0,550.0,,,Morocco,M'Hamid El Ghizlane; caïdat de M'Hamid; cercle de Zagora; Zagora Province; Drâa-Tafilalet; Morocco,hotel,cameraforensics
https://r-cf.bstatic.com/images/hotel/max1280x900/163/163649710.jpg,29.85332688,-6.21684564,2020-05-30T20:19:34+0000,774.0,1032.0,,,Morocco,M'Hamid El Ghizlane; caïdat de M'Hamid; cercle de Zagora; Zagora Province; Drâa-Tafilalet; Morocco,hotel,cameraforensics
https://q-cf.bstatic.com/images/hotel/max1280x900/194/194904440.jpg,29.85065177,-6.21245742,2019-12-23T21:00:13+0000,900.0,1200.0,,,Morocco,Erg Chegaga; M'Hamid El Ghizlane; caïdat de M'Hamid; cercle de Zagora; Zagora Province; Drâa-Tafilalet; Morocco,hotel,cameraforensics
https://r-cf.bstatic.com/images/hotel/max1280x900/176/176264342.jpg,29.85065177,-6.21245742,2019-12-24T18:34:39+0000,900.0,1200.0,,,Morocco,Erg Chegaga; M'Hamid El Ghizlane; caïdat de M'Hamid; cercle de Zagora; Zagora Province; Drâa-Tafilalet; Morocco,hotel,cameraforensics
https://q-cf.bstatic.com/images/hotel/max1280x900/118/118743153.jpg,29.81502960000001,-6.01776123,2020-04-17T03:48:41+0000,900.0,1200.0,,,Morocco,M'Hamid El Ghizlane; caïdat de M'Hamid; cercle de Zagora; Zagora Province; Drâa-Tafilalet; Morocco,hotel,cameraforensics
https://r-cf.bstatic.com/images/hotel/max1280x900/165/165209064.jpg,29.83046381,-6.20418549,2019-10-02T07:17:51+0000,900.0,675.0,,,Morocco,M'Hamid El Ghizlane; caïdat de M'Hamid; cercle de Zagora; Zagora Province; Drâa-Tafilalet; Morocco,hotel,cameraforensics
https://r-cf.bstatic.com/images/hotel/max1280x900/950/95067331.jpg,29.84184034,-6.14969105,2020-01-04T17:31:44+0000,787.0,1280.0,,,Morocco,M'Hamid El Ghizlane; caïdat de M'Hamid; cercle de Zagora; Zagora Province; Drâa-Tafilalet; Morocco,hotel,cameraforensics
https://q-cf.bstatic.com/images/hotel/max1280x900/194/194904384.jpg,29.85065177,-6.21245742,2019-12-30T06:45:54+0000,900.0,675.0,,,Morocco,Erg Chegaga; M'Hamid El Ghizlane; caïdat de M'Hamid; cercle de Zagora; Zagora Province; Drâa-Tafilalet; Morocco,hotel,cameraforensics
https://q-cf.bstatic.com/images/hotel/max1280x900/165/165613056.jpg,29.85332688,-6.21684564,2020-12-03T11:44:57+0000,900.0,1200.0,,,Morocco,M'Hamid El Ghizlane; caïdat de M'Hamid; cercle de Zagora; Zagora Province; Drâa-Tafilalet; Morocco,hotel,cameraforensics
https://q-cf.bstatic.com/images/hotel/max1280x900/164/164202227.jpg,29.77927775,-6.15715027,2019-12-30T09:46:10+0000,900.0,1200.0,,,Morocco,M'Hamid El Ghizlane; caïdat de M'Hamid; cercle de Zagora; Zagora Province; Drâa-Tafilalet; Morocco,hotel,cameraforensics
https://q-cf.bstatic.com/images/hotel/max1280x900/163/163930328.jpg,29.85332688,-6.21684564,2020-12-03T11:44:54+0000,774.0,1032.0,,,Morocco,M'Hamid El Ghizlane; caïdat de M'Hamid; cercle de Zagora; Zagora Province; Drâa-Tafilalet; Morocco,hotel,cameraforensics
https://q-cf.bstatic.com/images/hotel/max1280x900/199/19908267.jpg,29.81502960000001,-6.01776123,2020-06-29T15:06:53+0000,853.0,1280.0,,,Morocco,M'Hamid El Ghizlane; caïdat de M'Hamid; cercle de Zagora; Zagora Province; Drâa-Tafilalet; Morocco,hotel,cameraforensics
https://r-cf.bstatic.com/images/hotel/max1280x900/599/59993724.jpg,29.85473,-6.2199519999999975,2019-12-28T10:45:52+0000,900.0,1200.0,,,Morocco,M'Hamid El Ghizlane; caïdat de M'Hamid; cercle de Zagora; Zagora Province; Drâa-Tafilalet; Morocco,hotel,cameraforensics
https://r-cf.bstatic.com/images/hotel/max1280x900/163/163649703.jpg,29.85332688,-6.21684564,2020-04-15T09:46:29+0000,864.0,864.0,,,Morocco,M'Hamid El Ghizlane; caïdat de M'Hamid; cercle de Zagora; Zagora Province; Drâa-Tafilalet; Morocco,hotel,cameraforensics
https://q-cf.bstatic.com/images/hotel/max1280x900/131/131643600.jpg,29.85473,-6.2199519999999975,2020-02-27T23:16:00+0000,900.0,850.0,,,Morocco,M'Hamid El Ghizlane; caïdat de M'Hamid; cercle de Zagora; Zagora Province; Drâa-Tafilalet; Morocco,hotel,cameraforensics
https://r-cf.bstatic.com/images/hotel/max1280x900/165/165218297.jpg,29.83046381,-6.20418549,2019-09-11T00:25:57+0000,533.0,800.0,,,Morocco,M'Hamid El Ghizlane; caïdat de M'Hamid; cercle de Zagora; Zagora Province; Drâa-Tafilalet; Morocco,hotel,cameraforensics
https://r-cf.bstatic.com/images/hotel/max1280x900/337/33777554.jpg,29.85473,-6.2199519999999975,2020-02-29T14:21:38+0000,853.0,1280.0,,,Morocco,M'Hamid El Ghizlane; caïdat de M'Hamid; cercle de Zagora; Zagora Province; Drâa-Tafilalet; Morocco,hotel,cameraforensics
https://r-cf.bstatic.com/images/hotel/max1280x900/163/163649713.jpg,29.85332688,-6.21684564,2020-08-13T10:17:44+0000,900.0,675.0,,,Morocco,M'Hamid El Ghizlane; caïdat de M'Hamid; cercle de Zagora; Zagora Province; Drâa-Tafilalet; Morocco,hotel,cameraforensics
https://q-cf.bstatic.com/images/hotel/max1280x900/172/172497681.jpg,29.85332688,-6.21684564,2020-07-30T23:28:22+0000,900.0,1200.0,,,Morocco,M'Hamid El Ghizlane; caïdat de M'Hamid; cercle de Zagora; Zagora Province; Drâa-Tafilalet; Morocco,hotel,cameraforensics
https://q-cf.bstatic.com/images/hotel/max1280x900/163/163649709.jpg,29.85332688,-6.21684564,2020-07-30T23:28:18+0000,864.0,864.0,,,Morocco,M'Hamid El Ghizlane; caïdat de M'Hamid; cercle de Zagora; Zagora Province; Drâa-Tafilalet; Morocco,hotel,cameraforensics
https://r-cf.bstatic.com/images/hotel/max1280x900/198/19862516.jpg,29.81502960000001,-6.01776123,2020-06-17T01:22:32+0000,900.0,1200.0,,,Morocco,M'Hamid El Ghizlane; caïdat de M'Hamid; cercle de Zagora; Zagora Province; Drâa-Tafilalet; Morocco,hotel,cameraforensics
https://r-cf.bstatic.com/images/hotel/max1280x900/887/88768136.jpg,29.81502960000001,-6.01776123,2020-06-17T01:22:44+0000,853.0,1280.0,,,Morocco,M'Hamid El Ghizlane; caïdat de M'Hamid; cercle de Zagora; Zagora Province; Drâa-Tafilalet; Morocco,hotel,cameraforensics
https://q-cf.bstatic.com/images/hotel/max1280x900/180/180727194.jpg,29.83046381,-6.20418549,2019-09-18T23:37:12+0000,368.0,550.0,,,Morocco,M'Hamid El Ghizlane; caïdat de M'Hamid; cercle de Zagora; Zagora Province; Drâa-Tafilalet; Morocco,hotel,cameraforensics
https://r-cf.bstatic.com/images/hotel/max1280x900/163/163649720.jpg,29.85332688,-6.21684564,2020-05-08T03:46:34+0000,900.0,675.0,,,Morocco,M'Hamid El Ghizlane; caïdat de M'Hamid; cercle de Zagora; Zagora Province; Drâa-Tafilalet; Morocco,hotel,cameraforensics
https://q-cf.bstatic.com/images/hotel/max1280x900/165/165613051.jpg,29.85332688,-6.21684564,2020-05-15T11:44:01+0000,900.0,1200.0,,,Morocco,M'Hamid El Ghizlane; caïdat de M'Hamid; cercle de Zagora; Zagora Province; Drâa-Tafilalet; Morocco,hotel,cameraforensics
https://q-cf.bstatic.com/images/hotel/max1280x900/176/176271158.jpg,29.85065177,-6.21245742,2019-11-18T10:42:45+0000,900.0,675.0,,,Morocco,Erg Chegaga; M'Hamid El Ghizlane; caïdat de M'Hamid; cercle de Zagora; Zagora Province; Drâa-Tafilalet; Morocco,hotel,cameraforensics
https://r-cf.bstatic.com/images/hotel/max1280x900/178/178412602.jpg,29.77927775,-6.15715027,2019-11-30T07:04:15+0000,600.0,800.0,,,Morocco,M'Hamid El Ghizlane; caïdat de M'Hamid; cercle de Zagora; Zagora Province; Drâa-Tafilalet; Morocco,hotel,cameraforensics
https://r-cf.bstatic.com/images/hotel/max1280x900/180/180728264.jpg,29.83046381,-6.20418549,2019-10-03T07:02:52+0000,683.0,1024.0,,,Morocco,M'Hamid El Ghizlane; caïdat de M'Hamid; cercle de Zagora; Zagora Province; Drâa-Tafilalet; Morocco,hotel,cameraforensics
https://q-cf.bstatic.com/images/hotel/max1280x900/239/23949644.jpg,29.81502960000001,-6.01776123,2020-07-07T01:45:42+0000,900.0,1200.0,,,Morocco,M'Hamid El Ghizlane; caïdat de M'Hamid; cercle de Zagora; Zagora Province; Drâa-Tafilalet; Morocco,hotel,cameraforensics
https://r-cf.bstatic.com/images/hotel/max1280x900/992/99278623.jpg,29.83046381,-6.20418549,2019-10-04T03:47:09+0000,855.0,1280.0,,,Morocco,M'Hamid El Ghizlane; caïdat de M'Hamid; cercle de Zagora; Zagora Province; Drâa-Tafilalet; Morocco,hotel,cameraforensics
https://q-cf.bstatic.com/images/hotel/max1280x900/165/165209059.jpg,29.83046381,-6.20418549,2019-09-11T00:02:50+0000,421.0,720.0,,,Morocco,M'Hamid El Ghizlane; caïdat de M'Hamid; cercle de Zagora; Zagora Province; Drâa-Tafilalet; Morocco,hotel,cameraforensics
https://r-cf.bstatic.com/images/hotel/max1280x900/337/33777564.jpg,29.85473,-6.2199519999999975,2020-02-18T19:51:04+0000,720.0,1280.0,,,Morocco,M'Hamid El Ghizlane; caïdat de M'Hamid; cercle de Zagora; Zagora Province; Drâa-Tafilalet; Morocco,hotel,cameraforensics
https://q-cf.bstatic.com/images/hotel/max1280x900/180/180728484.jpg,29.83046381,-6.20418549,2019-09-14T15:05:49+0000,412.0,550.0,,,Morocco,M'Hamid El Ghizlane; caïdat de M'Hamid; cercle de Zagora; Zagora Province; Drâa-Tafilalet; Morocco,hotel,cameraforensics
https://q-cf.bstatic.com/images/hotel/max1280x900/337/33777541.jpg,29.85473,-6.2199519999999975,2020-01-26T08:38:03+0000,720.0,1280.0,,,Morocco,M'Hamid El Ghizlane; caïdat de M'Hamid; cercle de Zagora; Zagora Province; Drâa-Tafilalet; Morocco,hotel,cameraforensics
https://q-cf.bstatic.com/images/hotel/max1280x900/596/59620102.jpg,29.81502960000001,-6.01776123,2020-05-01T18:48:05+0000,853.0,1280.0,,,Morocco,M'Hamid El Ghizlane; caïdat de M'Hamid; cercle de Zagora; Zagora Province; Drâa-Tafilalet; Morocco,hotel,cameraforensics
https://q-cf.bstatic.com/images/hotel/max1280x900/950/95068902.jpg,29.84184034,-6.14969105,2019-11-24T07:09:23+0000,850.0,1280.0,,,Morocco,M'Hamid El Ghizlane; caïdat de M'Hamid; cercle de Zagora; Zagora Province; Drâa-Tafilalet; Morocco,hotel,cameraforensics
https://q-cf.bstatic.com/images/hotel/max1280x900/165/165613054.jpg,29.85332688,-6.21684564,2020-08-20T03:35:35+0000,900.0,1200.0,,,Morocco,M'Hamid El Ghizlane; caïdat de M'Hamid; cercle de Zagora; Zagora Province; Drâa-Tafilalet; Morocco,hotel,cameraforensics
https://r-cf.bstatic.com/images/hotel/max1280x900/599/59993504.jpg,29.85473,-6.2199519999999975,2020-02-18T19:51:21+0000,900.0,1200.0,,,Morocco,M'Hamid El Ghizlane; caïdat de M'Hamid; cercle de Zagora; Zagora Province; Drâa-Tafilalet; Morocco,hotel,cameraforensics
https://r-cf.bstatic.com/images/hotel/max1280x900/180/180750565.jpg,29.81502960000001,-6.01776123,2020-05-19T00:23:56+0000,900.0,1200.0,,,Morocco,M'Hamid El Ghizlane; caïdat de M'Hamid; cercle de Zagora; Zagora Province; Drâa-Tafilalet; Morocco,hotel,cameraforensics
https://r-cf.bstatic.com/images/hotel/max1280x900/176/176264355.jpg,29.85065177,-6.21245742,2019-10-26T13:43:10+0000,900.0,1200.0,,,Morocco,Erg Chegaga; M'Hamid El Ghizlane; caïdat de M'Hamid; cercle de Zagora; Zagora Province; Drâa-Tafilalet; Morocco,hotel,cameraforensics
https://r-cf.bstatic.com/images/hotel/max1280x900/239/23949161.jpg,29.81502960000001,-6.01776123,2020-03-28T16:57:09+0000,900.0,1200.0,,,Morocco,M'Hamid El Ghizlane; caïdat de M'Hamid; cercle de Zagora; Zagora Province; Drâa-Tafilalet; Morocco,hotel,cameraforensics
https://q-cf.bstatic.com/images/hotel/max1280x900/134/134214187.jpg,29.77927775,-6.15715027,2019-10-23T07:22:24+0000,481.0,720.0,,,Morocco,M'Hamid El Ghizlane; caïdat de M'Hamid; cercle de Zagora; Zagora Province; Drâa-Tafilalet; Morocco,hotel,cameraforensics
https://r-cf.bstatic.com/images/hotel/max1280x900/172/172497673.jpg,29.85332688,-6.21684564,2020-08-03T05:13:48+0000,900.0,675.0,,,Morocco,M'Hamid El Ghizlane; caïdat de M'Hamid; cercle de Zagora; Zagora Province; Drâa-Tafilalet; Morocco,hotel,cameraforensics
https://r-cf.bstatic.com/images/hotel/max1280x900/176/176251573.jpg,29.85065177,-6.21245742,2019-12-01T07:16:53+0000,900.0,1200.0,,,Morocco,Erg Chegaga; M'Hamid El Ghizlane; caïdat de M'Hamid; cercle de Zagora; Zagora Province; Drâa-Tafilalet; Morocco,hotel,cameraforensics
https://r-cf.bstatic.com/images/hotel/max1280x900/176/176255195.jpg,29.85065177,-6.21245742,2019-12-01T07:16:54+0000,900.0,1200.0,,,Morocco,Erg Chegaga; M'Hamid El Ghizlane; caïdat de M'Hamid; cercle de Zagora; Zagora Province; Drâa-Tafilalet; Morocco,hotel,cameraforensics
https://q-cf.bstatic.com/images/hotel/max1280x900/180/180727189.jpg,29.83046381,-6.20418549,2019-09-16T11:23:48+0000,780.0,1040.0,,,Morocco,M'Hamid El Ghizlane; caïdat de M'Hamid; cercle de Zagora; Zagora Province; Drâa-Tafilalet; Morocco,hotel,cameraforensics
https://r-cf.bstatic.com/images/hotel/max1280x900/599/59993495.jpg,29.85473,-6.2199519999999975,2020-01-20T16:58:54+0000,900.0,1200.0,,,Morocco,M'Hamid El Ghizlane; caïdat de M'Hamid; cercle de Zagora; Zagora Province; Drâa-Tafilalet; Morocco,hotel,cameraforensics
https://q-cf.bstatic.com/images/hotel/max1280x900/178/178760661.jpg,29.77927775,-6.15715027,2019-12-28T15:22:24+0000,720.0,1280.0,,,Morocco,M'Hamid El Ghizlane; caïdat de M'Hamid; cercle de Zagora; Zagora Province; Drâa-Tafilalet; Morocco,hotel,cameraforensics
https://r-cf.bstatic.com/images/hotel/max1280x900/165/165217377.jpg,29.83046381,-6.20418549,2019-10-02T07:23:01+0000,900.0,1200.0,,,Morocco,M'Hamid El Ghizlane; caïdat de M'Hamid; cercle de Zagora; Zagora Province; Drâa-Tafilalet; Morocco,hotel,cameraforensics
https://r-cf.bstatic.com/images/hotel/max1280x900/151/151955762.jpg,29.77927775,-6.15715027,2020-01-03T01:54:28+0000,900.0,900.0,,,Morocco,M'Hamid El Ghizlane; caïdat de M'Hamid; cercle de Zagora; Zagora Province; Drâa-Tafilalet; Morocco,hotel,cameraforensics
https://r-cf.bstatic.com/images/hotel/max1280x900/182/182610781.jpg,29.77927775,-6.15715027,2020-01-03T01:54:29+0000,900.0,1200.0,,,Morocco,M'Hamid El Ghizlane; caïdat de M'Hamid; cercle de Zagora; Zagora Province; Drâa-Tafilalet; Morocco,hotel,cameraforensics
https://r-cf.bstatic.com/images/hotel/max1280x900/137/137402073.jpg,29.77927775,-6.15715027,2020-01-03T01:54:27+0000,321.0,480.0,,,Morocco,M'Hamid El Ghizlane; caïdat de M'Hamid; cercle de Zagora; Zagora Province; Drâa-Tafilalet; Morocco,hotel,cameraforensics
https://r-cf.bstatic.com/images/hotel/max1280x900/194/194897536.jpg,29.85065177,-6.21245742,2020-01-02T12:18:17+0000,900.0,1200.0,,,Morocco,Erg Chegaga; M'Hamid El Ghizlane; caïdat de M'Hamid; cercle de Zagora; Zagora Province; Drâa-Tafilalet; Morocco,hotel,cameraforensics
https://q-cf.bstatic.com/images/hotel/max1280x900/888/88857963.jpg,29.81502960000001,-6.01776123,2020-07-03T04:07:10+0000,853.0,1280.0,,,Morocco,M'Hamid El Ghizlane; caïdat de M'Hamid; cercle de Zagora; Zagora Province; Drâa-Tafilalet; Morocco,hotel,cameraforensics
https://r-cf.bstatic.com/images/hotel/max1280x900/596/59620095.jpg,29.81502960000001,-6.01776123,2020-07-07T10:46:59+0000,853.0,1280.0,,,Morocco,M'Hamid El Ghizlane; caïdat de M'Hamid; cercle de Zagora; Zagora Province; Drâa-Tafilalet; Morocco,hotel,cameraforensics
https://r-cf.bstatic.com/images/hotel/max1280x900/134/134214185.jpg,29.77927775,-6.15715027,2020-01-03T01:54:26+0000,900.0,675.0,,,Morocco,M'Hamid El Ghizlane; caïdat de M'Hamid; cercle de Zagora; Zagora Province; Drâa-Tafilalet; Morocco,hotel,cameraforensics
https://r-cf.bstatic.com/images/hotel/max1280x900/194/194904446.jpg,29.85065177,-6.21245742,2019-12-03T00:57:33+0000,900.0,1200.0,,,Morocco,Erg Chegaga; M'Hamid El Ghizlane; caïdat de M'Hamid; cercle de Zagora; Zagora Province; Drâa-Tafilalet; Morocco,hotel,cameraforensics
https://r-cf.bstatic.com/images/hotel/max1280x900/950/95067311.jpg,29.84184034,-6.14969105,2019-12-04T06:03:34+0000,861.0,1280.0,,,Morocco,M'Hamid El Ghizlane; caïdat de M'Hamid; cercle de Zagora; Zagora Province; Drâa-Tafilalet; Morocco,hotel,cameraforensics
https://q-cf.bstatic.com/images/hotel/max1280x900/176/176255199.jpg,29.85065177,-6.21245742,2019-12-26T20:41:21+0000,900.0,1200.0,,,Morocco,Erg Chegaga; M'Hamid El Ghizlane; caïdat de M'Hamid; cercle de Zagora; Zagora Province; Drâa-Tafilalet; Morocco,hotel,cameraforensics
https://q-cf.bstatic.com/images/hotel/max1280x900/199/19907939.jpg,29.81502960000001,-6.01776123,2020-07-03T04:07:09+0000,853.0,1280.0,,,Morocco,M'Hamid El Ghizlane; caïdat de M'Hamid; cercle de Zagora; Zagora Province; Drâa-Tafilalet; Morocco,hotel,cameraforensics
https://r-cf.bstatic.com/images/hotel/max1280x900/184/184974984.jpg,29.85065177,-6.21245742,2019-11-16T12:37:57+0000,900.0,1200.0,,,Morocco,Erg Chegaga; M'Hamid El Ghizlane; caïdat de M'Hamid; cercle de Zagora; Zagora Province; Drâa-Tafilalet; Morocco,hotel,cameraforensics
https://r-cf.bstatic.com/images/hotel/max1280x900/337/33777507.jpg,29.85473,-6.2199519999999975,2019-10-26T21:14:41+0000,853.0,1280.0,,,Morocco,M'Hamid El Ghizlane; caïdat de M'Hamid; cercle de Zagora; Zagora Province; Drâa-Tafilalet; Morocco,hotel,cameraforensics
https://q-cf.bstatic.com/images/hotel/max1280x900/599/59993640.jpg,29.85473,-6.2199519999999975,2019-10-26T19:05:04+0000,900.0,1200.0,,,Morocco,M'Hamid El Ghizlane; caïdat de M'Hamid; cercle de Zagora; Zagora Province; Drâa-Tafilalet; Morocco,hotel,cameraforensics
https://r-cf.bstatic.com/images/hotel/max1280x900/599/59993606.jpg,29.85473,-6.2199519999999975,2019-10-26T21:14:44+0000,900.0,1200.0,,,Morocco,M'Hamid El Ghizlane; caïdat de M'Hamid; cercle de Zagora; Zagora Province; Drâa-Tafilalet; Morocco,hotel,cameraforensics
https://q-cf.bstatic.com/images/hotel/max1280x900/598/59869289.jpg,29.85473,-6.2199519999999975,2019-12-08T09:19:16+0000,900.0,1200.0,,,Morocco,M'Hamid El Ghizlane; caïdat de M'Hamid; cercle de Zagora; Zagora Province; Drâa-Tafilalet; Morocco,hotel,cameraforensics
https://r-cf.bstatic.com/images/hotel/max1280x900/164/164100847.jpg,29.85332688,-6.21684564,2020-04-27T09:09:52+0000,900.0,675.0,,,Morocco,M'Hamid El Ghizlane; caïdat de M'Hamid; cercle de Zagora; Zagora Province; Drâa-Tafilalet; Morocco,hotel,cameraforensics
https://q-cf.bstatic.com/images/hotel/max1280x900/194/194904421.jpg,29.85065177,-6.21245742,2019-12-19T04:43:04+0000,900.0,1200.0,,,Morocco,Erg Chegaga; M'Hamid El Ghizlane; caïdat de M'Hamid; cercle de Zagora; Zagora Province; Drâa-Tafilalet; Morocco,hotel,cameraforensics
https://r-cf.bstatic.com/images/hotel/max1280x900/176/176260222.jpg,29.85065177,-6.21245742,2019-11-16T12:37:56+0000,900.0,1200.0,,,Morocco,Erg Chegaga; M'Hamid El Ghizlane; caïdat de M'Hamid; cercle de Zagora; Zagora Province; Drâa-Tafilalet; Morocco,hotel,cameraforensics
https://r-cf.bstatic.com/images/hotel/max1280x900/163/163649726.jpg,29.85332688,-6.21684564,2020-04-27T08:58:41+0000,864.0,864.0,,,Morocco,M'Hamid El Ghizlane; caïdat de M'Hamid; cercle de Zagora; Zagora Province; Drâa-Tafilalet; Morocco,hotel,cameraforensics
https://r-cf.bstatic.com/images/hotel/max1280x900/117/117524740.jpg,29.81502960000001,-6.01776123,2020-07-21T00:43:43+0000,900.0,675.0,,,Morocco,M'Hamid El Ghizlane; caïdat de M'Hamid; cercle de Zagora; Zagora Province; Drâa-Tafilalet; Morocco,hotel,cameraforensics
https://r-cf.bstatic.com/images/hotel/max1280x900/180/180728256.jpg,29.83046381,-6.20418549,2019-09-29T05:34:20+0000,309.0,550.0,,,Morocco,M'Hamid El Ghizlane; caïdat de M'Hamid; cercle de Zagora; Zagora Province; Drâa-Tafilalet; Morocco,hotel,cameraforensics
https://q-cf.bstatic.com/images/hotel/max1280x900/194/194892140.jpg,29.85065177,-6.21245742,2020-01-08T02:50:48+0000,900.0,1200.0,,,Morocco,Erg Chegaga; M'Hamid El Ghizlane; caïdat de M'Hamid; cercle de Zagora; Zagora Province; Drâa-Tafilalet; Morocco,hotel,cameraforensics
https://r-cf.bstatic.com/images/hotel/max1280x900/182/182973320.jpg,29.77927775,-6.15715027,2020-01-10T15:43:34+0000,714.0,1280.0,,,Morocco,M'Hamid El Ghizlane; caïdat de M'Hamid; cercle de Zagora; Zagora Province; Drâa-Tafilalet; Morocco,hotel,cameraforensics
https://r-cf.bstatic.com/images/hotel/max1280x900/180/180727175.jpg,29.83046381,-6.20418549,2019-09-18T03:43:57+0000,900.0,1176.0,,,Morocco,M'Hamid El Ghizlane; caïdat de M'Hamid; cercle de Zagora; Zagora Province; Drâa-Tafilalet; Morocco,hotel,cameraforensics
https://q-cf.bstatic.com/images/hotel/max1280x900/194/194904430.jpg,29.85065177,-6.21245742,2020-01-07T14:30:06+0000,900.0,1200.0,,,Morocco,Erg Chegaga; M'Hamid El Ghizlane; caïdat de M'Hamid; cercle de Zagora; Zagora Province; Drâa-Tafilalet; Morocco,hotel,cameraforensics
https://q-cf.bstatic.com/images/hotel/max1280x900/950/95067342.jpg,29.84184034,-6.14969105,2019-12-13T02:44:13+0000,825.0,1280.0,,,Morocco,M'Hamid El Ghizlane; caïdat de M'Hamid; cercle de Zagora; Zagora Province; Drâa-Tafilalet; Morocco,hotel,cameraforensics
https://q-cf.bstatic.com/images/hotel/max1280x900/599/59993552.jpg,29.85473,-6.2199519999999975,2020-02-11T05:18:19+0000,900.0,1200.0,,,Morocco,M'Hamid El Ghizlane; caïdat de M'Hamid; cercle de Zagora; Zagora Province; Drâa-Tafilalet; Morocco,hotel,cameraforensics
https://r-cf.bstatic.com/images/hotel/max1280x900/598/59869291.jpg,29.85473,-6.2199519999999975,2020-02-13T12:48:23+0000,900.0,1200.0,,,Morocco,M'Hamid El Ghizlane; caïdat de M'Hamid; cercle de Zagora; Zagora Province; Drâa-Tafilalet; Morocco,hotel,cameraforensics
https://r-cf.bstatic.com/images/hotel/max1280x900/165/165209089.jpg,29.83046381,-6.20418549,2019-09-18T03:43:38+0000,900.0,1200.0,,,Morocco,M'Hamid El Ghizlane; caïdat de M'Hamid; cercle de Zagora; Zagora Province; Drâa-Tafilalet; Morocco,hotel,cameraforensics
