url,latitude,longitude,date,height,width,media,copyRight,country,address,keyword,source
https://live.staticflickr.com/8108/8535206624_4569494bed_o.jpg,9.01383333333333,-79.4755,,,,,,Panama,Lexus; Plaza del Este; Boulevard Costa Del Este; Parque Lefevre; Distrito Panamá; Panamá; ???; Panama,hotel,cameraforensics
https://live.staticflickr.com/7392/8718225751_190ec1bd50_o.jpg,9.009,-79.47266666666667,,,,,,Panama,Paseo Roberto Motta; Panamá La Vieja; Parque Lefevre; Distrito Panamá; Panamá; ???; Panama,hotel,cameraforensics
https://r-cf.bstatic.com/images/hotel/max1280x900/178/178780269.jpg,9.01029025,-79.47497159,,,,,,Panama,GBM; Avenida de la Rotonda; Parque Lefevre; Distrito Panamá; Panamá; ???; Panama,hotel,cameraforensics
https://live.staticflickr.com/65535/49059849961_1b6090b591_o.jpg,9.009617972222221,-79.46820497222222,,,,,,Panama,Avenida Paseo del Mar; Costa del Este; Juan Díaz; Distrito Panamá; Panamá; ???; Panama,hotel,cameraforensics
https://live.staticflickr.com/65535/48064029576_9fa18f646b_o.jpg,9.00923611111111,-79.4684,,,,,,Panama,Avenida Paseo del Mar; Costa del Este; Juan Díaz; Distrito Panamá; Panamá; ???; Panama,hotel,cameraforensics
https://live.staticflickr.com/65535/49059332658_c91ac37e91_o.jpg,9.009491972222222,-79.46808197222222,,,,,,Panama,Avenida Paseo del Mar; Costa del Este; Juan Díaz; Distrito Panamá; Panamá; ???; Panama,hotel,cameraforensics
https://live.staticflickr.com/1584/24125238489_9af0bacd1d_o.jpg,9.01274283333333,-79.47348022222222,,,,,,Panama,Romain Sport Center; Avenida de la Rotonda; Parque Lefevre; Distrito Panamá; Panamá; ???; Panama,hotel,cameraforensics
https://live.staticflickr.com/65535/48064080748_4ae3b7a5e5_o.jpg,9.009252777777778,-79.46805555555554,,,,,,Panama,Avenida Paseo del Mar; Costa del Este; Juan Díaz; Distrito Panamá; Panamá; ???; Panama,hotel,cameraforensics
https://q-cf.bstatic.com/images/hotel/max1280x900/162/162364465.jpg,9.010169,-79.47498,,,,,,Panama,Athanasiou; Avenida de la Rotonda; Parque Lefevre; Distrito Panamá; Panamá; ???; Panama,hotel,cameraforensics
https://q-cf.bstatic.com/images/hotel/max1280x900/199/199074478.jpg,9.01029025,-79.47497159,,,,,,Panama,GBM; Avenida de la Rotonda; Parque Lefevre; Distrito Panamá; Panamá; ???; Panama,hotel,cameraforensics
https://live.staticflickr.com/602/32774524602_79d606da6f_o.jpg,8.97583333333333,-79.5225,,,,,,Panama,BICSA; Avenida Balboa; Marbella; Bella Vista; Distrito Panamá; Panamá; 0833-0293; Panama,hotel,cameraforensics
https://live.staticflickr.com/2518/3696500188_72a0463047_o.jpg,8.975662049450001,-79.52183854557221,,,,,,Panama,Avenida Balboa; Calidonia; Panama; Calidonia; Distrito Panamá; Panamá; 080807; Panama,hotel,cameraforensics
https://live.staticflickr.com/7546/16103418822_ae9e223dcc_o.jpg,8.983072222222221,-79.52941944444444,,,,,,Panama,Hotel El Panamá; Avenida Manuel Espinosa Batista; Bella Vista; Distrito Panamá; Panamá; 080807; Panama,hotel,cameraforensics
https://escaperoompanama.com/wp-content/uploads/2016/05/IMG_20160803_164818-110x110.jpg,8.985769444444449,-79.53030555555556,,,,,,Panama,AZI Hotel & Suites; Avenida 49 A Oeste; El Cangrejo; Bella Vista; Distrito Panamá; Panamá; 080807; Panama,hotel,cameraforensics
http://static.panoramio.com/photos/original/127381520.jpg,8.981104,-79.52769,,,,,,Panama,DoubleTree by Hilton Panama City - El Carmen; Avenida Federico Boyd; Bella Vista; Distrito Panamá; Panamá; 080807; Panama,hotel,cameraforensics
https://live.staticflickr.com/2810/32928158495_3c73cca5a3_o.jpg,8.97583333333333,-79.5225,,,,,,Panama,BICSA; Avenida Balboa; Marbella; Bella Vista; Distrito Panamá; Panamá; 0833-0293; Panama,hotel,cameraforensics
https://live.staticflickr.com/4510/37550772160_f4df422db9_o.jpg,8.976786111111107,-79.52475833333334,,,,,,Panama,Waldorf Astoria Panama; Avenida 5A B Sur; Marbella; Bella Vista; Distrito Panamá; Panamá; 080807; Panama,hotel,cameraforensics
https://live.staticflickr.com/3745/14315510812_6f5cba49fb_o.jpg,8.97766666666667,-79.532,,,,,,Panama,Centro Financiero Empresarial; Avenida Central España; La Cresta; Bella Vista; Distrito Panamá; Panamá; 080807; Panama,hotel,cameraforensics
https://live.staticflickr.com/7333/13254704755_45b3762e5a_o.jpg,8.98345277777778,-79.52769444444445,,,,,,Panama,Hotel El Panamá; Avenida Manuel Espinosa Batista; Bella Vista; Distrito Panamá; Panamá; 080807; Panama,hotel,cameraforensics
https://live.staticflickr.com/8813/17007412318_8a7f0e2f1f_o.jpg,8.982025,-79.52582,,,,,,Panama,Hyatt Place Panamá City; Calle Aquilino de La Guardia; Bella Vista; Distrito Panamá; Panamá; 080807; Panama,hotel,cameraforensics
https://live.staticflickr.com/3878/14349750375_1a7e57d972_o.jpg,8.97683888888889,-79.51326666666667,,,,,,Panama,Sun Yat Sen; Avenida Italia; Punta Paitilla; San Francisco; Distrito Panamá; Panamá; 0833-0293; Panama,hotel,cameraforensics
https://drscdn.500px.org/photo/39512542/q%3D80_m%3D2000/4fa36c8effba73dc9bde186358a1c0b7,8.973913888888891,-79.51696666666666,,,,,,Panama,Anfiteatro; Avenida Italia; Punta Paitilla; San Francisco; Distrito Panamá; Panamá; 0833-0293; Panama,hotel,cameraforensics
https://live.staticflickr.com/1641/25310385280_fc92048256_o.jpg,8.977226944444439,-79.51798111111111,,,,,,Panama,Aliss; Boulevard El Hayek; Punta Paitilla; San Francisco; Distrito Panamá; Panamá; 0833-0293; Panama,hotel,cameraforensics
https://live.staticflickr.com/1921/45175581491_fcb2387c00_o.jpg,8.97710555555556,-79.51702777777777,,,,,,Panama,Conway; Boulevard El Hayek; Punta Paitilla; San Francisco; Distrito Panamá; Panamá; 0833-0293; Panama,hotel,cameraforensics
https://live.staticflickr.com/5510/10681881295_b880c28449_o.jpg,8.97616666666667,-79.51716666666667,,,,,,Panama,Tommy Hilfiger; Avenida Balboa; Punta Paitilla; San Francisco; Distrito Panamá; Panamá; 0833-0293; Panama,hotel,cameraforensics
https://live.staticflickr.com/830/41452280564_7f59dd62e9_o.jpg,8.976330555555561,-79.52290277777777,,,,,,Panama,PH Waters on the Bay; Avenida Balboa; Marbella; Bella Vista; Distrito Panamá; Panamá; 0833-0293; Panama,hotel,cameraforensics
https://q-cf.bstatic.com/images/hotel/max1280x900/764/76440086.jpg,8.98002907,-79.51979250000002,,,,,,Panama,Princess Casino; Calle 53 Este; Obarrio; Bella Vista; Distrito Panamá; Panamá; 0833-0293; Panama,hotel,cameraforensics
https://live.staticflickr.com/4434/36646056551_6b6b993439_o.jpg,8.975502777777779,-79.50746944444444,,,,,,Panama,JW Marriott Panama; Calle Punta Colon; Punta Pacífica; San Francisco; Distrito Panamá; Panamá; 0833-0293; Panama,hotel,cameraforensics
https://live.staticflickr.com/8425/28480321614_7bed34d322_o.jpg,8.981638888888893,-79.50633888888889,,,,,,Panama,Corredor Sur; Boca La Caja; San Francisco; Distrito Panamá; Panamá; 0833-0293; Panama,hotel,cameraforensics
https://live.staticflickr.com/4431/36631294341_6dc131af0d_o.jpg,8.97541666666667,-79.50756111111113,,,,,,Panama,JW Marriott Panama; Calle Punta Colon; Punta Pacífica; San Francisco; Distrito Panamá; Panamá; 0833-0293; Panama,hotel,cameraforensics
https://live.staticflickr.com/7337/16168548468_a9e1da4c11_o.jpg,8.98083888888889,-79.50765277777778,,,,,,Panama,Corredor Sur; Boca La Caja; San Francisco; Distrito Panamá; Panamá; 0833-0293; Panama,hotel,cameraforensics
https://live.staticflickr.com/4475/37853761892_0b3fa9b64d_o.jpg,8.980577777777778,-79.50978055555554,,,,,,Panama,Oceanía Business Plaza; Boulevard Pacífica; Punta Pacífica; San Francisco; Distrito Panamá; Panamá; 0833-0293; Panama,hotel,cameraforensics
https://live.staticflickr.com/4706/39442849024_d60cd504d8_o.jpg,8.97530833333333,-79.51005,,,,,,Panama,Club Unión; Calle Tomás Gabriel Duque; Punta Paitilla; San Francisco; Distrito Panamá; Panamá; 0833-0293; Panama,hotel,cameraforensics
https://live.staticflickr.com/1909/45144114052_db32763ab7_o.jpg,8.97555555555556,-79.50694444444444,,,,,,Panama,JW Marriott Panama; Calle Punta Colon; Punta Pacífica; San Francisco; Distrito Panamá; Panamá; 0833-0293; Panama,hotel,cameraforensics
https://live.staticflickr.com/8701/28192900834_7a9ffc7919_o.jpg,8.97663055555556,-79.514525,,,,,,Panama,Barlovento; Avenida Italia; Punta Paitilla; San Francisco; Distrito Panamá; Panamá; 0833-0293; Panama,hotel,cameraforensics
https://live.staticflickr.com/7851/47022638102_c8b0023d1a_o.jpg,8.975894444444439,-79.51358888888889,,,,,,Panama,Avenida República de China; Punta Paitilla; San Francisco; Distrito Panamá; Panamá; 0833-0293; Panama,hotel,cameraforensics
http://static.panoramio.com/photos/original/96253517.jpg,9.35794444444444,-79.89102777777778,,,,,,Panama,Cruise Terminal; Calle 11; Barrio Sur; Distrito Colón; Colón; 0301-01074; Panama,hotel,cameraforensics
https://live.staticflickr.com/7847/32070654047_0e03385139_o.jpg,9.358035000000001,-79.89057666666666,,,,,,Panama,Cruise Terminal; Calle 11; Barrio Sur; Distrito Colón; Colón; 0301-01074; Panama,hotel,cameraforensics
https://live.staticflickr.com/8380/8675436349_03d0d6bd46_o.jpg,9.35483333333333,-79.89383333333333,,,,,,Panama,alpha trading(Plata); Calle 14; Colón Free Zone; Colón; Distrito Colón; Colón; 0301-01074; Panama,hotel,cameraforensics
http://static.panoramio.com/photos/original/96253569.jpg,9.35794444444444,-79.89102777777778,,,,,,Panama,Cruise Terminal; Calle 11; Barrio Sur; Distrito Colón; Colón; 0301-01074; Panama,hotel,cameraforensics
https://live.staticflickr.com/7014/6664163007_c9663075a4_o.jpg,9.35775728422222,-79.89082009264722,,,,,,Panama,Cruise Terminal; Calle 11; Barrio Sur; Distrito Colón; Colón; 0301-01074; Panama,hotel,cameraforensics
https://r-cf.bstatic.com/images/hotel/max1280x900/934/93442688.jpg,9.35657286,-79.89276588,,,,,,Panama,Centro Comercial Colón 2000; Paseo Gorgas; Colón; Distrito Colón; Colón; 0301-01074; Panama,hotel,cameraforensics
https://live.staticflickr.com/5488/12377303894_b85d3ee465_o.jpg,9.35695555555556,-79.89046388888889,,,,,,Panama,Cruise Terminal; Calle 11; Barrio Sur; Distrito Colón; Colón; 0301-01074; Panama,hotel,cameraforensics
https://live.staticflickr.com/8255/8674964703_85ec794352_o.jpg,9.353666666666667,-79.89416666666666,,,,,,Panama,Calle 15; Colón Free Zone; Barrio Sur; Distrito Colón; Colón; 0301-01074; Panama,hotel,cameraforensics
https://live.staticflickr.com/3484/5771748241_2ed55735a6_o.jpg,9.35451666666667,-79.89471666666667,,,,,,Panama,Edificio; Calle 14; Colón Free Zone; Colón; Distrito Colón; Colón; 0301-01074; Panama,hotel,cameraforensics
https://live.staticflickr.com/8383/8674964887_84fd00bd6d_o.jpg,9.353666666666667,-79.89399999999998,,,,,,Panama,Calle 15; Colón Free Zone; Barrio Sur; Distrito Colón; Colón; 0301-01074; Panama,hotel,cameraforensics
https://live.staticflickr.com/1464/26395551296_b9acd0ac4f_o.jpg,8.98753888888889,-79.51775277777777,,,,,,Panama,Marfil; Avenida Samuel Lewis; Obarrio; Bella Vista; Distrito Panamá; Panamá; 1080; Panama,hotel,cameraforensics
https://live.staticflickr.com/65535/48830151101_03bbc4e1a8_o.jpg,8.985980999999997,-79.507756,,,,,,Panama,Instituto Técnico Don Bosco; Calle Federico Velasquez; Boca La Caja; San Francisco; Distrito Panamá; Panamá; 041979; Panama,hotel,cameraforensics
https://live.staticflickr.com/65535/48441470461_2596020e40_o.jpg,8.986831972222221,-79.50809097222222,,,,,,Panama,Instituto Técnico Don Bosco; Calle Federico Velasquez; Boca La Caja; San Francisco; Distrito Panamá; Panamá; 041979; Panama,hotel,cameraforensics
https://r-cf.bstatic.com/images/hotel/max1280x900/787/78708319.jpg,8.98837614,-79.51872379,,,,,,Panama,Deco Plaza; Calle 59 Este; Obarrio; Bella Vista; Distrito Panamá; Panamá; 1080; Panama,hotel,cameraforensics
https://q-cf.bstatic.com/images/hotel/max1280x900/182/182038977.jpg,8.9814713,-79.51824425,,,,,,Panama,Hostal Loco Coco Loco; Calle 55 Este; Obarrio; Bella Vista; Distrito Panamá; Panamá; 0833-0293; Panama,hotel,cameraforensics
https://live.staticflickr.com/65535/49475826611_922de535b1_o.jpg,8.986796972222221,-79.50721097222224,,,,,,Panama,Instituto Técnico Don Bosco; Calle Federico Velasquez; Boca La Caja; San Francisco; Distrito Panamá; Panamá; 041979; Panama,hotel,cameraforensics
https://live.staticflickr.com/65535/49627347623_6ac7006fb7_o.jpg,8.986786,-79.508133,,,,,,Panama,Instituto Técnico Don Bosco; Calle Federico Velasquez; Boca La Caja; San Francisco; Distrito Panamá; Panamá; 041979; Panama,hotel,cameraforensics
https://live.staticflickr.com/7220/7397639822_0e9b5db7c6_o.jpg,8.99333333333333,-79.523,,,,,,Panama,Green Park View; Avenida 3a C Norte; Bella Vista; Distrito Panamá; Panamá; 1080; Panama,hotel,cameraforensics
https://live.staticflickr.com/5475/9807553993_ff9c98855b_o.jpg,8.9905,-79.5295,,,,,,Panama,Colegio La Salle; Calle San Juan Batista de la Salle; El Cangrejo; Bella Vista; Distrito Panamá; Panamá; 1080; Panama,hotel,cameraforensics
https://live.staticflickr.com/4786/40973464541_2d8cb859a5_o.jpg,8.99005833333333,-79.521755,,,,,,Panama,Banistmo; Avenida Central España; Obarrio; Bella Vista; Distrito Panamá; Panamá; 1080; Panama,hotel,cameraforensics
https://r-cf.bstatic.com/images/hotel/max1280x900/308/30883316.jpg,8.98771488,-79.52457690000001,,,,,,Panama,Principe Hotel & Suites; Calle José Isaac Fábrega; El Cangrejo; Bella Vista; Distrito Panamá; Panamá; 1080; Panama,hotel,cameraforensics
https://live.staticflickr.com/1940/45529704991_8931c1539e_o.jpg,8.990913391111109,-79.52784729,,,,,,Panama,Colegio La Salle; Calle San Juan Batista de la Salle; El Cangrejo; Bella Vista; Distrito Panamá; Panamá; 1080; Panama,hotel,cameraforensics
https://r-cf.bstatic.com/images/hotel/max1280x900/163/163542399.jpg,8.984131,-79.52473,,,,,,Panama,Bluebay City Panama; Avenida Samuel Lewis; Obarrio; Bella Vista; Distrito Panamá; Panamá; 1080; Panama,hotel,cameraforensics
https://r-cf.bstatic.com/images/hotel/max1280x900/455/45556881.jpg,8.98076441,-79.52519983,,,,,,Panama,Hotel Bristol; Calle Aquilino de La Guardia; Marbella; Bella Vista; Distrito Panamá; Panamá; 080807; Panama,hotel,cameraforensics
https://live.staticflickr.com/4710/39548783965_6b44a9535a_o.jpg,8.981815,-79.52461333333333,,,,,,Panama,Cafe Habana; Calle 52 Este; Bella Vista; Distrito Panamá; Panamá; 080807; Panama,hotel,cameraforensics
https://live.staticflickr.com/4195/34980668762_aa993b6f62_o.jpg,9.05400833333333,-79.45474166666666,,,,,,Panama,Avenida Principal; Cerro Viento; San Antonio; Rufina Alfaro; Distrito San Miguelito; Panamá; ???; Panama,hotel,cameraforensics
https://live.staticflickr.com/4197/34758775200_d30c5317cb_o.jpg,9.05373055555556,-79.45473611111113,,,,,,Panama,Avenida Principal; Cerro Viento; San Antonio; Rufina Alfaro; Distrito San Miguelito; Panamá; ???; Panama,hotel,cameraforensics
https://live.staticflickr.com/65535/49167967772_c7cb47e324_o.jpg,9.05248333333333,-79.44636666666666,,,,,,Panama,San Antonio; Rufina Alfaro; Distrito San Miguelito; Panamá; ???; Panama,hotel,cameraforensics
https://live.staticflickr.com/4273/35145482315_35a7fb488a_o.jpg,9.05383888888889,-79.45450555555556,,,,,,Panama,Avenida Principal; Cerro Viento; San Antonio; Rufina Alfaro; Distrito San Miguelito; Panamá; ???; Panama,hotel,cameraforensics
https://65.media.tumblr.com/5d04de4ed6f55b170f11c0782ab20332/tumblr_odmeosS7wB1ui0cvho1_1280.jpg,9.05531666666667,-79.44769444444445,,,,,,Panama,San Antonio; Rufina Alfaro; Distrito San Miguelito; Panamá; Panama,hotel,cameraforensics
https://q-cf.bstatic.com/images/hotel/max1280x900/837/83747596.jpg,9.05173763,-79.45064068,,,,,,Panama,Metromall; Avenida Domingo Díaz; Villa Lucre; José Domingo Espinar; Distrito San Miguelito; Panamá; 0801; Panama,hotel,cameraforensics
https://live.staticflickr.com/4260/34407375843_373950c648_o.jpg,9.05331666666667,-79.45413333333333,,,,,,Panama,Avenida Principal; Cerro Viento; San Antonio; Rufina Alfaro; Distrito San Miguelito; Panamá; ???; Panama,hotel,cameraforensics
https://live.staticflickr.com/4219/34335531823_91742a3926_o.jpg,9.05384722222222,-79.45434444444443,,,,,,Panama,Avenida Principal; Cerro Viento; San Antonio; Rufina Alfaro; Distrito San Miguelito; Panamá; ???; Panama,hotel,cameraforensics
https://live.staticflickr.com/4226/35014492211_1bcffdd7a3_o.jpg,9.053544444444439,-79.45378888888891,,,,,,Panama,Avenida Principal; Cerro Viento; San Antonio; Rufina Alfaro; Distrito San Miguelito; Panamá; ???; Panama,hotel,cameraforensics
https://r-cf.bstatic.com/images/hotel/max1280x900/881/88193921.jpg,9.05173763,-79.45064068,,,,,,Panama,Metromall; Avenida Domingo Díaz; Villa Lucre; José Domingo Espinar; Distrito San Miguelito; Panamá; 0801; Panama,hotel,cameraforensics
https://r-cf.bstatic.com/images/hotel/max1280x900/131/131206570.jpg,9.07050128,-79.40297246,,,,,,Panama,Riande aeropuerto; Carretera Panamericana; Tocumen; Distrito Panamá; Panamá; 00000; Panama,hotel,cameraforensics
https://r-cf.bstatic.com/images/hotel/max1280x900/190/190801251.jpg,9.07050128,-79.40297246,,,,,,Panama,Riande aeropuerto; Carretera Panamericana; Tocumen; Distrito Panamá; Panamá; 00000; Panama,hotel,cameraforensics
https://q-cf.bstatic.com/images/hotel/max1280x900/131/131205522.jpg,9.07050128,-79.40297246,,,,,,Panama,Riande aeropuerto; Carretera Panamericana; Tocumen; Distrito Panamá; Panamá; 00000; Panama,hotel,cameraforensics
https://q-cf.bstatic.com/images/hotel/max1280x900/131/131206673.jpg,9.07050128,-79.40297246,,,,,,Panama,Riande aeropuerto; Carretera Panamericana; Tocumen; Distrito Panamá; Panamá; 00000; Panama,hotel,cameraforensics
https://live.staticflickr.com/7455/12869063234_9da21b6f41_o.jpg,9.07055,-79.40229166666667,,,,,,Panama,Riande aeropuerto; Carretera Panamericana; Tocumen; Distrito Panamá; Panamá; 00000; Panama,hotel,cameraforensics
https://r-cf.bstatic.com/images/hotel/max1280x900/190/190802985.jpg,9.07050128,-79.40297246,,,,,,Panama,Riande aeropuerto; Carretera Panamericana; Tocumen; Distrito Panamá; Panamá; 00000; Panama,hotel,cameraforensics
https://live.staticflickr.com/8367/8517233501_06841bbb7e_o.jpg,9.07066666666667,-79.4025,,,,,,Panama,Riande aeropuerto; Carretera Panamericana; Tocumen; Distrito Panamá; Panamá; 00000; Panama,hotel,cameraforensics
https://q-cf.bstatic.com/images/hotel/max1280x900/131/131205476.jpg,9.07050128,-79.40297246,,,,,,Panama,Riande aeropuerto; Carretera Panamericana; Tocumen; Distrito Panamá; Panamá; 00000; Panama,hotel,cameraforensics
https://q-cf.bstatic.com/images/hotel/max1280x900/190/190801691.jpg,9.07050128,-79.40297246,,,,,,Panama,Riande aeropuerto; Carretera Panamericana; Tocumen; Distrito Panamá; Panamá; 00000; Panama,hotel,cameraforensics
https://q-cf.bstatic.com/images/hotel/max1280x900/131/131205523.jpg,9.07050128,-79.40297246,,,,,,Panama,Riande aeropuerto; Carretera Panamericana; Tocumen; Distrito Panamá; Panamá; 00000; Panama,hotel,cameraforensics
https://farm3.staticflickr.com/2914/14224564836_a32225f2db_b.jpg,8.951516999999997,-79.536112,2014-05-02 07:57:22,,,photo,0.0,Panama,Iglesia de San Jose [Altar de Oro]; Avenida A; San Felipe; Distrito Panamá; Panamá; 080807; Panama,hotel room,flickr
https://farm8.staticflickr.com/7179/6788940876_73698d9e04_b.jpg,8.975012,-79.52668100000002,2012-02-26 19:20:09,,,photo,0.0,Panama,Avenida Balboa; Calidonia; Panama; Calidonia; Distrito Panamá; Panamá; 080807; Panama,hotel room,flickr
https://live.staticflickr.com/1845/43758258045_b7a13023e7_o.jpg,8.941046,-79.555832,2018-09-10 19:43:08,3024.0,4032.0,photo,0.0,Panama,Radisson Hotel Panama Canal; Calle Bahia; Ancón; Distrito Panamá; Panamá; C-0843-00793; Panama,hotel room,flickr
https://live.staticflickr.com/6218/6374030103_f458360fae_o.jpg,8.976051,-79.53569399999998,2011-11-13 18:42:40,3000.0,2250.0,photo,0.0,Panama,Antiguo Colegio Javier; Central Avenue; Perejil; Panama; Calidonia; Distrito Panamá; Panamá; 080807; Panama,inn room,flickr
https://live.staticflickr.com/125/323332916_608b5892f5_o.jpg,9.665738000000001,-79.453125,2006-12-15 13:31:58,600.0,450.0,photo,0.0,Panama,Colón; Panama,inn room,flickr
https://live.staticflickr.com/3138/2555637029_5bf7e37d09_o.jpg,8.781176,-82.435913,2008-06-06 09:46:45,211.0,358.0,photo,0.0,Panama,Calle 3a Norte; Los Cabezos; Bajo Boquete; Distrito Boquete; Chiriquí; Panama,inn room,flickr
https://farm3.staticflickr.com/2473/3888232206_0d6e460a0c_b.jpg,8.99934,-79.498962,2009-09-04 15:03:22,,,photo,0.0,Panama,Narciso Garay Avenue; Coco del Mar; San Francisco; Distrito Panamá; Panamá; 041979; Panama,inn room,flickr
https://live.staticflickr.com/3152/2556464518_fb738df2a3_o.jpg,8.781176,-82.435913,2008-06-06 09:46:44,227.0,359.0,photo,0.0,Panama,Calle 3a Norte; Los Cabezos; Bajo Boquete; Distrito Boquete; Chiriquí; Panama,inn room,flickr
https://live.staticflickr.com/6054/6374034427_a5f58ce6fc_o.jpg,8.976051,-79.53569399999998,2011-11-13 18:42:32,2250.0,3000.0,photo,0.0,Panama,Antiguo Colegio Javier; Central Avenue; Perejil; Panama; Calidonia; Distrito Panamá; Panamá; 080807; Panama,inn room,flickr
https://live.staticflickr.com/3105/2555636343_1d426442e7_o.jpg,8.781176,-82.435913,2008-06-06 09:46:22,293.0,733.0,photo,0.0,Panama,Calle 3a Norte; Los Cabezos; Bajo Boquete; Distrito Boquete; Chiriquí; Panama,inn room,flickr
https://live.staticflickr.com/5161/5379672992_172ce00896_o.jpg,8.470249,-79.956951,2011-01-22 20:55:52,720.0,482.0,photo,0.0,Panama,El Palmar; Distrito San Carlos; Panamá Oeste; Panama,hotel bathroom,flickr
https://live.staticflickr.com/5210/5379672966_b734ec91b5_o.jpg,8.470249,-79.956951,2011-01-22 20:55:51,482.0,720.0,photo,0.0,Panama,El Palmar; Distrito San Carlos; Panamá Oeste; Panama,hotel bathroom,flickr
https://live.staticflickr.com/3132/2551603180_6ca4687cf8_o.jpg,8.781176,-82.435913,2008-06-04 10:46:47,302.0,439.0,photo,0.0,Panama,Calle 3a Norte; Los Cabezos; Bajo Boquete; Distrito Boquete; Chiriquí; Panama,hotel bathroom,flickr
https://live.staticflickr.com/1979/43318122590_9be6cd529a_o.jpg,8.941237,-79.555789,2018-09-20 20:28:48,2736.0,3648.0,photo,0.0,Panama,Radisson Hotel Panama Canal; Calle Bahia; Ancón; Distrito Panamá; Panamá; C-0843-00793; Panama,hotel bathroom,flickr
https://live.staticflickr.com/8185/8384707985_2a3956aa5f_o.jpg,9.486312,-78.728027,2012-04-29 22:43:42,4000.0,3000.0,photo,0.0,Panama,Comarca Guna Yala; Panama,vacation bathroom,flickr
https://farm3.staticflickr.com/2331/2188165519_326098d5b4_b.jpg,8.97728,-79.51724,2007-12-27 18:25:31,,,photo,0.0,Panama,Hard Rock Hotel Panama Megapolis; Boulevard El Hayek; Punta Paitilla; San Francisco; Distrito Panamá; Panamá; 0833-0293; Panama,room decor,flickr
https://live.staticflickr.com/8624/16725260912_dbaee8b447_o.jpg,8.97567,-79.528806,2012-11-16 17:10:18,2592.0,1936.0,photo,0.0,Panama,P.H. Allure At The Park; Calle 44; La Cresta; Bella Vista; Distrito Panamá; Panamá; 080807; Panama,rental room,flickr
https://farm3.staticflickr.com/2461/3887807705_f4ff4539d9_b.jpg,8.99934,-79.498962,2009-09-04 18:12:12,,,photo,0.0,Panama,Narciso Garay Avenue; Coco del Mar; San Francisco; Distrito Panamá; Panamá; 041979; Panama,rental room,flickr
https://live.staticflickr.com/2778/4428588884_a7e3f4048c_o.jpg,9.373494,-82.26201999999998,2010-02-22 19:38:34,2384.0,2424.0,photo,3.0,Panama,Boca del Drago; Colonia Santeña; Bocas del Toro; Distrito Bocas del Toro; Bocas del Toro; Panama,motel room,flickr
https://live.staticflickr.com/2745/4410407595_ef9aeea1c1_o.jpg,9.34758,-82.255496,2010-02-20 18:57:33,1432.0,1232.0,photo,3.0,Panama,Isthmito; Bocas del Toro; Distrito Bocas del Toro; Bocas del Toro; Panama,motel room,flickr
https://live.staticflickr.com/4032/4412436548_d1ce9431ca_o.jpg,9.34758,-82.255496,2010-02-21 08:53:47,2300.0,3177.0,photo,3.0,Panama,Isthmito; Bocas del Toro; Distrito Bocas del Toro; Bocas del Toro; Panama,motel room,flickr
https://farm5.staticflickr.com/4786/40040371324_69c7b0fa12_b.jpg,8.625748,-79.041996,2018-01-21 17:09:28,,,photo,0.0,Panama,Contadora; Saboga; Distrito Balboa; Panamá; Panama,booking.com,flickr
https://farm8.staticflickr.com/7395/13889075810_2cc351c4d3_b.jpg,9.338441,-82.23639200000002,2014-04-28 14:09:20,,,photo,0.0,Panama,Isla Carenero; Bocas del Toro; Distrito Bocas del Toro; Bocas del Toro; Panama,habitacion,flickr
https://live.staticflickr.com/8195/8095693660_6ec9b85c22_o.jpg,8.981551,-79.52062,2012-10-06 09:56:07,3264.0,4928.0,photo,4.0,Panama,Plaza 2000; Calle 53 Este; Obarrio; Bella Vista; Distrito Panamá; Panamá; 0833-0293; Panama,habitacion,flickr
https://live.staticflickr.com/8332/8095676060_99b86cee91_o.jpg,8.981551,-79.52062,2012-10-06 09:54:39,3264.0,4928.0,photo,4.0,Panama,Plaza 2000; Calle 53 Este; Obarrio; Bella Vista; Distrito Panamá; Panamá; 0833-0293; Panama,habitacion,flickr
https://live.staticflickr.com/8336/8095681791_10d407bbc2_o.jpg,8.981551,-79.52062,2012-10-06 09:55:57,3264.0,4928.0,photo,4.0,Panama,Plaza 2000; Calle 53 Este; Obarrio; Bella Vista; Distrito Panamá; Panamá; 0833-0293; Panama,habitacion,flickr
https://live.staticflickr.com/8183/8095694487_99d78d8070_o.jpg,8.981551,-79.52062,2012-10-06 09:56:29,4928.0,3264.0,photo,4.0,Panama,Plaza 2000; Calle 53 Este; Obarrio; Bella Vista; Distrito Panamá; Panamá; 0833-0293; Panama,habitacion,flickr
https://live.staticflickr.com/8324/8095680808_dc35298c19_o.jpg,8.981551,-79.52062,2012-10-06 09:54:49,3264.0,4928.0,photo,4.0,Panama,Plaza 2000; Calle 53 Este; Obarrio; Bella Vista; Distrito Panamá; Panamá; 0833-0293; Panama,habitacion,flickr
https://live.staticflickr.com/5124/5379071187_bf78cb9e74_o.jpg,8.470249,-79.956951,2011-01-22 20:55:52,482.0,720.0,photo,0.0,Panama,El Palmar; Distrito San Carlos; Panamá Oeste; Panama,comfort room,flickr
https://live.staticflickr.com/3338/3632401263_52717d9e64_o.jpg,9.367736,-79.902019,2009-05-31 09:01:19,1200.0,1800.0,photo,3.0,Panama,Paseo Washington; Barrio Norte; Distrito Colón; Colón; 0301-01074; Panama,comfort room,flickr
https://live.staticflickr.com/5004/5379070945_98a24a9b13_o.jpg,8.470249,-79.956951,2011-01-22 20:55:47,482.0,720.0,photo,0.0,Panama,El Palmar; Distrito San Carlos; Panamá Oeste; Panama,comfort room,flickr
https://live.staticflickr.com/5209/5379672908_0fa15f32ff_o.jpg,8.470249,-79.956951,2011-01-22 20:55:49,482.0,720.0,photo,0.0,Panama,El Palmar; Distrito San Carlos; Panamá Oeste; Panama,comfort room,flickr
https://live.staticflickr.com/5289/5379071015_07e3e2bfef_o.jpg,8.470249,-79.956951,2011-01-22 20:55:48,482.0,720.0,photo,0.0,Panama,El Palmar; Distrito San Carlos; Panamá Oeste; Panama,comfort room,flickr
https://live.staticflickr.com/7187/6926091266_0ed636a92a_o.jpg,8.475237,-79.949784,2012-04-12 19:31:30,612.0,612.0,photo,0.0,Panama,Distrito San Carlos; Panamá Oeste; Panama,comfort room,flickr
https://live.staticflickr.com/5130/5379071247_1dbfc38224_o.jpg,8.470249,-79.956951,2011-01-22 20:55:54,482.0,720.0,photo,0.0,Panama,El Palmar; Distrito San Carlos; Panamá Oeste; Panama,comfort room,flickr
https://live.staticflickr.com/5168/5379071213_4f58d12042_o.jpg,8.470249,-79.956951,2011-01-22 20:55:53,482.0,720.0,photo,0.0,Panama,El Palmar; Distrito San Carlos; Panamá Oeste; Panama,comfort room,flickr
https://live.staticflickr.com/5083/5379071083_2291b1edcf_o.jpg,8.470249,-79.956951,2011-01-22 20:55:50,482.0,720.0,photo,0.0,Panama,El Palmar; Distrito San Carlos; Panamá Oeste; Panama,comfort room,flickr
https://live.staticflickr.com/5128/5379070989_3706a6e276_o.jpg,8.470249,-79.956951,2011-01-22 20:55:48,482.0,720.0,photo,0.0,Panama,El Palmar; Distrito San Carlos; Panamá Oeste; Panama,comfort room,flickr
https://farm8.staticflickr.com/7281/8740493381_91de1a3f42_b.jpg,9.010639999999999,-79.475162,2013-05-15 07:21:10,,,photo,0.0,Panama,GBM; Avenida de la Rotonda; Parque Lefevre; Distrito Panamá; Panamá; ???; Panama,deluxe room,flickr
https://farm8.staticflickr.com/7301/9455651661_5c2f4a8aee_b.jpg,8.934565,-79.57328000000003,2013-08-07 03:43:31,,,photo,0.0,Panama,Calle Farfán; Veracruz; Distrito Arraiján; Panamá Oeste; C-0843-00793; Panama,deluxe room,flickr
https://live.staticflickr.com/7451/9183637976_bbc7af09c8_o.jpg,9.364094999999999,-79.900452,2013-07-01 04:28:53,722.0,1024.0,photo,0.0,Panama,Calle 3; Barrio Norte; Distrito Colón; Colón; 0301-01074; Panama,deluxe room,flickr
https://farm8.staticflickr.com/7391/9455652849_79b711ce17_b.jpg,8.934565,-79.57328000000003,2013-08-07 03:43:50,,,photo,0.0,Panama,Calle Farfán; Veracruz; Distrito Arraiján; Panamá Oeste; C-0843-00793; Panama,deluxe room,flickr
https://farm9.staticflickr.com/8211/8449823843_44a83fb323_b.jpg,8.934565,-79.57328000000003,2013-02-06 06:35:47,,,photo,0.0,Panama,Calle Farfán; Veracruz; Distrito Arraiján; Panamá Oeste; C-0843-00793; Panama,deluxe room,flickr
https://farm8.staticflickr.com/7293/9458441310_89111d6df3_b.jpg,8.934565,-79.57328000000003,2013-08-07 03:45:47,,,photo,0.0,Panama,Calle Farfán; Veracruz; Distrito Arraiján; Panamá Oeste; C-0843-00793; Panama,deluxe room,flickr
https://farm4.staticflickr.com/3677/9458437510_3f5966da9d_b.jpg,8.934565,-79.57328000000003,2013-08-07 03:44:50,,,photo,0.0,Panama,Calle Farfán; Veracruz; Distrito Arraiján; Panamá Oeste; C-0843-00793; Panama,deluxe room,flickr
https://farm4.staticflickr.com/3810/9455654159_80658bd3eb_b.jpg,8.934565,-79.57328000000003,2013-08-07 03:44:12,,,photo,0.0,Panama,Calle Farfán; Veracruz; Distrito Arraiján; Panamá Oeste; C-0843-00793; Panama,deluxe room,flickr
https://farm8.staticflickr.com/7290/8740494989_76c63d94fd_b.jpg,9.010639999999999,-79.475162,2013-05-15 07:21:50,,,photo,0.0,Panama,GBM; Avenida de la Rotonda; Parque Lefevre; Distrito Panamá; Panamá; ???; Panama,deluxe room,flickr
https://live.staticflickr.com/5339/8879905021_1d397623a0_o.jpg,8.976180000000003,-79.52512,2013-05-29 09:27:34,657.0,1024.0,photo,0.0,Panama,Calle Uruguay; Marbella; Bella Vista; Distrito Panamá; Panamá; 080807; Panama,deluxe room,flickr
https://live.staticflickr.com/3686/8879912305_76ce55743a_o.jpg,8.976180000000003,-79.52512,2013-05-29 09:28:20,939.0,1024.0,photo,0.0,Panama,Calle Uruguay; Marbella; Bella Vista; Distrito Panamá; Panamá; 080807; Panama,deluxe room,flickr
https://farm4.staticflickr.com/3807/9458483788_fcf979be9e_b.jpg,8.934565,-79.57328000000003,2013-08-07 03:56:07,,,photo,0.0,Panama,Calle Farfán; Veracruz; Distrito Arraiján; Panamá Oeste; C-0843-00793; Panama,deluxe room,flickr
https://farm8.staticflickr.com/7333/9458440064_588e9797e8_b.jpg,8.934565,-79.57328000000003,2013-08-07 03:45:29,,,photo,0.0,Panama,Calle Farfán; Veracruz; Distrito Arraiján; Panamá Oeste; C-0843-00793; Panama,deluxe room,flickr
https://live.staticflickr.com/3107/2550781333_6a72a86b64_o.jpg,8.781176,-82.435913,2008-06-04 10:46:42,311.0,435.0,photo,0.0,Panama,Calle 3a Norte; Los Cabezos; Bajo Boquete; Distrito Boquete; Chiriquí; Panama,twin room,flickr
https://live.staticflickr.com/5328/8943078613_57f0a5cb29_o.jpg,8.9666,-79.5333,2013-06-03 19:02:56,685.0,1024.0,photo,0.0,Panama,Avenida Balboa; Calidonia; Panama; Calidonia; Distrito Panamá; Panamá; 080807; Panama,queen room,flickr
https://live.staticflickr.com/3776/8943080579_303e777942_o.jpg,8.9666,-79.5333,2013-06-03 19:03:09,685.0,1024.0,photo,0.0,Panama,Avenida Balboa; Calidonia; Panama; Calidonia; Distrito Panamá; Panamá; 080807; Panama,queen room,flickr
https://live.staticflickr.com/7424/8943704728_17aa5b854c_o.jpg,8.9666,-79.5333,2013-06-03 19:03:21,685.0,1024.0,photo,0.0,Panama,Avenida Balboa; Calidonia; Panama; Calidonia; Distrito Panamá; Panamá; 080807; Panama,sheraton room,flickr
https://live.staticflickr.com/5325/8943731892_9525fd25b4_o.jpg,8.9666,-79.5333,2013-06-03 19:06:35,716.0,1024.0,photo,0.0,Panama,Avenida Balboa; Calidonia; Panama; Calidonia; Distrito Panamá; Panamá; 080807; Panama,sheraton room,flickr
https://live.staticflickr.com/5514/9183636744_94391959f1_o.jpg,9.364095,-79.900452,2013-07-01 04:28:38,708.0,1024.0,photo,0.0,Panama,Calle 3; Barrio Norte; Distrito Colón; Colón; 0301-01074; Panama,sheraton room,flickr
https://live.staticflickr.com/8419/8943699232_559760c003_o.jpg,8.9666,-79.5333,2013-06-03 19:02:42,1023.0,685.0,photo,0.0,Panama,Avenida Balboa; Calidonia; Panama; Calidonia; Distrito Panamá; Panamá; 080807; Panama,sheraton room,flickr
https://live.staticflickr.com/5334/8943730252_16c0993b00_o.jpg,8.9666,-79.5333,2013-06-03 19:06:23,707.0,1024.0,photo,0.0,Panama,Avenida Balboa; Calidonia; Panama; Calidonia; Distrito Panamá; Panamá; 080807; Panama,sheraton room,flickr
https://live.staticflickr.com/7416/9183645232_30b617f295_o.jpg,9.364095,-79.900452,2013-07-01 04:30:21,700.0,1024.0,photo,0.0,Panama,Calle 3; Barrio Norte; Distrito Colón; Colón; 0301-01074; Panama,sheraton room,flickr
https://live.staticflickr.com/3697/8943735326_0de3294795_o.jpg,8.9666,-79.5333,2013-06-03 19:07:00,651.0,1024.0,photo,0.0,Panama,Avenida Balboa; Calidonia; Panama; Calidonia; Distrito Panamá; Panamá; 080807; Panama,sheraton room,flickr
https://live.staticflickr.com/3706/9183644162_82f00c7d04_o.jpg,9.364095,-79.900452,2013-07-01 04:30:08,718.0,1024.0,photo,0.0,Panama,Calle 3; Barrio Norte; Distrito Colón; Colón; 0301-01074; Panama,sheraton room,flickr
https://live.staticflickr.com/7330/8943739332_4ce8e25735_o.jpg,8.9666,-79.5333,2013-06-03 19:07:29,656.0,1024.0,photo,0.0,Panama,Avenida Balboa; Calidonia; Panama; Calidonia; Distrito Panamá; Panamá; 080807; Panama,sheraton room,flickr
https://live.staticflickr.com/3728/8943697194_417fbe6369_o.jpg,8.9666,-79.5333,2013-06-03 19:02:28,707.0,1024.0,photo,0.0,Panama,Avenida Balboa; Calidonia; Panama; Calidonia; Distrito Panamá; Panamá; 080807; Panama,sheraton room,flickr
https://live.staticflickr.com/3741/8943673184_745d0d03e0_o.jpg,8.9666,-79.5333,2013-06-03 18:59:27,685.0,1024.0,photo,0.0,Panama,Avenida Balboa; Calidonia; Panama; Calidonia; Distrito Panamá; Panamá; 080807; Panama,sheraton room,flickr
https://live.staticflickr.com/3830/8943745532_7550955905_o.jpg,8.9666,-79.5333,2013-06-03 19:08:12,760.0,1024.0,photo,0.0,Panama,Avenida Balboa; Calidonia; Panama; Calidonia; Distrito Panamá; Panamá; 080807; Panama,sheraton room,flickr
https://live.staticflickr.com/5498/9181426115_0141b4e289_o.jpg,9.364095,-79.900452,2013-07-01 04:29:18,705.0,1024.0,photo,0.0,Panama,Calle 3; Barrio Norte; Distrito Colón; Colón; 0301-01074; Panama,sheraton room,flickr
https://live.staticflickr.com/5338/8943068771_450154eab7_o.jpg,8.9666,-79.5333,2013-06-03 19:01:45,685.0,1024.0,photo,0.0,Panama,Avenida Balboa; Calidonia; Panama; Calidonia; Distrito Panamá; Panamá; 080807; Panama,sheraton room,flickr
https://live.staticflickr.com/8543/8943092287_bedf0ea3c2_o.jpg,8.9666,-79.5333,2013-06-03 19:04:34,685.0,1024.0,photo,0.0,Panama,Avenida Balboa; Calidonia; Panama; Calidonia; Distrito Panamá; Panamá; 080807; Panama,sheraton room,flickr
https://live.staticflickr.com/2820/8943679724_afb1c1d27e_o.jpg,8.9666,-79.5333,2013-06-03 19:00:18,685.0,1024.0,photo,0.0,Panama,Avenida Balboa; Calidonia; Panama; Calidonia; Distrito Panamá; Panamá; 080807; Panama,sheraton room,flickr
https://live.staticflickr.com/7458/8943098143_c2d89599a3_o.jpg,8.9666,-79.5333,2013-06-03 19:05:15,685.0,1024.0,photo,0.0,Panama,Avenida Balboa; Calidonia; Panama; Calidonia; Distrito Panamá; Panamá; 080807; Panama,sheraton room,flickr
https://live.staticflickr.com/8121/8943722558_9c4172fa17_o.jpg,8.9666,-79.5333,2013-06-03 19:05:29,1023.0,680.0,photo,0.0,Panama,Avenida Balboa; Calidonia; Panama; Calidonia; Distrito Panamá; Panamá; 080807; Panama,sheraton room,flickr
https://live.staticflickr.com/7364/8943685390_7e9efae017_o.jpg,8.9666,-79.5333,2013-06-03 19:01:02,685.0,1024.0,photo,0.0,Panama,Avenida Balboa; Calidonia; Panama; Calidonia; Distrito Panamá; Panamá; 080807; Panama,sheraton room,flickr
https://live.staticflickr.com/7386/9183648548_69c0a45a98_o.jpg,9.364095,-79.900452,2013-07-01 04:31:00,677.0,1024.0,photo,0.0,Panama,Calle 3; Barrio Norte; Distrito Colón; Colón; 0301-01074; Panama,sheraton room,flickr
https://live.staticflickr.com/3801/8943088289_cee69d5965_o.jpg,8.9666,-79.5333,2013-06-03 19:04:05,1023.0,685.0,photo,0.0,Panama,Avenida Balboa; Calidonia; Panama; Calidonia; Distrito Panamá; Panamá; 080807; Panama,sheraton room,flickr
https://live.staticflickr.com/2866/9183642172_c1c4e9fe29_o.jpg,9.364095,-79.900452,2013-07-01 04:29:43,720.0,1024.0,photo,0.0,Panama,Calle 3; Barrio Norte; Distrito Colón; Colón; 0301-01074; Panama,sheraton room,flickr
https://live.staticflickr.com/7292/8943671024_1d100756de_o.jpg,8.9666,-79.5333,2013-06-03 18:59:11,1023.0,685.0,photo,0.0,Panama,Avenida Balboa; Calidonia; Panama; Calidonia; Distrito Panamá; Panamá; 080807; Panama,sheraton room,flickr
https://live.staticflickr.com/3597/3452089206_245134a7c3_o.jpg,8.9975,-79.498186,2009-04-16 16:49:24,1536.0,2048.0,photo,0.0,Panama,Calle las Amapolas; Coco del Mar; San Francisco; Distrito Panamá; Panamá; 041979; Panama,sheraton room,flickr
https://live.staticflickr.com/3775/9183646198_527d7995c3_o.jpg,9.364095,-79.900452,2013-07-01 04:30:33,727.0,1024.0,photo,0.0,Panama,Calle 3; Barrio Norte; Distrito Colón; Colón; 0301-01074; Panama,sheraton room,flickr
https://live.staticflickr.com/3764/8943755634_3935709921_o.jpg,8.9666,-79.5333,2013-06-03 19:09:19,679.0,1024.0,photo,0.0,Panama,Avenida Balboa; Calidonia; Panama; Calidonia; Distrito Panamá; Panamá; 080807; Panama,sheraton room,flickr
https://live.staticflickr.com/8333/8145368070_01e45432f2_o.jpg,8.624725999999999,-80.139641,2012-09-10 14:52:09,642.0,1024.0,photo,0.0,Panama,Canopy Lodge; Calle La Compañía; Alto-La Mesa; El Valle; Distrito Antón; Coclé; 0212; Panama,lodge room,flickr
https://live.staticflickr.com/3124/2550781289_06713858b3_o.jpg,8.781176,-82.435913,2008-06-04 10:46:41,310.0,455.0,photo,0.0,Panama,Calle 3a Norte; Los Cabezos; Bajo Boquete; Distrito Boquete; Chiriquí; Panama,lodge room,flickr
https://live.staticflickr.com/7053/6792035022_c133485898_o.jpg,9.188573,-82.101516,2012-02-28 14:38:37,1024.0,683.0,photo,0.0,Panama,Bocas del Toro; Panama,lodge room,flickr
https://live.staticflickr.com/7196/6938149883_4769cd9a3e_o.jpg,9.188912,-82.10143000000002,2012-02-28 14:38:43,683.0,1024.0,photo,0.0,Panama,Bocas del Toro; Panama,lodge room,flickr
https://live.staticflickr.com/3192/2926822632_5fd1d0f61c_o.jpg,9.386911,-82.23695699999998,2008-09-16 13:45:58,685.0,1024.0,photo,0.0,Panama,Vía Playa Bluff - Bocas del Toro; Bocas del Toro; Distrito Bocas del Toro; Bocas del Toro; Panama,lodge room,flickr
https://live.staticflickr.com/1950/44828605982_2e82ed15ee_o.jpg,8.6213,-80.139687,2018-09-10 15:28:12,3024.0,4032.0,photo,0.0,Panama,Río Indio Centro; El Valle; Distrito Capira; Panamá Oeste; 0212; Panama,lodge room,flickr
https://live.staticflickr.com/3128/2926778752_db1bf5f81d_o.jpg,9.386911,-82.23695699999998,2008-09-16 14:24:36,768.0,514.0,photo,0.0,Panama,Vía Playa Bluff - Bocas del Toro; Bocas del Toro; Distrito Bocas del Toro; Bocas del Toro; Panama,lodge room,flickr
https://live.staticflickr.com/3179/2551603282_7ea5a84129_o.jpg,8.781176,-82.435913,2008-06-04 10:46:50,309.0,472.0,photo,0.0,Panama,Calle 3a Norte; Los Cabezos; Bajo Boquete; Distrito Boquete; Chiriquí; Panama,lodge room,flickr
https://live.staticflickr.com/2191/2408569461_1144164705_o.jpg,8.604105,-80.130329,2008-04-06 15:11:11,1536.0,2048.0,photo,0.0,Panama,Pekin; Avenida Principal; El Valle; Distrito Antón; Coclé; 0212; Panama,lodge room,flickr
https://live.staticflickr.com/5223/5613796034_bfff8ff796_o.jpg,9.020727,-79.530029,2011-02-24 18:45:27,2112.0,2816.0,photo,0.0,Panama,Santa Maria R; Vía Ricardo J. Alfaro; Bethania; Distrito Panamá; Panamá; 620; Panama,executive room,flickr
https://live.staticflickr.com/6169/6135697961_9bc9a52465_o.jpg,9.33763,-82.253349,2011-09-10 23:23:01,2560.0,1920.0,photo,0.0,Panama,Bocas Del Toro International Airport; Calle 8a; Saigón; Bocas del Toro; Distrito Bocas del Toro; Bocas del Toro; Panama,double room,flickr
https://live.staticflickr.com/6143/5953003715_e40bd40f99_o.jpg,9.073515,-79.650077,2011-07-02 18:55:07,800.0,1200.0,photo,0.0,Panama,Semaphore Hill; Ancón; Distrito Panamá; Panamá; Panama,double room,flickr
https://live.staticflickr.com/6171/6135692433_579feac8aa_o.jpg,9.33763,-82.253349,2011-09-11 00:00:11,480.0,640.0,photo,0.0,Panama,Bocas Del Toro International Airport; Calle 8a; Saigón; Bocas del Toro; Distrito Bocas del Toro; Bocas del Toro; Panama,double room,flickr
https://live.staticflickr.com/1639/24255881124_760fabc4e7_o.jpg,8.533151,-78.009452,2016-01-15 18:34:52,3000.0,4500.0,photo,0.0,Panama,Anayansi; Metetí; Distrito Pinogana; Darién; Panama,family suite,flickr
https://live.staticflickr.com/3254/2963126778_27dafb29dd_o.jpg,8.952185,-79.533247,2008-10-06 11:34:05,853.0,1280.0,photo,1.0,Panama,Diablicos; Avenida Central; San Felipe; Distrito Panamá; Panamá; 080807; Panama,presidential suite,flickr
