url,latitude,longitude,date,height,width,media,copyRight,country,address,keyword,source
https://r-cf.bstatic.com/images/hotel/max1280x900/105/105569843.jpg,44.44081512,26.07346885,,,,,,Romania,Friends Hostel; 114; Strada Mircea Vulcănescu; Gara de Nord; Sector 6; Bucharest; 010826; Romania,hotel,cameraforensics
https://live.staticflickr.com/5122/5242428010_0c77c62d7f_o.jpg,44.43749151028056,26.063489262158328,,,,,,Romania,Cotroceni; Sector 6; Bucharest; Romania,hotel,cameraforensics
https://live.staticflickr.com/8883/17966120380_770af0ee9b_o.jpg,44.438555555555546,26.06248055555556,,,,,,Romania,Cotroceni; Sector 6; Bucharest; 060101; Romania,hotel,cameraforensics
https://live.staticflickr.com/3006/5706428086_a579bfb44b_o.jpg,44.44830467002222,26.07088533000556,,,,,,Romania,41; Bulevardul Dinicu Golescu; Gara de Nord; Sector 1; Bucharest; 010868; Romania,hotel,cameraforensics
https://live.staticflickr.com/1457/26398592450_82c524b572_o.jpg,44.44450833333333,26.06268888888889,,,,,,Romania,Centrul comercial - Orhideea; 210-210B; Splaiul Independenței; Grozăvești; Sector 6; Bucharest; 060751; Romania,hotel,cameraforensics
https://live.staticflickr.com/8845/18155344405_c7302db252_o.jpg,44.438580555555546,26.062552777777785,,,,,,Romania,Cotroceni; Sector 6; Bucharest; 060101; Romania,hotel,cameraforensics
https://r-cf.bstatic.com/images/hotel/max1280x900/134/134422123.jpg,44.44425537,26.06562292,,,,,,Romania,145B; Calea Plevnei; Sector 6; Bucharest; 060016; Romania,hotel,cameraforensics
https://r-cf.bstatic.com/images/hotel/max1280x900/234/234234649.jpg,44.44611198,26.07301971,,,,,,Romania,Bl. 3; 35; Bulevardul Dinicu Golescu; Gara de Nord; Sector 1; Bucharest; 010866; Romania,hotel,cameraforensics
https://q-cf.bstatic.com/images/hotel/max1280x900/199/199147625.jpg,44.44561118,26.06994126,,,,,,Romania,26; Strada Inginer Pisoni; Sector 6; Bucharest; 010928; Romania,hotel,cameraforensics
https://q-cf.bstatic.com/images/hotel/max1280x900/131/131157196.jpg,44.447699,26.070091,,,,,,Romania,18; Strada Elizeu; Gara de Nord; Sector 1; Bucharest; 010948; Romania,hotel,cameraforensics
https://live.staticflickr.com/8149/29597825065_c7cabf22fe_o.jpg,44.25723333333333,28.622075,,,,,,Romania,Hotel Vega; Bulevardul Mamaia; Mamaia; Constanța; Constanta Metropolitan Area; Constanța; 900001; Romania,hotel,cameraforensics
https://r-cf.bstatic.com/images/hotel/max1280x900/192/192176890.jpg,44.256572,28.618574,,,,,,Romania,Vila Mario; 499; Bulevardul Mamaia; Mamaia; Constanța; Constanta Metropolitan Area; Constanța; 900001; Romania,hotel,cameraforensics
https://r-cf.bstatic.com/images/hotel/max1280x900/179/179984145.jpg,44.25427322,28.62150639,,,,,,Romania,Zenith Restaurant; Bulevardul Mamaia; Mamaia; Constanța; Constanta Metropolitan Area; Constanța; 900001; Romania,hotel,cameraforensics
https://r-cf.bstatic.com/images/hotel/max1280x900/186/186464534.jpg,44.257595,28.618886,,,,,,Romania,Siret; Bulevardul Mamaia; Mamaia; Constanța; Constanta Metropolitan Area; Constanța; 900001; Romania,hotel,cameraforensics
https://r-cf.bstatic.com/images/hotel/max1280x900/698/69864259.jpg,44.26009588,28.61839771,,,,,,Romania,Tabara Nord; Bulevardul Mamaia; Mamaia; Constanța; Constanta Metropolitan Area; Constanța; 900001; Romania,hotel,cameraforensics
https://q-cf.bstatic.com/images/hotel/max1280x900/150/150599289.jpg,44.25950089,28.62014604,,,,,,Romania,Hotel Orfeu; Bulevardul Mamaia; Mamaia; Constanța; Constanta Metropolitan Area; Constanța; 900001; Romania,hotel,cameraforensics
https://q-cf.bstatic.com/images/hotel/max1280x900/688/68894110.jpg,44.25332319,28.61842319,,,,,,Romania,Vila Sophia 1; 481; Bulevardul Mamaia; Mamaia; Constanța; Constanta Metropolitan Area; Constanța; 900001; Romania,hotel,cameraforensics
https://q-cf.bstatic.com/images/hotel/max1280x900/104/104396360.jpg,44.25304686,28.61828667,,,,,,Romania,Vila Sophia 1; 481; Bulevardul Mamaia; Mamaia; Constanța; Constanta Metropolitan Area; Constanța; 900001; Romania,hotel,cameraforensics
https://q-cf.bstatic.com/images/hotel/max1280x900/151/151650445.jpg,44.256572,28.618574,,,,,,Romania,Vila Mario; 499; Bulevardul Mamaia; Mamaia; Constanța; Constanta Metropolitan Area; Constanța; 900001; Romania,hotel,cameraforensics
https://r-cf.bstatic.com/images/hotel/max1280x900/137/137922861.jpg,44.25459647,28.61873559,,,,,,Romania,Vila Athena; 485; Bulevardul Mamaia; Mamaia; Constanța; Constanta Metropolitan Area; Constanța; 900001; Romania,hotel,cameraforensics
https://live.staticflickr.com/4409/36450551795_74e40ffcfa_o.jpg,44.443280555555546,26.10079444444445,,,,,,Romania,La Copac; 23; Strada Pitar Moș; Sector 1; Bucharest; 010451; Romania,hotel,cameraforensics
https://live.staticflickr.com/7548/16091861679_a689f3a938_o.jpg,44.45103055555553,26.08838888888889,,,,,,Romania,Orange; 47-53; Bulevardul Lascăr Catargiu; Sector 1; Bucharest; 010661; Romania,hotel,cameraforensics
http://static.panoramio.com/photos/original/127481833.jpg,44.441532,26.088898,,,,,,Romania,30; Strada General Henri Mathias Berthelot; Sector 1; Bucharest; 010805; Romania,hotel,cameraforensics
https://live.staticflickr.com/1262/5128802285_a94aff2ba4_o.jpg,44.44119638888889,26.09716833333333,,,,,,Romania,Ateneul Roman; 1-3; Strada Benjamin Franklin; Sector 1; Bucharest; 010287; Romania,hotel,cameraforensics
https://live.staticflickr.com/8341/8183238588_b43eb9c282_o.jpg,44.44,26.09633333333333,,,,,,Romania,Royal palace; Calea Victoriei; Sector 1; Bucharest; 010085; Romania,hotel,cameraforensics
https://live.staticflickr.com/1706/26477894271_fa0a08e6c2_o.jpg,44.44373833333334,26.0927,,,,,,Romania,128B; Calea Victoriei; Sector 1; Bucharest; 010094; Romania,hotel,cameraforensics
https://live.staticflickr.com/7767/27158486651_5e7878a22e_o.jpg,44.44526666666667,26.09566944444445,,,,,,Romania,30; Strada Biserica Amzei; Sector 1; Bucharest; 010395; Romania,hotel,cameraforensics
https://r-cf.bstatic.com/images/hotel/max1280x900/227/227662062.jpg,44.44006857,26.08490002,,,,,,Romania,71; Strada Știrbei Vodă; Sector 1; Bucharest; 010185; Romania,hotel,cameraforensics
http://www.romaniapozitiva.ro/wp-content/uploads/2019/07/Unspoken-by-Sebastian-Burneci-Orchestra-de-Cameră-Radio_BJF-2019_miercuri-3-iulie.jpg,44.440329999999996,26.09695833333333,,,,,,Romania,Carol I Central University Library; Calea Victoriei; Sector 1; Bucharest; 010026; Romania,hotel,cameraforensics
http://www.bucurestifm.ro/wp-content/uploads/sites/2/2017/03/Probleme-Trafic.jpg,44.44738336111111,26.09935886111111,,,,,,Romania,ASE; Calea Dorobanților; Dorobanți; Sector 1; Bucharest; 010555; Romania,hotel,cameraforensics
https://live.staticflickr.com/5332/9543287663_b588c8ee13_o.jpg,44.486999999999995,26.0675,,,,,,Romania,Șoseaua Străulești; Dămăroaia; Sector 1; Bucharest; 013334; Romania,hotel,cameraforensics
http://www.bucurestifm.ro/wp-content/uploads/sites/2/2019/10/Tudorache-3.jpg,44.4785766388889,26.06748961111111,,,,,,Romania,Pavilion B2; Strada Romexpo; Sector 1; Bucharest; 013702; Romania,hotel,cameraforensics
https://live.staticflickr.com/4136/4893338037_96a28c5570_o.jpg,44.47733333333333,26.058000000000003,,,,,,Romania,Țiriac Auto; 2; Bulevardul Expoziției; Sector 1; Bucharest; 012103; Romania,hotel,cameraforensics
https://q-cf.bstatic.com/images/hotel/max1280x900/186/186068263.jpg,44.48332555,26.06146405,,,,,,Romania,Cămin 4; Strada Băiculești; Dămăroaia; Sector 1; Bucharest; 013706; Romania,hotel,cameraforensics
https://live.staticflickr.com/443/32605755755_c0d6b873bd_o.jpg,44.48027777777778,26.06222222222221,,,,,,Romania,Ramada Plaza; 3-5; Bulevardul Poligrafiei; Pajura; Sector 1; Bucharest; 013704; Romania,hotel,cameraforensics
https://live.staticflickr.com/2854/9453625686_0781672b54_o.jpg,44.4775,26.07033333333333,,,,,,Romania,Romexpo; Bulevardul Expoziției; Sector 1; Bucharest; 012101; Romania,hotel,cameraforensics
https://live.staticflickr.com/5126/5265911944_c95fcfe1e8_o.jpg,44.482704999999996,26.05897583333334,,,,,,Romania,Biserica „Sfânta Vineri - Pajura”; 27; Strada Băiculești; Pajura; Sector 1; Bucharest; 013192; Romania,hotel,cameraforensics
https://www.auchan.ro/public/images/ha9/hc8/h00/hartie-igienica-rollox-10-role-8867323445278.jpg,44.48555555555557,26.0575,,,,,,Romania,16; Strada Napoca; Dămăroaia; Sector 1; Bucharest; 013274; Romania,hotel,cameraforensics
https://live.staticflickr.com/3788/9450851375_0d4efb3719_o.jpg,44.47566666666667,26.06766666666667,,,,,,Romania,Romexpo; Bulevardul Expoziției; Sector 1; Bucharest; 012101; Romania,hotel,cameraforensics
https://q-cf.bstatic.com/images/hotel/max1280x900/333/33334851.jpg,44.482147,26.0588032,,,,,,Romania,Hotel Monte Carlo Palace; 29; Strada Băiculești; Pajura; Sector 1; Bucharest; 013193; Romania,hotel,cameraforensics
https://live.staticflickr.com/4189/35229557360_8afbfd8f9f_o.jpg,44.431725,26.09884722222222,,,,,,Romania,Mănăstirea Ortodoxă „Stavropoleos”; 4; Stavropoleos Street; Old Town; Sector 3; Bucharest; 030083; Romania,hotel,cameraforensics
https://live.staticflickr.com/3857/14197727069_783b9f0eb7_o.jpg,44.43157491654443,26.09570497643611,,,,,,Romania,1; Strada Ilfov; Sector 5; Bucharest; 050045; Romania,hotel,cameraforensics
https://live.staticflickr.com/8244/28803198972_c2369b89b5_o.jpg,44.4297111111111,26.09691388888889,,,,,,Romania,Piața Națiunile Unite; Splaiul Independenței; Sector 3; Bucharest; 030021; Romania,hotel,cameraforensics
http://static.panoramio.com/photos/original/28049091.jpg,44.42921812578057,26.10202968884,,,,,,Romania,9; Strada Halelor; Sector 3; Bucharest; 030106; Romania,hotel,cameraforensics
https://live.staticflickr.com/5829/21411827815_330afb8f64_o.jpg,44.43202222222222,26.09981666666667,,,,,,Romania,Gregory's; 27; Leipzig Street; Old Town; Sector 3; Bucharest; 030032; Romania,hotel,cameraforensics
https://live.staticflickr.com/8454/8073258594_55f918dd8f_o.jpg,44.43183333333333,26.101,,,,,,Romania,38; Strada Lipscani; Centrul Istoric; Sector 3; Bucharest; 030036; Romania,hotel,cameraforensics
https://live.staticflickr.com/5743/21458785586_081e2d3a16_o.jpg,44.43666666666667,26.10066666666667,,,,,,Romania,Bl. Dunărea 1; Strada Biserica Enei; Sector 1; Bucharest; 010019; Romania,hotel,cameraforensics
http://farm8.static.flickr.com/7093/13316504813_654d260855_o.jpg,44.4325,26.10389,,,,,,Romania,Strada Sfântul Gheorghe; Centrul Istoric; Sector 3; Bucharest; 030038; Romania,hotel,cameraforensics
https://live.staticflickr.com/1539/26543199575_fcd4cc72fe_o.jpg,44.431036666666664,26.09951333333333,,,,,,Romania,3; St. Demetrius Street; Old Town; Sector 3; Bucharest; 030077; Romania,hotel,cameraforensics
https://live.staticflickr.com/4245/35067080115_e50545cdaa_o.jpg,44.429875,26.102025,,,,,,Romania,33; Strada Franceză; Old Town; Sector 3; Bucharest; 030103; Romania,hotel,cameraforensics
https://live.staticflickr.com/1581/25131454834_9a9f1bbb3e_o.jpg,44.42930277777778,26.10113611111111,,,,,,Romania,Splaiul Independenței; Sector 3; Bucharest; 030118; Romania,hotel,cameraforensics
https://live.staticflickr.com/3686/9204841691_ab034a1432_o.jpg,44.42348611111111,26.071327777777785,,,,,,Romania,Bl. P43; Calea 13 Septembrie; 13 Septembrie; Sector 5; Bucharest; 050729; Romania,hotel,cameraforensics
https://r-cf.bstatic.com/images/hotel/max1280x900/131/131907000.jpg,44.42249741,26.07150748,,,,,,Romania,Bl. T2b; Calea 13 Septembrie; 13 Septembrie; Sector 5; Bucharest; 050729; Romania,hotel,cameraforensics
https://r-cf.bstatic.com/images/hotel/max1280x900/210/210599679.jpg,44.422391999999995,26.079225100000002,,,,,,Romania,72; Strada Sabinelor; Rahova; Sector 5; Bucharest; 050855; Romania,hotel,cameraforensics
https://live.staticflickr.com/7520/15735562797_f70a96f6f6_o.jpg,44.4196375,26.081328888888887,,,,,,Romania,18; Bulevardul Tudor Vladimirescu; 13 Septembrie; Sector 5; Bucharest; 050881; Romania,hotel,cameraforensics
https://live.staticflickr.com/1486/25177024551_7fe52d8a8e_o.jpg,44.4195,26.07933333333333,,,,,,Romania,Green Gate; 22; Bulevardul Tudor Vladimirescu; 13 Septembrie; Sector 5; Bucharest; 050883; Romania,hotel,cameraforensics
https://q-cf.bstatic.com/images/hotel/max1280x900/881/88112247.jpg,44.42348060000001,26.07996197,,,,,,Romania,42; Strada Sirenelor; Rahova; Sector 5; Bucharest; 050856; Romania,hotel,cameraforensics
https://live.staticflickr.com/65535/49115658047_20f9b83d45_o.jpg,44.418744444444435,26.07591944444444,,,,,,Romania,AFI Tech Park 1; 29; Bulevardul Tudor Vladimirescu; Rahova; Sector 5; Bucharest; 050881; Romania,hotel,cameraforensics
https://q-cf.bstatic.com/images/hotel/max1280x900/210/210797492.jpg,44.42169000000001,26.082042,,,,,,Romania,36A; Strada Sabinelor; Rahova; Sector 5; Bucharest; 050855; Romania,hotel,cameraforensics
https://q-cf.bstatic.com/images/hotel/max1280x900/229/229873959.jpg,44.423429999999996,26.076812,,,,,,Romania,78; Strada Sirenelor; Rahova; Sector 5; Bucharest; 050856; Romania,hotel,cameraforensics
https://live.staticflickr.com/1591/25175370006_c006909cbc_o.jpg,44.41916666666667,26.07866666666667,,,,,,Romania,28-30; Bulevardul Tudor Vladimirescu; 13 Septembrie; Sector 5; Bucharest; 050881; Romania,hotel,cameraforensics
https://live.staticflickr.com/1500/24953109174_3dfa9ca6af_o.jpg,44.4356388888889,26.09473333333333,,,,,,Romania,24; Strada Ion Brezoianu; Sector 5; Bucharest; 010136; Romania,hotel,cameraforensics
https://r-cf.bstatic.com/images/hotel/max1280x900/182/182437757.jpg,44.44106073,26.10114925,,,,,,Romania,Scala; Strada C. A. Rosetti; Sector 2; Bucharest; 020952; Romania,hotel,cameraforensics
https://r-cf.bstatic.com/images/hotel/max1280x900/155/155845077.jpg,44.43827663,26.10391803,,,,,,Romania,24; Strada Tudor Arghezi; Sector 2; Bucharest; 020946; Romania,hotel,cameraforensics
https://live.staticflickr.com/1458/26645644866_c94fd196e4_o.jpg,44.431944444444454,26.10071666666667,,,,,,Romania,41; Leipzig Street; Old Town; Sector 3; Bucharest; 030032; Romania,hotel,cameraforensics
https://live.staticflickr.com/4245/34434825504_3083f4506b_o.jpg,44.473725,26.06590555555556,,,,,,Romania,1;1A; Bulevardul Expoziției; Sector 1; Bucharest; 012101; Romania,hotel,cameraforensics
https://live.staticflickr.com/4195/35112101132_a30fe4942a_o.jpg,44.473836111111105,26.06508333333333,,,,,,Romania,1B; Bulevardul Expoziției; Sector 1; Bucharest; 012101; Romania,hotel,cameraforensics
https://live.staticflickr.com/2728/4423048560_d6f82fe6d2_o.jpg,44.4755,26.06983333333333,,,,,,Romania,Hotel Pullman Bucharest World Trade Center; 10; Piața Montreal; Sector 1; Bucharest; 011469; Romania,hotel,cameraforensics
https://live.staticflickr.com/7514/16047555276_2905027bf9_o.jpg,44.1735,28.65933333333333,,,,,,Romania,1; Strada Arhiepiscopiei; Peninsulă; Constanța; Constanta Metropolitan Area; Constanța; 900732; Romania,hotel,cameraforensics
http://static.panoramio.com/photos/original/51345184.jpg,44.1721034771861,28.65834847663611,,,,,,Romania,Roman Baths; Strada Termele Romane; Peninsulă; Constanța; Constanta Metropolitan Area; Constanța; 900743; Romania,hotel,cameraforensics
http://www.radioconstanta.ro/wp-content/uploads/sites/9/2016/06/20160628_101452.jpg,44.17468261111111,28.658439611111113,,,,,,Romania,Strada Orient; Peninsulă; Constanța; Constanta Metropolitan Area; Constanța; 900744; Romania,hotel,cameraforensics
https://live.staticflickr.com/4662/40013028851_a66a158613_o.jpg,44.17572591666666,28.65131533333333,,,,,,Romania,Strada Traian; Zona Centrală; Constanța; Constanta Metropolitan Area; Constanța; 900725; Romania,hotel,cameraforensics
https://live.staticflickr.com/876/40594324114_819612c8bd_o.jpg,44.176536111111105,28.66013611111111,,,,,,Romania,Strada Marinei; Peninsulă; Constanța; Constanta Metropolitan Area; Constanța; 900660; Romania,hotel,cameraforensics
https://r-cf.bstatic.com/images/hotel/max1280x900/145/145122928.jpg,44.18117296,28.6519146,,,,,,Romania,Hotel Chérica; 4; Strada Ștefan cel Mare; Zona Centrală; Constanța; Constanta Metropolitan Area; Constanța; 900658; Romania,hotel,cameraforensics
https://q-cf.bstatic.com/images/hotel/max1280x900/207/207128200.jpg,44.1766797,28.6548142,,,,,,Romania,8; Strada Vasile Alecsandri; Peninsulă; Constanța; Constanta Metropolitan Area; Constanța; 900743; Romania,hotel,cameraforensics
https://r-cf.bstatic.com/images/hotel/max1280x900/161/161625176.jpg,44.1748,28.649331,,,,,,Romania,Hotel Ten Colonadelor; 53; Strada Traian; ICIL; Zona Centrală; Constanța; Constanta Metropolitan Area; Constanța; 900178; Romania,hotel,cameraforensics
https://q-cf.bstatic.com/images/hotel/max1280x900/148/148858878.jpg,44.180217,28.651377,,,,,,Romania,Hotel Traian; 36; Strada Mihail Kogălniceanu; Zona Centrală; Constanța; Constanta Metropolitan Area; Constanța; 900659; Romania,hotel,cameraforensics
https://q-cf.bstatic.com/images/hotel/max1280x900/187/187451446.jpg,44.180143,28.649128,,,,,,Romania,Casa Tomis; 1; Strada Griviței; Zona Centrală; Constanța; Constanta Metropolitan Area; Constanța; 900727; Romania,hotel,cameraforensics
https://live.staticflickr.com/2927/14524216255_c6a7e762a7_o.jpg,44.42781944444447,26.090077777777786,,,,,,Romania,Bulevardul Libertății; Centrul Civic; Sector 5; Bucharest; 050706; Romania,hotel,cameraforensics
https://live.staticflickr.com/8124/8628454519_7b77be6288_o.jpg,44.42803955078055,26.08791542053334,,,,,,Romania,Palace of the Parliament; 2-4; Strada Izvor; Centrul Civic; Sector 5; Bucharest; 050563; Romania,hotel,cameraforensics
https://live.staticflickr.com/8391/8628307491_ca706805cc_o.jpg,44.42803955078055,26.08791542053334,,,,,,Romania,Palace of the Parliament; 2-4; Strada Izvor; Centrul Civic; Sector 5; Bucharest; 050563; Romania,hotel,cameraforensics
https://live.staticflickr.com/3881/14523181532_3971e8d55f_o.jpg,44.42744166666667,26.08809166666667,,,,,,Romania,Palace of the Parliament; 2-4; Strada Izvor; Centrul Civic; Sector 5; Bucharest; 050563; Romania,hotel,cameraforensics
https://r-cf.bstatic.com/images/hotel/max1280x900/134/134687771.jpg,44.433656,26.08812,,,,,,Romania,56; Splaiul Independenței; Sector 5; Bucharest; 050085; Romania,hotel,cameraforensics
https://live.staticflickr.com/7592/16287285194_3ec6d63484_o.jpg,44.43136166666667,26.08941,,,,,,Romania,Bulevardul Națiunile Unite; Centrul Civic; Sector 5; Bucharest; 010865; Romania,hotel,cameraforensics
https://live.staticflickr.com/4302/36120359765_64d76c971b_o.jpg,44.4274638888889,26.08893611111111,,,,,,Romania,Palace of the Parliament; 2-4; Strada Izvor; Centrul Civic; Sector 5; Bucharest; 050563; Romania,hotel,cameraforensics
https://live.staticflickr.com/8387/8629596730_6cb5f62ff6_o.jpg,44.428371429444454,26.08744430541945,,,,,,Romania,Palace of the Parliament; 2-4; Strada Izvor; Centrul Civic; Sector 5; Bucharest; 050563; Romania,hotel,cameraforensics
https://live.staticflickr.com/4338/37309015121_e846e7eb0e_o.jpg,44.43182777777778,26.088586111111113,,,,,,Romania,Izvor; Splaiul Independenței; Sector 5; Bucharest; 050085; Romania,hotel,cameraforensics
https://live.staticflickr.com/1669/26564785262_13be2fe3c1_o.jpg,44.45368333333333,26.08831666666667,,,,,,Romania,9; Strada Duiliu Zamfirescu; Dorobanți; Sector 1; Bucharest; 011811; Romania,hotel,cameraforensics
https://live.staticflickr.com/1556/26622431795_bdca462ca9_o.jpg,44.454161111111105,26.08942222222222,,,,,,Romania,30; Strada Argentina; Dorobanți; Sector 1; Bucharest; 011754; Romania,hotel,cameraforensics
https://q-cf.bstatic.com/images/hotel/max1280x900/220/220815256.jpg,44.4481,26.094,,,,,,Romania,15; Bulevardul Lascăr Catargiu; Sector 1; Bucharest; 010661; Romania,hotel,cameraforensics
https://live.staticflickr.com/8240/8664673563_c0f101bea1_o.jpg,44.44816666666667,26.09266666666667,,,,,,Romania,2; Strada Amiral Vasile Urseanu; Sector 1; Bucharest; 010662; Romania,hotel,cameraforensics
https://live.staticflickr.com/2812/9994541075_84cb172f4b_o.jpg,44.44884166666667,26.08873333333333,,,,,,Romania,141; Calea Victoriei; Sector 1; Bucharest; 010099; Romania,hotel,cameraforensics
https://live.staticflickr.com/7465/15997131782_98bea48168_o.jpg,44.450508111111105,26.094318388888887,,,,,,Romania,7; Strada Vasile Alecsandri; Dorobanți; Sector 1; Bucharest; 010638; Romania,hotel,cameraforensics
https://r-cf.bstatic.com/images/hotel/max1280x900/119/119194678.jpg,44.44677277,26.09797264,,,,,,Romania,26; Bulevardul Dacia; Sector 1; Bucharest; 010413; Romania,hotel,cameraforensics
https://q-cf.bstatic.com/images/hotel/max1280x900/230/230111693.jpg,44.44230526,26.09795398,,,,,,Romania,First Bank; 7; Bulevardul General Gheorghe Magheru; Sector 1; Bucharest; 010312; Romania,hotel,cameraforensics
https://q-cf.bstatic.com/images/hotel/max1280x900/140/140627867.jpg,44.442089,26.10742,,,,,,Romania,12; Strada Sfântul Spiridon; Sector 2; Bucharest; 020986; Romania,hotel,cameraforensics
https://live.staticflickr.com/7196/13887904987_45c894e661_o.jpg,44.416319444444454,26.03989444444445,,,,,,Romania,Premier Palace Hotel & Spa; Bulevardul Ghencea; Ghencea; Sector 6; Bucharest; 061699; Romania,hotel,cameraforensics
https://live.staticflickr.com/1632/25690370164_27e9547de4_o.jpg,44.41772841666667,26.03499983333333,,,,,,Romania,1 Mai; Bulevardul 1 Mai; Drumul Taberei; Sector 6; Bucharest; 061634; Romania,hotel,cameraforensics
https://q-cf.bstatic.com/images/hotel/max1280x900/235/235551145.jpg,44.413461,26.030741,,,,,,Romania,1; Strada Cooperativei; Ghencea; Sector 6; Bucharest; 052755; Romania,hotel,cameraforensics
https://r-cf.bstatic.com/images/hotel/max1280x900/173/173297804.jpg,44.41639246,26.03986546,,,,,,Romania,Premier Palace Hotel & Spa; Bulevardul Ghencea; Ghencea; Sector 6; Bucharest; 061699; Romania,hotel,cameraforensics
https://r-cf.bstatic.com/images/hotel/max1280x900/221/221070484.jpg,44.4144841,26.03165809,,,,,,Romania,Bl. Z8; Strada Valea Roșie; Drumul Taberei; Sector 6; Bucharest; 061733; Romania,hotel,cameraforensics
https://live.staticflickr.com/4719/26434273208_490490c4a5_o.jpg,44.41833333333334,26.0425,,,,,,Romania,Bl. C14; Strada Constantin Titel Petrescu; Tudor Vladimirescu; Ghencea; Sector 6; Bucharest; 061627; Romania,hotel,cameraforensics
https://live.staticflickr.com/8301/7986548707_41094746a6_o.jpg,44.42016666666667,26.04583333333333,,,,,,Romania,Bl. G10; Aleea Compozitorilor; Drumul Taberei; Sector 6; Bucharest; 061601; Romania,hotel,cameraforensics
https://www.auchan.ro/public/images/h3d/h83/h00/mini-bagheta-snack-4-u-cu-pastrama-si-mozzarella-160-g-8908137136158.jpg,44.41411944444447,26.033188888888887,,,,,,Romania,Drumul Taberei; Sector 6; Bucharest; 061704; Romania,hotel,cameraforensics
https://live.staticflickr.com/790/40595116615_eb61d2f104_o.jpg,44.415,26.04444444444444,,,,,,Romania,CSA Steaua; Bulevardul Ghencea; Ghencea; Sector 6; Bucharest; 061695; Romania,hotel,cameraforensics
https://www.auchan.ro/public/images/hab/h1e/h00/legume-la-caserola-8907001495582.jpg,44.416944444444454,26.035277777777786,,,,,,Romania,Centrul Comercial Drumul Taberelor; 25; Strada Brașov; Drumul Taberei; Sector 6; Bucharest; 061444; Romania,hotel,cameraforensics
https://r-cf.bstatic.com/images/hotel/max1280x900/151/151278753.jpg,44.00048995,22.97791526,2020-02-23T07:33:30+0000,900.0,1200.0,,,Romania,Travel Free; DN56; Basarabi; Calafat; Dolj; 205200; Romania,hotel,cameraforensics
https://q-cf.bstatic.com/images/hotel/max1280x900/803/80312507.jpg,43.99343703,22.93090082,2019-12-21T16:03:54+0000,300.0,452.0,,,Romania,Hotel Coliseum; Strada Gheorghe Doja; Calafat; Dolj; 205200; Romania,hotel,cameraforensics
https://q-cf.bstatic.com/images/hotel/max1280x900/129/129745739.jpg,43.99343703,22.93090082,2020-01-17T11:29:27+0000,664.0,1000.0,,,Romania,Hotel Coliseum; Strada Gheorghe Doja; Calafat; Dolj; 205200; Romania,hotel,cameraforensics
https://q-cf.bstatic.com/images/hotel/max1280x900/129/129745734.jpg,43.99343703,22.93090082,2019-12-08T18:32:15+0000,664.0,1000.0,,,Romania,Hotel Coliseum; Strada Gheorghe Doja; Calafat; Dolj; 205200; Romania,hotel,cameraforensics
https://q-cf.bstatic.com/images/hotel/max1280x900/151/151278635.jpg,44.00048995,22.97791526,2020-01-18T12:17:42+0000,900.0,1200.0,,,Romania,Travel Free; DN56; Basarabi; Calafat; Dolj; 205200; Romania,hotel,cameraforensics
https://q-cf.bstatic.com/images/hotel/max1280x900/151/151279727.jpg,44.00048995,22.97791526,2019-12-09T02:31:54+0000,900.0,1200.0,,,Romania,Travel Free; DN56; Basarabi; Calafat; Dolj; 205200; Romania,hotel,cameraforensics
https://r-cf.bstatic.com/images/hotel/max1280x900/142/142204639.jpg,43.995490999999994,22.933122,2020-04-02T21:23:58+0000,900.0,675.0,,,Romania,Hotel Marincu; Strada Traian; Calafat; Dolj; 205200; Romania,hotel,cameraforensics
https://q-cf.bstatic.com/images/hotel/max1280x900/148/148184612.jpg,44.00048995,22.97791526,2019-12-09T02:31:53+0000,720.0,960.0,,,Romania,Travel Free; DN56; Basarabi; Calafat; Dolj; 205200; Romania,hotel,cameraforensics
https://r-cf.bstatic.com/images/hotel/max1280x900/129/129745763.jpg,43.99343703,22.93090082,2020-02-08T08:51:49+0000,664.0,1000.0,,,Romania,Hotel Coliseum; Strada Gheorghe Doja; Calafat; Dolj; 205200; Romania,hotel,cameraforensics
https://q-cf.bstatic.com/images/hotel/max1280x900/148/148183473.jpg,44.00048995,22.97791526,2020-01-20T00:55:11+0000,720.0,960.0,,,Romania,Travel Free; DN56; Basarabi; Calafat; Dolj; 205200; Romania,hotel,cameraforensics
https://r-cf.bstatic.com/images/hotel/max1280x900/803/80312511.jpg,43.99343703,22.93090082,2020-02-08T08:45:10+0000,719.0,1280.0,,,Romania,Hotel Coliseum; Strada Gheorghe Doja; Calafat; Dolj; 205200; Romania,hotel,cameraforensics
https://q-cf.bstatic.com/images/hotel/max1280x900/148/148162162.jpg,44.00048995,22.97791526,2020-01-20T19:36:44+0000,720.0,1280.0,,,Romania,Travel Free; DN56; Basarabi; Calafat; Dolj; 205200; Romania,hotel,cameraforensics
https://q-cf.bstatic.com/images/hotel/max1280x900/803/80312519.jpg,43.99343703,22.93090082,2020-01-02T16:47:54+0000,377.0,623.0,,,Romania,Hotel Coliseum; Strada Gheorghe Doja; Calafat; Dolj; 205200; Romania,hotel,cameraforensics
https://q-cf.bstatic.com/images/hotel/max1280x900/129/129745753.jpg,43.99343703,22.93090082,2020-02-05T21:45:09+0000,664.0,1000.0,,,Romania,Hotel Coliseum; Strada Gheorghe Doja; Calafat; Dolj; 205200; Romania,hotel,cameraforensics
https://r-cf.bstatic.com/images/hotel/max1280x900/151/151279861.jpg,44.00048995,22.97791526,2020-03-02T18:07:56+0000,900.0,1200.0,,,Romania,Travel Free; DN56; Basarabi; Calafat; Dolj; 205200; Romania,hotel,cameraforensics
https://q-cf.bstatic.com/images/hotel/max1280x900/151/151279255.jpg,44.00048995,22.97791526,2019-12-07T11:49:42+0000,900.0,1200.0,,,Romania,Travel Free; DN56; Basarabi; Calafat; Dolj; 205200; Romania,hotel,cameraforensics
https://r-cf.bstatic.com/images/hotel/max1280x900/148/148409461.jpg,44.00048995,22.97791526,2019-12-08T21:49:27+0000,394.0,1280.0,,,Romania,Travel Free; DN56; Basarabi; Calafat; Dolj; 205200; Romania,hotel,cameraforensics
https://r-cf.bstatic.com/images/hotel/max1280x900/129/129745728.jpg,43.99343703,22.93090082,2020-02-10T21:43:25+0000,664.0,1000.0,,,Romania,Hotel Coliseum; Strada Gheorghe Doja; Calafat; Dolj; 205200; Romania,hotel,cameraforensics
https://r-cf.bstatic.com/images/hotel/max1280x900/142/142204640.jpg,43.995490999999994,22.933122,2020-05-20T23:00:52+0000,900.0,675.0,,,Romania,Hotel Marincu; Strada Traian; Calafat; Dolj; 205200; Romania,hotel,cameraforensics
https://r-cf.bstatic.com/images/hotel/max1280x900/129/129745742.jpg,43.99343703,22.93090082,2020-01-02T01:08:33+0000,664.0,1000.0,,,Romania,Hotel Coliseum; Strada Gheorghe Doja; Calafat; Dolj; 205200; Romania,hotel,cameraforensics
https://r-cf.bstatic.com/images/hotel/max1280x900/803/80312509.jpg,43.99343703,22.93090082,2020-01-13T12:01:47+0000,430.0,640.0,,,Romania,Hotel Coliseum; Strada Gheorghe Doja; Calafat; Dolj; 205200; Romania,hotel,cameraforensics
https://q-cf.bstatic.com/images/hotel/max1280x900/129/129745750.jpg,43.99343703,22.93090082,2020-02-06T07:13:53+0000,664.0,1000.0,,,Romania,Hotel Coliseum; Strada Gheorghe Doja; Calafat; Dolj; 205200; Romania,hotel,cameraforensics
https://r-cf.bstatic.com/images/hotel/max1280x900/129/129745745.jpg,43.99343703,22.93090082,2020-02-08T20:56:22+0000,664.0,1000.0,,,Romania,Hotel Coliseum; Strada Gheorghe Doja; Calafat; Dolj; 205200; Romania,hotel,cameraforensics
https://r-cf.bstatic.com/images/hotel/max1280x900/803/80312506.jpg,43.99343703,22.93090082,2020-02-08T20:56:23+0000,430.0,640.0,,,Romania,Hotel Coliseum; Strada Gheorghe Doja; Calafat; Dolj; 205200; Romania,hotel,cameraforensics
https://r-cf.bstatic.com/images/hotel/max1280x900/151/151280164.jpg,44.00048995,22.97791526,2020-02-23T07:02:06+0000,900.0,1200.0,,,Romania,Travel Free; DN56; Basarabi; Calafat; Dolj; 205200; Romania,hotel,cameraforensics
https://r-cf.bstatic.com/images/hotel/max1280x900/129/129745735.jpg,43.99343703,22.93090082,2020-02-22T13:50:13+0000,664.0,1000.0,,,Romania,Hotel Coliseum; Strada Gheorghe Doja; Calafat; Dolj; 205200; Romania,hotel,cameraforensics
https://q-cf.bstatic.com/images/hotel/max1280x900/142/142204631.jpg,43.995490999999994,22.933122,2020-04-04T00:09:12+0000,900.0,675.0,,,Romania,Hotel Marincu; Strada Traian; Calafat; Dolj; 205200; Romania,hotel,cameraforensics
https://q-cf.bstatic.com/images/hotel/max1280x900/129/129745756.jpg,43.99343703,22.93090082,2019-12-08T18:32:17+0000,664.0,1000.0,,,Romania,Hotel Coliseum; Strada Gheorghe Doja; Calafat; Dolj; 205200; Romania,hotel,cameraforensics
https://q-cf.bstatic.com/images/hotel/max1280x900/129/129745744.jpg,43.99343703,22.93090082,2019-12-08T18:32:16+0000,664.0,1000.0,,,Romania,Hotel Coliseum; Strada Gheorghe Doja; Calafat; Dolj; 205200; Romania,hotel,cameraforensics
https://q-cf.bstatic.com/images/hotel/max1280x900/198/198926137.jpg,44.00048995,22.97791526,2020-01-20T19:36:46+0000,900.0,1200.0,,,Romania,Travel Free; DN56; Basarabi; Calafat; Dolj; 205200; Romania,hotel,cameraforensics
https://q-cf.bstatic.com/images/hotel/max1280x900/148/148184615.jpg,44.00048995,22.97791526,2020-01-20T19:36:45+0000,540.0,960.0,,,Romania,Travel Free; DN56; Basarabi; Calafat; Dolj; 205200; Romania,hotel,cameraforensics
https://r-cf.bstatic.com/images/hotel/max1280x900/151/151280126.jpg,44.00048995,22.97791526,2020-01-10T17:10:31+0000,900.0,1200.0,,,Romania,Travel Free; DN56; Basarabi; Calafat; Dolj; 205200; Romania,hotel,cameraforensics
https://r-cf.bstatic.com/images/hotel/max1280x900/198/198926144.jpg,44.00048995,22.97791526,2020-03-02T20:00:35+0000,900.0,1200.0,,,Romania,Travel Free; DN56; Basarabi; Calafat; Dolj; 205200; Romania,hotel,cameraforensics
https://q-cf.bstatic.com/images/hotel/max1280x900/129/129745748.jpg,43.99343703,22.93090082,2020-02-05T21:35:10+0000,664.0,1000.0,,,Romania,Hotel Coliseum; Strada Gheorghe Doja; Calafat; Dolj; 205200; Romania,hotel,cameraforensics
https://q-cf.bstatic.com/images/hotel/max1280x900/129/129745761.jpg,43.99343703,22.93090082,2020-02-05T22:05:47+0000,900.0,598.0,,,Romania,Hotel Coliseum; Strada Gheorghe Doja; Calafat; Dolj; 205200; Romania,hotel,cameraforensics
https://r-cf.bstatic.com/images/hotel/max1280x900/148/148408271.jpg,44.00048995,22.97791526,2019-12-08T21:49:26+0000,720.0,960.0,,,Romania,Travel Free; DN56; Basarabi; Calafat; Dolj; 205200; Romania,hotel,cameraforensics
https://q-cf.bstatic.com/images/hotel/max1280x900/803/80312515.jpg,43.99343703,22.93090082,2020-03-08T00:15:47+0000,430.0,640.0,,,Romania,Hotel Coliseum; Strada Gheorghe Doja; Calafat; Dolj; 205200; Romania,hotel,cameraforensics
https://r-cf.bstatic.com/images/hotel/max1280x900/803/80312517.jpg,43.99343703,22.93090082,2020-02-10T22:12:28+0000,470.0,700.0,,,Romania,Hotel Coliseum; Strada Gheorghe Doja; Calafat; Dolj; 205200; Romania,hotel,cameraforensics
https://r-cf.bstatic.com/images/hotel/max1280x900/151/151278708.jpg,44.00048995,22.97791526,2020-01-02T16:31:21+0000,900.0,1200.0,,,Romania,Travel Free; DN56; Basarabi; Calafat; Dolj; 205200; Romania,hotel,cameraforensics
https://q-cf.bstatic.com/images/hotel/max1280x900/151/151279694.jpg,44.00048995,22.97791526,2020-01-06T21:39:50+0000,900.0,1200.0,,,Romania,Travel Free; DN56; Basarabi; Calafat; Dolj; 205200; Romania,hotel,cameraforensics
https://r-cf.bstatic.com/images/hotel/max1280x900/148/148408732.jpg,44.00048995,22.97791526,2019-12-31T08:44:33+0000,900.0,675.0,,,Romania,Travel Free; DN56; Basarabi; Calafat; Dolj; 205200; Romania,hotel,cameraforensics
https://q-cf.bstatic.com/images/hotel/max1280x900/148/148162158.jpg,44.00048995,22.97791526,2020-02-10T02:41:07+0000,720.0,960.0,,,Romania,Travel Free; DN56; Basarabi; Calafat; Dolj; 205200; Romania,hotel,cameraforensics
https://r-cf.bstatic.com/images/hotel/max1280x900/151/151279323.jpg,44.00048995,22.97791526,2020-02-13T03:27:35+0000,900.0,1200.0,,,Romania,Travel Free; DN56; Basarabi; Calafat; Dolj; 205200; Romania,hotel,cameraforensics
https://q-cf.bstatic.com/images/hotel/max1280x900/222/22250775.jpg,43.71350105,24.77068841,2020-10-13T13:55:14+0000,857.0,1280.0,,,Romania,Strada Dunării; Islaz; Teleorman; 147160; Romania,hotel,cameraforensics
https://q-cf.bstatic.com/images/hotel/max1280x900/118/118550872.jpg,43.74892379999999,24.8670129,2020-01-14T13:14:40+0000,900.0,1200.0,,,Romania,Gojnea gabriel; Strada Mihai Bravu; Turnu Măgurele; Teleorman; 145200; Romania,hotel,cameraforensics
https://q-cf.bstatic.com/images/hotel/max1280x900/205/205818228.jpg,43.765159000000004,24.846413000000002,2019-10-31T09:21:37+0000,900.0,1200.0,,,Romania,Turnu Măgurele; Teleorman; 145200; Romania,hotel,cameraforensics
https://r-cf.bstatic.com/images/hotel/max1280x900/222/22251369.jpg,43.71350105,24.77068841,2020-11-03T19:40:18+0000,857.0,1280.0,,,Romania,Strada Dunării; Islaz; Teleorman; 147160; Romania,hotel,cameraforensics
https://q-cf.bstatic.com/images/hotel/max1280x900/210/210616945.jpg,43.74863787,24.86808643,2020-01-20T00:13:16+0000,900.0,675.0,,,Romania,G1; Strada General Praporgescu; Turnu Măgurele; Teleorman; 145200; Romania,hotel,cameraforensics
https://r-cf.bstatic.com/images/hotel/max1280x900/210/210616938.jpg,43.74863787,24.86808643,2020-02-08T18:40:15+0000,900.0,675.0,,,Romania,G1; Strada General Praporgescu; Turnu Măgurele; Teleorman; 145200; Romania,hotel,cameraforensics
https://q-cf.bstatic.com/images/hotel/max1280x900/222/22251061.jpg,43.71350105,24.77068841,2020-11-29T06:55:26+0000,857.0,1280.0,,,Romania,Strada Dunării; Islaz; Teleorman; 147160; Romania,hotel,cameraforensics
https://r-cf.bstatic.com/images/hotel/max1280x900/222/22250814.jpg,43.71350105,24.77068841,2020-08-21T11:03:31+0000,857.0,1280.0,,,Romania,Strada Dunării; Islaz; Teleorman; 147160; Romania,hotel,cameraforensics
https://r-cf.bstatic.com/images/hotel/max1280x900/655/65588764.jpg,43.71350105,24.77068841,2020-08-21T11:03:33+0000,900.0,1200.0,,,Romania,Strada Dunării; Islaz; Teleorman; 147160; Romania,hotel,cameraforensics
https://q-cf.bstatic.com/images/hotel/max1280x900/210/210616952.jpg,43.74863787,24.86808643,2020-01-13T06:14:55+0000,900.0,675.0,,,Romania,G1; Strada General Praporgescu; Turnu Măgurele; Teleorman; 145200; Romania,hotel,cameraforensics
https://r-cf.bstatic.com/images/hotel/max1280x900/135/135098884.jpg,43.71350105,24.77068841,2020-11-02T13:34:44+0000,900.0,600.0,,,Romania,Strada Dunării; Islaz; Teleorman; 147160; Romania,hotel,cameraforensics
https://q-cf.bstatic.com/images/hotel/max1280x900/655/65588745.jpg,43.71350105,24.77068841,2020-10-23T17:40:13+0000,857.0,1280.0,,,Romania,Strada Dunării; Islaz; Teleorman; 147160; Romania,hotel,cameraforensics
https://q-cf.bstatic.com/images/hotel/max1280x900/222/22251134.jpg,43.71350105,24.77068841,2020-10-23T17:33:40+0000,813.0,1280.0,,,Romania,Strada Dunării; Islaz; Teleorman; 147160; Romania,hotel,cameraforensics
https://r-cf.bstatic.com/images/hotel/max1280x900/197/197251759.jpg,43.765159000000004,24.846413000000002,2020-01-23T20:27:42+0000,900.0,1200.0,,,Romania,Turnu Măgurele; Teleorman; 145200; Romania,hotel,cameraforensics
https://q-cf.bstatic.com/images/hotel/max1280x900/222/22250653.jpg,43.71350105,24.77068841,2020-10-06T12:30:36+0000,857.0,1280.0,,,Romania,Strada Dunării; Islaz; Teleorman; 147160; Romania,hotel,cameraforensics
https://q-cf.bstatic.com/images/hotel/max1280x900/210/210616956.jpg,43.74863787,24.86808643,2020-02-09T00:34:28+0000,900.0,675.0,,,Romania,G1; Strada General Praporgescu; Turnu Măgurele; Teleorman; 145200; Romania,hotel,cameraforensics
https://r-cf.bstatic.com/images/hotel/max1280x900/222/22250573.jpg,43.71350105,24.77068841,2020-12-18T14:20:01+0000,478.0,717.0,,,Romania,Strada Dunării; Islaz; Teleorman; 147160; Romania,hotel,cameraforensics
https://q-cf.bstatic.com/images/hotel/max1280x900/197/197251494.jpg,43.765159000000004,24.846413000000002,2019-10-30T01:24:03+0000,900.0,675.0,,,Romania,Turnu Măgurele; Teleorman; 145200; Romania,hotel,cameraforensics
https://r-cf.bstatic.com/images/hotel/max1280x900/655/65589233.jpg,43.71350105,24.77068841,2020-07-28T04:51:48+0000,857.0,1280.0,,,Romania,Strada Dunării; Islaz; Teleorman; 147160; Romania,hotel,cameraforensics
https://q-cf.bstatic.com/images/hotel/max1280x900/118/118550916.jpg,43.74892379999999,24.8670129,2020-01-05T16:12:12+0000,900.0,1200.0,,,Romania,Gojnea gabriel; Strada Mihai Bravu; Turnu Măgurele; Teleorman; 145200; Romania,hotel,cameraforensics
https://r-cf.bstatic.com/images/hotel/max1280x900/210/210616948.jpg,43.74863787,24.86808643,2020-02-11T17:20:17+0000,900.0,675.0,,,Romania,G1; Strada General Praporgescu; Turnu Măgurele; Teleorman; 145200; Romania,hotel,cameraforensics
https://r-cf.bstatic.com/images/hotel/max1280x900/222/22250705.jpg,43.71350105,24.77068841,2020-10-12T15:52:36+0000,857.0,1280.0,,,Romania,Strada Dunării; Islaz; Teleorman; 147160; Romania,hotel,cameraforensics
https://q-cf.bstatic.com/images/hotel/max1280x900/222/22250552.jpg,43.71350105,24.77068841,2020-11-04T04:21:08+0000,853.0,1280.0,,,Romania,Strada Dunării; Islaz; Teleorman; 147160; Romania,hotel,cameraforensics
https://q-cf.bstatic.com/images/hotel/max1280x900/222/22251274.jpg,43.71350105,24.77068841,2020-05-21T09:43:16+0000,857.0,1280.0,,,Romania,Strada Dunării; Islaz; Teleorman; 147160; Romania,hotel,cameraforensics
https://r-cf.bstatic.com/images/hotel/max1280x900/519/51931838.jpg,43.71350105,24.77068841,2020-10-26T04:39:00+0000,857.0,1280.0,,,Romania,Strada Dunării; Islaz; Teleorman; 147160; Romania,hotel,cameraforensics
https://r-cf.bstatic.com/images/hotel/max1280x900/197/197251678.jpg,43.765159000000004,24.846413000000002,2020-01-06T16:04:29+0000,900.0,1200.0,,,Romania,Turnu Măgurele; Teleorman; 145200; Romania,hotel,cameraforensics
https://q-cf.bstatic.com/images/hotel/max1280x900/210/210616969.jpg,43.74863787,24.86808643,2020-01-18T06:15:27+0000,900.0,675.0,,,Romania,G1; Strada General Praporgescu; Turnu Măgurele; Teleorman; 145200; Romania,hotel,cameraforensics
https://q-cf.bstatic.com/images/hotel/max1280x900/210/210616943.jpg,43.74863787,24.86808643,2020-01-18T09:34:55+0000,900.0,675.0,,,Romania,G1; Strada General Praporgescu; Turnu Măgurele; Teleorman; 145200; Romania,hotel,cameraforensics
https://r-cf.bstatic.com/images/hotel/max1280x900/519/51931720.jpg,43.71350105,24.77068841,2020-11-03T19:40:20+0000,857.0,1280.0,,,Romania,Strada Dunării; Islaz; Teleorman; 147160; Romania,hotel,cameraforensics
https://q-cf.bstatic.com/images/hotel/max1280x900/197/197251539.jpg,43.765159000000004,24.846413000000002,2019-12-29T08:54:32+0000,900.0,1200.0,,,Romania,Turnu Măgurele; Teleorman; 145200; Romania,hotel,cameraforensics
https://q-cf.bstatic.com/images/hotel/max1280x900/205/205646073.jpg,43.765159000000004,24.846413000000002,2020-01-03T17:34:23+0000,900.0,1200.0,,,Romania,Turnu Măgurele; Teleorman; 145200; Romania,hotel,cameraforensics
https://q-cf.bstatic.com/images/hotel/max1280x900/210/210616967.jpg,43.74863787,24.86808643,2020-01-19T23:30:44+0000,900.0,675.0,,,Romania,G1; Strada General Praporgescu; Turnu Măgurele; Teleorman; 145200; Romania,hotel,cameraforensics
https://r-cf.bstatic.com/images/hotel/max1280x900/176/176877075.jpg,43.765159000000004,24.846413000000002,2020-01-10T08:59:55+0000,900.0,900.0,,,Romania,Turnu Măgurele; Teleorman; 145200; Romania,hotel,cameraforensics
https://r-cf.bstatic.com/images/hotel/max1280x900/118/118550793.jpg,43.74892379999999,24.8670129,2020-01-27T11:52:19+0000,900.0,675.0,,,Romania,Gojnea gabriel; Strada Mihai Bravu; Turnu Măgurele; Teleorman; 145200; Romania,hotel,cameraforensics
https://r-cf.bstatic.com/images/hotel/max1280x900/222/22250867.jpg,43.71350105,24.77068841,2020-06-14T14:06:55+0000,857.0,1280.0,,,Romania,Strada Dunării; Islaz; Teleorman; 147160; Romania,hotel,cameraforensics
https://r-cf.bstatic.com/images/hotel/max1280x900/197/197251280.jpg,43.765159000000004,24.846413000000002,2019-12-08T20:17:45+0000,900.0,1200.0,,,Romania,Turnu Măgurele; Teleorman; 145200; Romania,hotel,cameraforensics
https://r-cf.bstatic.com/images/hotel/max1280x900/519/51931639.jpg,43.71350105,24.77068841,2020-06-14T14:06:56+0000,857.0,1280.0,,,Romania,Strada Dunării; Islaz; Teleorman; 147160; Romania,hotel,cameraforensics
https://q-cf.bstatic.com/images/hotel/max1280x900/222/22251023.jpg,43.71350105,24.77068841,2020-11-14T15:16:11+0000,857.0,1280.0,,,Romania,Strada Dunării; Islaz; Teleorman; 147160; Romania,hotel,cameraforensics
https://r-cf.bstatic.com/images/hotel/max1280x900/222/22250963.jpg,43.71350105,24.77068841,2020-11-21T06:54:15+0000,857.0,1280.0,,,Romania,Strada Dunării; Islaz; Teleorman; 147160; Romania,hotel,cameraforensics
https://r-cf.bstatic.com/images/hotel/max1280x900/222/22250541.jpg,43.71350105,24.77068841,2020-06-19T20:11:23+0000,857.0,1280.0,,,Romania,Strada Dunării; Islaz; Teleorman; 147160; Romania,hotel,cameraforensics
https://r-cf.bstatic.com/images/hotel/max1280x900/197/197251623.jpg,43.765159000000004,24.846413000000002,2020-01-23T20:27:40+0000,900.0,1200.0,,,Romania,Turnu Măgurele; Teleorman; 145200; Romania,hotel,cameraforensics
https://q-cf.bstatic.com/images/hotel/max1280x900/197/197251139.jpg,43.765159000000004,24.846413000000002,2020-01-21T23:18:41+0000,900.0,1200.0,,,Romania,Turnu Măgurele; Teleorman; 145200; Romania,hotel,cameraforensics
https://r-cf.bstatic.com/images/hotel/max1280x900/210/210616958.jpg,43.74863787,24.86808643,2020-03-11T07:24:52+0000,900.0,675.0,,,Romania,G1; Strada General Praporgescu; Turnu Măgurele; Teleorman; 145200; Romania,hotel,cameraforensics
https://q-cf.bstatic.com/images/hotel/max1280x900/207/207219865.jpg,43.765159000000004,24.846413000000002,2020-01-21T23:00:18+0000,900.0,1200.0,,,Romania,Turnu Măgurele; Teleorman; 145200; Romania,hotel,cameraforensics
https://r-cf.bstatic.com/images/hotel/max1280x900/197/197251250.jpg,43.765159000000004,24.846413000000002,2019-10-29T22:08:18+0000,900.0,1200.0,,,Romania,Turnu Măgurele; Teleorman; 145200; Romania,hotel,cameraforensics
https://q-cf.bstatic.com/images/hotel/max1280x900/210/210616961.jpg,43.74863787,24.86808643,2020-01-06T10:05:16+0000,900.0,675.0,,,Romania,G1; Strada General Praporgescu; Turnu Măgurele; Teleorman; 145200; Romania,hotel,cameraforensics
https://r-cf.bstatic.com/images/hotel/max1280x900/207/207219873.jpg,43.765159000000004,24.846413000000002,2020-01-04T06:10:17+0000,900.0,1200.0,,,Romania,Turnu Măgurele; Teleorman; 145200; Romania,hotel,cameraforensics
https://r-cf.bstatic.com/images/hotel/max1280x900/222/22251186.jpg,43.71350105,24.77068841,2020-11-17T14:31:07+0000,857.0,1280.0,,,Romania,Strada Dunării; Islaz; Teleorman; 147160; Romania,hotel,cameraforensics
https://r-cf.bstatic.com/images/hotel/max1280x900/211/211229485.jpg,43.74863787,24.86808643,2020-01-14T00:11:03+0000,669.0,750.0,,,Romania,G1; Strada General Praporgescu; Turnu Măgurele; Teleorman; 145200; Romania,hotel,cameraforensics
https://r-cf.bstatic.com/images/hotel/max1280x900/222/22251320.jpg,43.71350105,24.77068841,2020-10-12T16:09:08+0000,857.0,1280.0,,,Romania,Strada Dunării; Islaz; Teleorman; 147160; Romania,hotel,cameraforensics
https://r-cf.bstatic.com/images/hotel/max1280x900/211/211221571.jpg,43.74863787,24.86808643,2020-04-09T23:51:34+0000,900.0,725.0,,,Romania,G1; Strada General Praporgescu; Turnu Măgurele; Teleorman; 145200; Romania,hotel,cameraforensics
https://q-cf.bstatic.com/images/hotel/max1280x900/210/210616965.jpg,43.74863787,24.86808643,2020-04-05T03:26:49+0000,900.0,675.0,,,Romania,G1; Strada General Praporgescu; Turnu Măgurele; Teleorman; 145200; Romania,hotel,cameraforensics
https://q-cf.bstatic.com/images/hotel/max1280x900/197/197252065.jpg,43.765159000000004,24.846413000000002,2020-02-04T19:12:35+0000,720.0,1280.0,,,Romania,Turnu Măgurele; Teleorman; 145200; Romania,hotel,cameraforensics
https://r-cf.bstatic.com/images/hotel/max1280x900/519/51931782.jpg,43.71350105,24.77068841,2020-05-26T17:16:46+0000,857.0,1280.0,,,Romania,Strada Dunării; Islaz; Teleorman; 147160; Romania,hotel,cameraforensics
https://q-cf.bstatic.com/images/hotel/max1280x900/655/65588660.jpg,43.71350105,24.77068841,2020-11-13T22:48:47+0000,857.0,1280.0,,,Romania,Strada Dunării; Islaz; Teleorman; 147160; Romania,hotel,cameraforensics
https://q-cf.bstatic.com/images/hotel/max1280x900/156/156803785.jpg,43.765159000000004,24.846413000000002,2019-12-29T08:54:31+0000,720.0,1280.0,,,Romania,Turnu Măgurele; Teleorman; 145200; Romania,hotel,cameraforensics
https://q-cf.bstatic.com/images/hotel/max1280x900/114/114314778.jpg,43.74892379999999,24.8670129,2020-01-18T15:30:39+0000,600.0,800.0,,,Romania,Gojnea gabriel; Strada Mihai Bravu; Turnu Măgurele; Teleorman; 145200; Romania,hotel,cameraforensics
https://r-cf.bstatic.com/images/hotel/max1280x900/135/135097550.jpg,43.71350105,24.77068841,2020-12-05T11:53:14+0000,857.0,1280.0,,,Romania,Strada Dunării; Islaz; Teleorman; 147160; Romania,hotel,cameraforensics
https://q-cf.bstatic.com/images/hotel/max1280x900/222/22251221.jpg,43.71350105,24.77068841,2020-06-25T22:27:04+0000,857.0,1280.0,,,Romania,Strada Dunării; Islaz; Teleorman; 147160; Romania,hotel,cameraforensics
https://r-cf.bstatic.com/images/hotel/max1280x900/135/135094165.jpg,43.71350105,24.77068841,2020-06-14T14:06:45+0000,853.0,1280.0,,,Romania,Strada Dunării; Islaz; Teleorman; 147160; Romania,hotel,cameraforensics
https://q-cf.bstatic.com/images/hotel/max1280x900/211/211229441.jpg,43.74863787,24.86808643,2020-01-13T06:14:57+0000,625.0,750.0,,,Romania,G1; Strada General Praporgescu; Turnu Măgurele; Teleorman; 145200; Romania,hotel,cameraforensics
https://r-cf.bstatic.com/images/hotel/max1280x900/222/22250843.jpg,43.71350105,24.77068841,2020-10-24T16:01:40+0000,857.0,1280.0,,,Romania,Strada Dunării; Islaz; Teleorman; 147160; Romania,hotel,cameraforensics
https://r-cf.bstatic.com/images/hotel/max1280x900/655/65589307.jpg,43.71350105,24.77068841,2020-10-24T16:01:41+0000,857.0,1280.0,,,Romania,Strada Dunării; Islaz; Teleorman; 147160; Romania,hotel,cameraforensics
https://q-cf.bstatic.com/images/hotel/max1280x900/655/65589254.jpg,43.71350105,24.77068841,2020-11-24T11:46:31+0000,853.0,1280.0,,,Romania,Strada Dunării; Islaz; Teleorman; 147160; Romania,hotel,cameraforensics
https://q-cf.bstatic.com/images/hotel/max1280x900/118/118550841.jpg,43.74892379999999,24.8670129,2019-12-07T05:49:43+0000,900.0,675.0,,,Romania,Gojnea gabriel; Strada Mihai Bravu; Turnu Măgurele; Teleorman; 145200; Romania,hotel,cameraforensics
https://r-cf.bstatic.com/images/hotel/max1280x900/222/22250604.jpg,43.71350105,24.77068841,2020-06-19T20:11:31+0000,857.0,1280.0,,,Romania,Strada Dunării; Islaz; Teleorman; 147160; Romania,hotel,cameraforensics
https://r-cf.bstatic.com/images/hotel/max1280x900/222/22250578.jpg,43.71350105,24.77068841,2020-06-19T20:11:30+0000,334.0,500.0,,,Romania,Strada Dunării; Islaz; Teleorman; 147160; Romania,hotel,cameraforensics
https://q-cf.bstatic.com/images/hotel/max1280x900/210/210616949.jpg,43.74863787,24.86808643,2020-02-08T23:51:33+0000,900.0,675.0,,,Romania,G1; Strada General Praporgescu; Turnu Măgurele; Teleorman; 145200; Romania,hotel,cameraforensics
https://q-cf.bstatic.com/images/hotel/max1280x900/655/65589301.jpg,43.71350105,24.77068841,2020-10-06T12:37:01+0000,857.0,1280.0,,,Romania,Strada Dunării; Islaz; Teleorman; 147160; Romania,hotel,cameraforensics
https://r-cf.bstatic.com/images/hotel/max1280x900/210/210616963.jpg,43.74863787,24.86808643,2020-02-11T04:23:04+0000,900.0,675.0,,,Romania,G1; Strada General Praporgescu; Turnu Măgurele; Teleorman; 145200; Romania,hotel,cameraforensics
https://r-cf.bstatic.com/images/hotel/max1280x900/222/22250900.jpg,43.71350105,24.77068841,2020-07-28T04:51:20+0000,857.0,1280.0,,,Romania,Strada Dunării; Islaz; Teleorman; 147160; Romania,hotel,cameraforensics
https://q-cf.bstatic.com/images/hotel/max1280x900/210/210616954.jpg,43.74863787,24.86808643,2019-12-29T19:56:54+0000,900.0,675.0,,,Romania,G1; Strada General Praporgescu; Turnu Măgurele; Teleorman; 145200; Romania,hotel,cameraforensics
https://q-cf.bstatic.com/images/hotel/max1280x900/222/22251240.jpg,43.71350105,24.77068841,2020-07-29T06:47:54+0000,857.0,1280.0,,,Romania,Strada Dunării; Islaz; Teleorman; 147160; Romania,hotel,cameraforensics
https://q-cf.bstatic.com/images/hotel/max1280x900/222/22250506.jpg,43.71350105,24.77068841,2021-01-04T15:12:23+0000,857.0,1280.0,,,Romania,Strada Dunării; Islaz; Teleorman; 147160; Romania,hotel,cameraforensics
https://r-cf.bstatic.com/images/hotel/max1280x900/170/170580563.jpg,43.765159000000004,24.846413000000002,2020-03-27T17:10:53+0000,720.0,1280.0,,,Romania,Turnu Măgurele; Teleorman; 145200; Romania,hotel,cameraforensics
https://q-cf.bstatic.com/images/hotel/max1280x900/222/22251297.jpg,43.71350105,24.77068841,2021-01-04T15:12:24+0000,857.0,1280.0,,,Romania,Strada Dunării; Islaz; Teleorman; 147160; Romania,hotel,cameraforensics
https://q-cf.bstatic.com/images/hotel/max1280x900/118/118475065.jpg,43.74892379999999,24.8670129,2020-04-04T04:38:42+0000,800.0,600.0,,,Romania,Gojnea gabriel; Strada Mihai Bravu; Turnu Măgurele; Teleorman; 145200; Romania,hotel,cameraforensics
https://r-cf.bstatic.com/images/hotel/max1280x900/222/22250546.jpg,43.71350105,24.77068841,2020-12-31T17:49:21+0000,334.0,500.0,,,Romania,Strada Dunării; Islaz; Teleorman; 147160; Romania,hotel,cameraforensics
https://q-cf.bstatic.com/images/hotel/max1280x900/157/157307312.jpg,43.74277423,25.24084207,2019-09-19T23:25:48+0000,900.0,1200.0,,,Romania,Edelweiss; 273; Șoseaua Dunării; Suhaia; Teleorman; 147370; Romania,hotel,cameraforensics
https://q-cf.bstatic.com/images/hotel/max1280x900/157/157307333.jpg,43.74277423,25.24084207,2019-09-11T23:47:07+0000,900.0,1200.0,,,Romania,Edelweiss; 273; Șoseaua Dunării; Suhaia; Teleorman; 147370; Romania,hotel,cameraforensics
https://q-cf.bstatic.com/images/hotel/max1280x900/218/218827051.jpg,43.74277423,25.24084207,2019-09-16T13:20:01+0000,720.0,1280.0,,,Romania,Edelweiss; 273; Șoseaua Dunării; Suhaia; Teleorman; 147370; Romania,hotel,cameraforensics
https://r-cf.bstatic.com/images/hotel/max1280x900/157/157307916.jpg,43.74277423,25.24084207,2019-09-26T02:43:16+0000,900.0,1200.0,,,Romania,Edelweiss; 273; Șoseaua Dunării; Suhaia; Teleorman; 147370; Romania,hotel,cameraforensics
https://q-cf.bstatic.com/images/hotel/max1280x900/157/157307324.jpg,43.74277423,25.24084207,2019-09-18T19:14:11+0000,900.0,1200.0,,,Romania,Edelweiss; 273; Șoseaua Dunării; Suhaia; Teleorman; 147370; Romania,hotel,cameraforensics
https://q-cf.bstatic.com/images/hotel/max1280x900/157/157306346.jpg,43.74277423,25.24084207,2019-09-11T19:44:34+0000,900.0,1200.0,,,Romania,Edelweiss; 273; Șoseaua Dunării; Suhaia; Teleorman; 147370; Romania,hotel,cameraforensics
https://r-cf.bstatic.com/images/hotel/max1280x900/160/160300931.jpg,43.74277423,25.24084207,2019-10-07T04:01:02+0000,783.0,1044.0,,,Romania,Edelweiss; 273; Șoseaua Dunării; Suhaia; Teleorman; 147370; Romania,hotel,cameraforensics
https://r-cf.bstatic.com/images/hotel/max1280x900/157/157307341.jpg,43.74277423,25.24084207,2019-10-07T20:18:13+0000,900.0,1200.0,,,Romania,Edelweiss; 273; Șoseaua Dunării; Suhaia; Teleorman; 147370; Romania,hotel,cameraforensics
https://r-cf.bstatic.com/images/hotel/max1280x900/157/157307309.jpg,43.74277423,25.24084207,2019-09-25T10:57:05+0000,900.0,1200.0,,,Romania,Edelweiss; 273; Șoseaua Dunării; Suhaia; Teleorman; 147370; Romania,hotel,cameraforensics
https://r-cf.bstatic.com/images/hotel/max1280x900/157/157430622.jpg,43.74277423,25.24084207,2019-09-25T10:55:21+0000,832.0,1110.0,,,Romania,Edelweiss; 273; Șoseaua Dunării; Suhaia; Teleorman; 147370; Romania,hotel,cameraforensics
https://r-cf.bstatic.com/images/hotel/max1280x900/157/157307920.jpg,43.74277423,25.24084207,2019-10-01T14:39:56+0000,900.0,1200.0,,,Romania,Edelweiss; 273; Șoseaua Dunării; Suhaia; Teleorman; 147370; Romania,hotel,cameraforensics
https://r-cf.bstatic.com/images/hotel/max1280x900/157/157307330.jpg,43.74277423,25.24084207,2019-10-01T14:40:16+0000,900.0,1200.0,,,Romania,Edelweiss; 273; Șoseaua Dunării; Suhaia; Teleorman; 147370; Romania,hotel,cameraforensics
https://q-cf.bstatic.com/images/hotel/max1280x900/210/210205721.jpg,43.74277423,25.24084207,2019-09-11T23:47:39+0000,720.0,1280.0,,,Romania,Edelweiss; 273; Șoseaua Dunării; Suhaia; Teleorman; 147370; Romania,hotel,cameraforensics
https://q-cf.bstatic.com/images/hotel/max1280x900/157/157423984.jpg,43.74277423,25.24084207,2019-09-19T00:59:47+0000,900.0,1200.0,,,Romania,Edelweiss; 273; Șoseaua Dunării; Suhaia; Teleorman; 147370; Romania,hotel,cameraforensics
https://r-cf.bstatic.com/images/hotel/max1280x900/157/157422205.jpg,43.74277423,25.24084207,2019-09-16T11:27:24+0000,900.0,1200.0,,,Romania,Edelweiss; 273; Șoseaua Dunării; Suhaia; Teleorman; 147370; Romania,hotel,cameraforensics
https://r-cf.bstatic.com/images/hotel/max1280x900/160/160300190.jpg,43.74277423,25.24084207,2019-09-16T11:30:13+0000,832.0,1110.0,,,Romania,Edelweiss; 273; Șoseaua Dunării; Suhaia; Teleorman; 147370; Romania,hotel,cameraforensics
https://q-cf.bstatic.com/images/hotel/max1280x900/210/210810117.jpg,43.74277423,25.24084207,2019-09-11T19:45:10+0000,720.0,1280.0,,,Romania,Edelweiss; 273; Șoseaua Dunării; Suhaia; Teleorman; 147370; Romania,hotel,cameraforensics
https://r-cf.bstatic.com/images/hotel/max1280x900/157/157307315.jpg,43.74277423,25.24084207,2019-09-16T14:41:02+0000,900.0,1200.0,,,Romania,Edelweiss; 273; Șoseaua Dunării; Suhaia; Teleorman; 147370; Romania,hotel,cameraforensics
https://r-cf.bstatic.com/images/hotel/max1280x900/157/157307318.jpg,43.74277423,25.24084207,2019-09-26T02:43:15+0000,900.0,1200.0,,,Romania,Edelweiss; 273; Șoseaua Dunării; Suhaia; Teleorman; 147370; Romania,hotel,cameraforensics
https://q-cf.bstatic.com/images/hotel/max1280x900/157/157307337.jpg,43.74277423,25.24084207,2019-09-18T19:14:23+0000,900.0,1200.0,,,Romania,Edelweiss; 273; Șoseaua Dunării; Suhaia; Teleorman; 147370; Romania,hotel,cameraforensics
https://q-cf.bstatic.com/images/hotel/max1280x900/271/2719416.jpg,43.65482864,25.36546871,2020-02-10T18:11:21+0000,585.0,585.0,,,Romania,Complex comercial Zimnicea; Strada Ștefan cel Mare; Zimnicea; Teleorman; 145400; Romania,hotel,cameraforensics
https://q-cf.bstatic.com/images/hotel/max1280x900/405/4058680.jpg,43.65482864,25.36546871,2020-02-10T18:11:22+0000,853.0,1280.0,,,Romania,Complex comercial Zimnicea; Strada Ștefan cel Mare; Zimnicea; Teleorman; 145400; Romania,hotel,cameraforensics
https://q-cf.bstatic.com/images/hotel/max1280x900/271/2719466.jpg,43.65482864,25.36546871,2020-05-08T15:38:42+0000,585.0,585.0,,,Romania,Complex comercial Zimnicea; Strada Ștefan cel Mare; Zimnicea; Teleorman; 145400; Romania,hotel,cameraforensics
https://r-cf.bstatic.com/images/hotel/max1280x900/271/2719456.jpg,43.65482864,25.36546871,2020-05-15T21:16:14+0000,600.0,800.0,,,Romania,Complex comercial Zimnicea; Strada Ștefan cel Mare; Zimnicea; Teleorman; 145400; Romania,hotel,cameraforensics
https://q-cf.bstatic.com/images/hotel/max1280x900/276/2761590.jpg,43.65482864,25.36546871,2020-05-22T11:36:07+0000,585.0,585.0,,,Romania,Complex comercial Zimnicea; Strada Ștefan cel Mare; Zimnicea; Teleorman; 145400; Romania,hotel,cameraforensics
https://r-cf.bstatic.com/images/hotel/max1280x900/271/2719462.jpg,43.65482864,25.36546871,2020-02-29T02:47:21+0000,600.0,800.0,,,Romania,Complex comercial Zimnicea; Strada Ștefan cel Mare; Zimnicea; Teleorman; 145400; Romania,hotel,cameraforensics
https://q-cf.bstatic.com/images/hotel/max1280x900/271/2719459.jpg,43.65482864,25.36546871,2020-05-24T16:06:52+0000,800.0,600.0,,,Romania,Complex comercial Zimnicea; Strada Ștefan cel Mare; Zimnicea; Teleorman; 145400; Romania,hotel,cameraforensics
https://r-cf.bstatic.com/images/hotel/max1280x900/274/27457175.jpg,43.65482864,25.36546871,2020-02-20T05:41:19+0000,900.0,1200.0,,,Romania,Complex comercial Zimnicea; Strada Ștefan cel Mare; Zimnicea; Teleorman; 145400; Romania,hotel,cameraforensics
https://r-cf.bstatic.com/images/hotel/max1280x900/274/27456926.jpg,43.65482864,25.36546871,2020-03-24T21:06:21+0000,900.0,1200.0,,,Romania,Complex comercial Zimnicea; Strada Ștefan cel Mare; Zimnicea; Teleorman; 145400; Romania,hotel,cameraforensics
https://q-cf.bstatic.com/images/hotel/max1280x900/274/27457149.jpg,43.65482864,25.36546871,2020-03-21T16:48:37+0000,900.0,675.0,,,Romania,Complex comercial Zimnicea; Strada Ștefan cel Mare; Zimnicea; Teleorman; 145400; Romania,hotel,cameraforensics
https://r-cf.bstatic.com/images/hotel/max1280x900/271/2719450.jpg,43.65482864,25.36546871,2020-03-24T21:06:20+0000,600.0,800.0,,,Romania,Complex comercial Zimnicea; Strada Ștefan cel Mare; Zimnicea; Teleorman; 145400; Romania,hotel,cameraforensics
https://q-cf.bstatic.com/images/hotel/max1280x900/276/2761679.jpg,43.65482864,25.36546871,2020-07-31T04:47:32+0000,585.0,585.0,,,Romania,Complex comercial Zimnicea; Strada Ștefan cel Mare; Zimnicea; Teleorman; 145400; Romania,hotel,cameraforensics
https://q-cf.bstatic.com/images/hotel/max1280x900/274/27456702.jpg,43.65482864,25.36546871,2020-05-08T16:23:14+0000,900.0,1200.0,,,Romania,Complex comercial Zimnicea; Strada Ștefan cel Mare; Zimnicea; Teleorman; 145400; Romania,hotel,cameraforensics
https://q-cf.bstatic.com/images/hotel/max1280x900/276/2761593.jpg,43.65482864,25.36546871,2020-03-14T18:47:12+0000,585.0,585.0,,,Romania,Complex comercial Zimnicea; Strada Ștefan cel Mare; Zimnicea; Teleorman; 145400; Romania,hotel,cameraforensics
https://q-cf.bstatic.com/images/hotel/max1280x900/276/2761592.jpg,43.65482864,25.36546871,2020-03-14T18:47:06+0000,585.0,585.0,,,Romania,Complex comercial Zimnicea; Strada Ștefan cel Mare; Zimnicea; Teleorman; 145400; Romania,hotel,cameraforensics
https://r-cf.bstatic.com/images/hotel/max1280x900/274/27456590.jpg,43.65482864,25.36546871,2020-03-14T08:19:39+0000,900.0,675.0,,,Romania,Complex comercial Zimnicea; Strada Ștefan cel Mare; Zimnicea; Teleorman; 145400; Romania,hotel,cameraforensics
https://r-cf.bstatic.com/images/hotel/max1280x900/276/2761678.jpg,43.65482864,25.36546871,2020-06-13T06:54:33+0000,585.0,585.0,,,Romania,Complex comercial Zimnicea; Strada Ștefan cel Mare; Zimnicea; Teleorman; 145400; Romania,hotel,cameraforensics
https://r-cf.bstatic.com/images/hotel/max1280x900/274/27456925.jpg,43.65482864,25.36546871,2020-02-20T05:41:16+0000,900.0,1200.0,,,Romania,Complex comercial Zimnicea; Strada Ștefan cel Mare; Zimnicea; Teleorman; 145400; Romania,hotel,cameraforensics
https://q-cf.bstatic.com/images/hotel/max1280x900/276/2761591.jpg,43.65482864,25.36546871,2020-06-28T01:15:55+0000,585.0,585.0,,,Romania,Complex comercial Zimnicea; Strada Ștefan cel Mare; Zimnicea; Teleorman; 145400; Romania,hotel,cameraforensics
https://q-cf.bstatic.com/images/hotel/max1280x900/274/27456463.jpg,43.65482864,25.36546871,2020-06-28T01:15:49+0000,900.0,1200.0,,,Romania,Complex comercial Zimnicea; Strada Ștefan cel Mare; Zimnicea; Teleorman; 145400; Romania,hotel,cameraforensics
https://q-cf.bstatic.com/images/hotel/max1280x900/271/2719448.jpg,43.65482864,25.36546871,2020-05-01T21:05:35+0000,600.0,800.0,,,Romania,Complex comercial Zimnicea; Strada Ștefan cel Mare; Zimnicea; Teleorman; 145400; Romania,hotel,cameraforensics
https://q-cf.bstatic.com/images/hotel/max1280x900/274/27456666.jpg,43.65482864,25.36546871,2020-03-21T16:41:10+0000,900.0,675.0,,,Romania,Complex comercial Zimnicea; Strada Ștefan cel Mare; Zimnicea; Teleorman; 145400; Romania,hotel,cameraforensics
https://r-cf.bstatic.com/images/hotel/max1280x900/405/4058666.jpg,43.65482864,25.36546871,2020-03-24T21:06:25+0000,853.0,1280.0,,,Romania,Complex comercial Zimnicea; Strada Ștefan cel Mare; Zimnicea; Teleorman; 145400; Romania,hotel,cameraforensics
https://r-cf.bstatic.com/images/hotel/max1280x900/276/2761588.jpg,43.65482864,25.36546871,2020-03-24T21:17:15+0000,585.0,585.0,,,Romania,Complex comercial Zimnicea; Strada Ștefan cel Mare; Zimnicea; Teleorman; 145400; Romania,hotel,cameraforensics
https://q-cf.bstatic.com/images/hotel/max1280x900/274/27456633.jpg,43.65482864,25.36546871,2020-05-10T02:34:59+0000,900.0,1200.0,,,Romania,Complex comercial Zimnicea; Strada Ștefan cel Mare; Zimnicea; Teleorman; 145400; Romania,hotel,cameraforensics
https://r-cf.bstatic.com/images/hotel/max1280x900/271/2719445.jpg,43.65482864,25.36546871,2020-05-15T22:54:42+0000,585.0,585.0,,,Romania,Complex comercial Zimnicea; Strada Ștefan cel Mare; Zimnicea; Teleorman; 145400; Romania,hotel,cameraforensics
https://q-cf.bstatic.com/images/hotel/max1280x900/271/2719468.jpg,43.65482864,25.36546871,2020-05-22T11:13:53+0000,600.0,800.0,,,Romania,Complex comercial Zimnicea; Strada Ștefan cel Mare; Zimnicea; Teleorman; 145400; Romania,hotel,cameraforensics
https://q-cf.bstatic.com/images/hotel/max1280x900/405/4058686.jpg,43.65482864,25.36546871,2020-05-22T09:49:51+0000,853.0,1280.0,,,Romania,Complex comercial Zimnicea; Strada Ștefan cel Mare; Zimnicea; Teleorman; 145400; Romania,hotel,cameraforensics
https://r-cf.bstatic.com/images/hotel/max1280x900/405/4058670.jpg,43.65482864,25.36546871,2020-06-13T06:54:34+0000,853.0,1280.0,,,Romania,Complex comercial Zimnicea; Strada Ștefan cel Mare; Zimnicea; Teleorman; 145400; Romania,hotel,cameraforensics
https://r-cf.bstatic.com/images/hotel/max1280x900/276/2761594.jpg,43.65482864,25.36546871,2020-05-06T09:06:43+0000,585.0,585.0,,,Romania,Complex comercial Zimnicea; Strada Ștefan cel Mare; Zimnicea; Teleorman; 145400; Romania,hotel,cameraforensics
https://q-cf.bstatic.com/images/hotel/max1280x900/274/27456622.jpg,43.65482864,25.36546871,2020-02-16T10:20:50+0000,900.0,1200.0,,,Romania,Complex comercial Zimnicea; Strada Ștefan cel Mare; Zimnicea; Teleorman; 145400; Romania,hotel,cameraforensics
https://q-cf.bstatic.com/images/hotel/max1280x900/274/27457213.jpg,43.65482864,25.36546871,2020-02-16T10:50:32+0000,900.0,1200.0,,,Romania,Complex comercial Zimnicea; Strada Ștefan cel Mare; Zimnicea; Teleorman; 145400; Romania,hotel,cameraforensics
https://q-cf.bstatic.com/images/hotel/max1280x900/276/2761589.jpg,43.65482864,25.36546871,2020-06-28T01:15:50+0000,585.0,585.0,,,Romania,Complex comercial Zimnicea; Strada Ștefan cel Mare; Zimnicea; Teleorman; 145400; Romania,hotel,cameraforensics
https://r-cf.bstatic.com/images/hotel/max1280x900/276/2761680.jpg,43.65482864,25.36546871,2020-04-18T01:38:12+0000,585.0,585.0,,,Romania,Complex comercial Zimnicea; Strada Ștefan cel Mare; Zimnicea; Teleorman; 145400; Romania,hotel,cameraforensics
https://r-cf.bstatic.com/images/hotel/max1280x900/274/27456504.jpg,43.65482864,25.36546871,2020-07-29T18:33:33+0000,900.0,1200.0,,,Romania,Complex comercial Zimnicea; Strada Ștefan cel Mare; Zimnicea; Teleorman; 145400; Romania,hotel,cameraforensics
https://r-cf.bstatic.com/images/hotel/max1280x900/274/27456507.jpg,43.65482864,25.36546871,2020-07-29T18:34:13+0000,900.0,1200.0,,,Romania,Complex comercial Zimnicea; Strada Ștefan cel Mare; Zimnicea; Teleorman; 145400; Romania,hotel,cameraforensics
https://q-cf.bstatic.com/images/hotel/max1280x900/271/2719465.jpg,43.65482864,25.36546871,2020-05-01T15:05:26+0000,533.0,800.0,,,Romania,Complex comercial Zimnicea; Strada Ștefan cel Mare; Zimnicea; Teleorman; 145400; Romania,hotel,cameraforensics
https://r-cf.bstatic.com/images/hotel/max1280x900/269/2692593.jpg,43.90694464,25.97664177,2020-11-09T14:36:53+0000,853.0,1280.0,,,Romania,Hotel Sud; Strada Vaporului; Giurgiu; 080279; Romania,hotel,cameraforensics
https://r-cf.bstatic.com/images/hotel/max1280x900/204/204239620.jpg,43.90861812,25.98036468,2020-05-28T22:42:40+0000,900.0,1200.0,,,Romania,Motel Prietenia; Șoseaua Prieteniei; Giurgiu; 080304; Romania,hotel,cameraforensics
https://q-cf.bstatic.com/images/hotel/max1280x900/269/2692591.jpg,43.90694464,25.97664177,2020-05-24T07:31:22+0000,900.0,1200.0,,,Romania,Hotel Sud; Strada Vaporului; Giurgiu; 080279; Romania,hotel,cameraforensics
https://r-cf.bstatic.com/images/hotel/max1280x900/348/34860297.jpg,43.88869572,25.96700859,2020-05-19T16:02:46+0000,853.0,1280.0,,,Romania,Vlasca; Strada Portului; Giurgiu; 080015; Romania,hotel,cameraforensics
https://q-cf.bstatic.com/images/hotel/max1280x900/269/2692840.jpg,43.90694464,25.97664177,2020-05-24T07:31:24+0000,900.0,1200.0,,,Romania,Hotel Sud; Strada Vaporului; Giurgiu; 080279; Romania,hotel,cameraforensics
https://r-cf.bstatic.com/images/hotel/max1280x900/269/2692394.jpg,43.90694464,25.97664177,2020-11-09T14:35:56+0000,900.0,1200.0,,,Romania,Hotel Sud; Strada Vaporului; Giurgiu; 080279; Romania,hotel,cameraforensics
https://q-cf.bstatic.com/images/hotel/max1280x900/154/154574128.jpg,43.906338,25.980435999999997,2019-09-11T17:30:01+0000,602.0,900.0,,,Romania,Strada Constantin Brancoveanou; Giurgiu; 080279; Romania,hotel,cameraforensics
https://q-cf.bstatic.com/images/hotel/max1280x900/204/204239819.jpg,43.90861812,25.98036468,2020-11-16T09:18:01+0000,900.0,675.0,,,Romania,Motel Prietenia; Șoseaua Prieteniei; Giurgiu; 080304; Romania,hotel,cameraforensics
https://q-cf.bstatic.com/images/hotel/max1280x900/506/5068165.jpg,43.92784035,25.97491711,2020-12-16T22:15:13+0000,857.0,1280.0,,,Romania,Lukoil; DN5; Giurgiu; 080304; Romania,hotel,cameraforensics
https://q-cf.bstatic.com/images/hotel/max1280x900/507/5070372.jpg,43.92784035,25.97491711,2020-10-11T11:10:42+0000,857.0,1280.0,,,Romania,Lukoil; DN5; Giurgiu; 080304; Romania,hotel,cameraforensics
https://r-cf.bstatic.com/images/hotel/max1280x900/348/34860306.jpg,43.88869572,25.96700859,2020-10-02T02:08:02+0000,900.0,1280.0,,,Romania,Vlasca; Strada Portului; Giurgiu; 080015; Romania,hotel,cameraforensics
https://r-cf.bstatic.com/images/hotel/max1280x900/507/5071374.jpg,43.92784035,25.97491711,2020-09-30T04:32:59+0000,900.0,602.0,,,Romania,Lukoil; DN5; Giurgiu; 080304; Romania,hotel,cameraforensics
https://r-cf.bstatic.com/images/hotel/max1280x900/506/5063225.jpg,43.92784035,25.97491711,2020-09-30T04:08:02+0000,857.0,1280.0,,,Romania,Lukoil; DN5; Giurgiu; 080304; Romania,hotel,cameraforensics
https://r-cf.bstatic.com/images/hotel/max1280x900/506/5068227.jpg,43.92784035,25.97491711,2021-01-07T06:05:49+0000,857.0,1280.0,,,Romania,Lukoil; DN5; Giurgiu; 080304; Romania,hotel,cameraforensics
https://q-cf.bstatic.com/images/hotel/max1280x900/507/5071194.jpg,43.92784035,25.97491711,2020-10-15T00:27:07+0000,900.0,602.0,,,Romania,Lukoil; DN5; Giurgiu; 080304; Romania,hotel,cameraforensics
https://q-cf.bstatic.com/images/hotel/max1280x900/348/34860343.jpg,43.88869572,25.96700859,2020-11-16T16:33:18+0000,853.0,1280.0,,,Romania,Vlasca; Strada Portului; Giurgiu; 080015; Romania,hotel,cameraforensics
https://q-cf.bstatic.com/images/hotel/max1280x900/546/54674424.jpg,43.90861812,25.98036468,2020-11-30T10:00:02+0000,853.0,1280.0,,,Romania,Motel Prietenia; Șoseaua Prieteniei; Giurgiu; 080304; Romania,hotel,cameraforensics
https://q-cf.bstatic.com/images/hotel/max1280x900/348/34860318.jpg,43.88869572,25.96700859,2020-07-22T10:39:00+0000,853.0,1280.0,,,Romania,Vlasca; Strada Portului; Giurgiu; 080015; Romania,hotel,cameraforensics
https://q-cf.bstatic.com/images/hotel/max1280x900/269/2692544.jpg,43.90694464,25.97664177,2020-06-30T21:54:25+0000,900.0,1200.0,,,Romania,Hotel Sud; Strada Vaporului; Giurgiu; 080279; Romania,hotel,cameraforensics
https://r-cf.bstatic.com/images/hotel/max1280x900/506/5068120.jpg,43.92784035,25.97491711,2020-12-11T09:47:25+0000,857.0,1280.0,,,Romania,Lukoil; DN5; Giurgiu; 080304; Romania,hotel,cameraforensics
https://q-cf.bstatic.com/images/hotel/max1280x900/148/148276301.jpg,43.906338,25.980435999999997,2019-09-18T19:09:26+0000,857.0,1280.0,,,Romania,Strada Constantin Brancoveanou; Giurgiu; 080279; Romania,hotel,cameraforensics
https://q-cf.bstatic.com/images/hotel/max1280x900/506/5068241.jpg,43.92784035,25.97491711,2020-09-15T18:10:29+0000,857.0,1280.0,,,Romania,Lukoil; DN5; Giurgiu; 080304; Romania,hotel,cameraforensics
https://r-cf.bstatic.com/images/hotel/max1280x900/348/34860333.jpg,43.88869572,25.96700859,2020-10-11T15:08:21+0000,853.0,1280.0,,,Romania,Vlasca; Strada Portului; Giurgiu; 080015; Romania,hotel,cameraforensics
https://q-cf.bstatic.com/images/hotel/max1280x900/348/34860326.jpg,43.88869572,25.96700859,2020-06-18T18:36:32+0000,866.0,1280.0,,,Romania,Vlasca; Strada Portului; Giurgiu; 080015; Romania,hotel,cameraforensics
https://r-cf.bstatic.com/images/hotel/max1280x900/348/34860304.jpg,43.88869572,25.96700859,2020-11-09T17:17:45+0000,853.0,1280.0,,,Romania,Vlasca; Strada Portului; Giurgiu; 080015; Romania,hotel,cameraforensics
https://r-cf.bstatic.com/images/hotel/max1280x900/348/34860315.jpg,43.88869572,25.96700859,2020-10-08T14:50:46+0000,853.0,1280.0,,,Romania,Vlasca; Strada Portului; Giurgiu; 080015; Romania,hotel,cameraforensics
https://r-cf.bstatic.com/images/hotel/max1280x900/269/2692548.jpg,43.90694464,25.97664177,2020-11-02T20:53:05+0000,900.0,1200.0,,,Romania,Hotel Sud; Strada Vaporului; Giurgiu; 080279; Romania,hotel,cameraforensics
https://r-cf.bstatic.com/images/hotel/max1280x900/546/54674462.jpg,43.90861812,25.98036468,2020-10-26T08:37:51+0000,900.0,506.0,,,Romania,Motel Prietenia; Șoseaua Prieteniei; Giurgiu; 080304; Romania,hotel,cameraforensics
https://q-cf.bstatic.com/images/hotel/max1280x900/348/34860296.jpg,43.88869572,25.96700859,2020-10-23T10:52:02+0000,853.0,1280.0,,,Romania,Vlasca; Strada Portului; Giurgiu; 080015; Romania,hotel,cameraforensics
https://r-cf.bstatic.com/images/hotel/max1280x900/507/5071235.jpg,43.92784035,25.97491711,2020-12-23T18:32:56+0000,857.0,1280.0,,,Romania,Lukoil; DN5; Giurgiu; 080304; Romania,hotel,cameraforensics
https://r-cf.bstatic.com/images/hotel/max1280x900/259/25957431.jpg,43.90861812,25.98036468,2020-10-26T08:37:47+0000,900.0,1200.0,,,Romania,Motel Prietenia; Șoseaua Prieteniei; Giurgiu; 080304; Romania,hotel,cameraforensics
https://r-cf.bstatic.com/images/hotel/max1280x900/178/178624730.jpg,44.09694592,26.64313078,2020-11-13T11:40:51+0000,853.0,1280.0,,,Romania,Șoseaua Călărași; Oltenița; Călărași; 915400; Romania,hotel,cameraforensics
https://r-cf.bstatic.com/images/hotel/max1280x900/908/90818301.jpg,44.09782196,26.64642825,2020-03-10T13:38:11+0000,855.0,1280.0,,,Romania,Șoseaua Călărași; Oltenița; Călărași; 915400; Romania,hotel,cameraforensics
https://r-cf.bstatic.com/images/hotel/max1280x900/908/90818274.jpg,44.09782196,26.64642825,2020-03-10T13:29:20+0000,900.0,601.0,,,Romania,Șoseaua Călărași; Oltenița; Călărași; 915400; Romania,hotel,cameraforensics
https://q-cf.bstatic.com/images/hotel/max1280x900/423/42389152.jpg,44.11063268,26.63997498,2019-10-15T15:24:16+0000,900.0,641.0,,,Romania,Oltenița; Călărași; 915400; Romania,hotel,cameraforensics
https://r-cf.bstatic.com/images/hotel/max1280x900/178/178624725.jpg,44.09694592,26.64313078,2020-06-18T11:11:52+0000,853.0,1280.0,,,Romania,Șoseaua Călărași; Oltenița; Călărași; 915400; Romania,hotel,cameraforensics
https://q-cf.bstatic.com/images/hotel/max1280x900/908/90818279.jpg,44.09782196,26.64642825,2020-03-29T10:35:42+0000,855.0,1280.0,,,Romania,Șoseaua Călărași; Oltenița; Călărași; 915400; Romania,hotel,cameraforensics
https://q-cf.bstatic.com/images/hotel/max1280x900/908/90818574.jpg,44.09782196,26.64642825,2020-06-13T03:47:51+0000,855.0,1280.0,,,Romania,Șoseaua Călărași; Oltenița; Călărași; 915400; Romania,hotel,cameraforensics
https://r-cf.bstatic.com/images/hotel/max1280x900/194/194212211.jpg,44.09782196,26.64642825,2020-03-25T23:18:57+0000,853.0,1280.0,,,Romania,Șoseaua Călărași; Oltenița; Călărași; 915400; Romania,hotel,cameraforensics
https://r-cf.bstatic.com/images/hotel/max1280x900/100/100498011.jpg,44.09782196,26.64642825,2020-03-25T23:18:53+0000,853.0,1280.0,,,Romania,Șoseaua Călărași; Oltenița; Călărași; 915400; Romania,hotel,cameraforensics
https://q-cf.bstatic.com/images/hotel/max1280x900/100/100499613.jpg,44.09694592,26.64313078,2020-11-19T08:03:32+0000,853.0,1280.0,,,Romania,Șoseaua Călărași; Oltenița; Călărași; 915400; Romania,hotel,cameraforensics
https://q-cf.bstatic.com/images/hotel/max1280x900/194/194212204.jpg,44.09782196,26.64642825,2020-06-13T21:00:14+0000,853.0,1280.0,,,Romania,Șoseaua Călărași; Oltenița; Călărași; 915400; Romania,hotel,cameraforensics
https://q-cf.bstatic.com/images/hotel/max1280x900/194/194429045.jpg,44.09782196,26.64642825,2020-06-13T21:40:19+0000,853.0,1280.0,,,Romania,Șoseaua Călărași; Oltenița; Călărași; 915400; Romania,hotel,cameraforensics
https://q-cf.bstatic.com/images/hotel/max1280x900/437/43739624.jpg,44.11063268,26.63997498,2020-02-01T04:57:21+0000,900.0,1246.0,,,Romania,Oltenița; Călărași; 915400; Romania,hotel,cameraforensics
https://r-cf.bstatic.com/images/hotel/max1280x900/908/90818257.jpg,44.09782196,26.64642825,2020-07-05T15:35:06+0000,900.0,601.0,,,Romania,Șoseaua Călărași; Oltenița; Călărași; 915400; Romania,hotel,cameraforensics
https://q-cf.bstatic.com/images/hotel/max1280x900/194/194210902.jpg,44.09782196,26.64642825,2020-03-14T04:29:16+0000,900.0,600.0,,,Romania,Șoseaua Călărași; Oltenița; Călărași; 915400; Romania,hotel,cameraforensics
https://q-cf.bstatic.com/images/hotel/max1280x900/178/178624727.jpg,44.09694592,26.64313078,2020-11-26T16:09:51+0000,853.0,1280.0,,,Romania,Șoseaua Călărași; Oltenița; Călărași; 915400; Romania,hotel,cameraforensics
https://r-cf.bstatic.com/images/hotel/max1280x900/176/176736288.jpg,44.09694592,26.64313078,2020-11-09T19:52:39+0000,853.0,1280.0,,,Romania,Șoseaua Călărași; Oltenița; Călărași; 915400; Romania,hotel,cameraforensics
https://r-cf.bstatic.com/images/hotel/max1280x900/100/100499603.jpg,44.09694592,26.64313078,2020-12-23T01:32:31+0000,853.0,1280.0,,,Romania,Șoseaua Călărași; Oltenița; Călărași; 915400; Romania,hotel,cameraforensics
https://q-cf.bstatic.com/images/hotel/max1280x900/908/90818287.jpg,44.09782196,26.64642825,2020-06-18T00:55:42+0000,855.0,1280.0,,,Romania,Șoseaua Călărași; Oltenița; Călărași; 915400; Romania,hotel,cameraforensics
https://r-cf.bstatic.com/images/hotel/max1280x900/916/91636090.jpg,44.09694592,26.64313078,2020-11-09T19:52:40+0000,900.0,600.0,,,Romania,Șoseaua Călărași; Oltenița; Călărași; 915400; Romania,hotel,cameraforensics
https://q-cf.bstatic.com/images/hotel/max1280x900/908/90818115.jpg,44.09782196,26.64642825,2020-08-13T00:34:26+0000,855.0,1280.0,,,Romania,Șoseaua Călărași; Oltenița; Călărași; 915400; Romania,hotel,cameraforensics
https://q-cf.bstatic.com/images/hotel/max1280x900/178/178624723.jpg,44.09694592,26.64313078,2020-08-02T14:03:01+0000,853.0,1280.0,,,Romania,Șoseaua Călărași; Oltenița; Călărași; 915400; Romania,hotel,cameraforensics
https://r-cf.bstatic.com/images/hotel/max1280x900/908/90818266.jpg,44.09782196,26.64642825,2020-05-20T23:07:03+0000,900.0,601.0,,,Romania,Șoseaua Călărași; Oltenița; Călărași; 915400; Romania,hotel,cameraforensics
https://q-cf.bstatic.com/images/hotel/max1280x900/194/194210879.jpg,44.09782196,26.64642825,2020-04-19T18:35:52+0000,900.0,600.0,,,Romania,Șoseaua Călărași; Oltenița; Călărași; 915400; Romania,hotel,cameraforensics
https://q-cf.bstatic.com/images/hotel/max1280x900/423/42387668.jpg,44.11063268,26.63997498,2019-12-27T11:49:05+0000,900.0,580.0,,,Romania,Oltenița; Călărași; 915400; Romania,hotel,cameraforensics
https://q-cf.bstatic.com/images/hotel/max1280x900/176/176736261.jpg,44.09694592,26.64313078,2020-07-20T13:01:27+0000,900.0,600.0,,,Romania,Șoseaua Călărași; Oltenița; Călărași; 915400; Romania,hotel,cameraforensics
https://r-cf.bstatic.com/images/hotel/max1280x900/194/194212231.jpg,44.09782196,26.64642825,2020-07-04T02:55:08+0000,900.0,600.0,,,Romania,Șoseaua Călărași; Oltenița; Călărași; 915400; Romania,hotel,cameraforensics
https://q-cf.bstatic.com/images/hotel/max1280x900/916/91636078.jpg,44.09694592,26.64313078,2020-11-16T19:10:58+0000,900.0,600.0,,,Romania,Șoseaua Călărași; Oltenița; Călărași; 915400; Romania,hotel,cameraforensics
https://r-cf.bstatic.com/images/hotel/max1280x900/194/194429012.jpg,44.09782196,26.64642825,2020-09-30T15:06:48+0000,853.0,1280.0,,,Romania,Șoseaua Călărași; Oltenița; Călărași; 915400; Romania,hotel,cameraforensics
https://q-cf.bstatic.com/images/hotel/max1280x900/100/100498042.jpg,44.09782196,26.64642825,2020-10-02T01:12:28+0000,853.0,1280.0,,,Romania,Șoseaua Călărași; Oltenița; Călărași; 915400; Romania,hotel,cameraforensics
https://r-cf.bstatic.com/images/hotel/max1280x900/194/194210912.jpg,44.09782196,26.64642825,2020-06-12T20:31:32+0000,900.0,600.0,,,Romania,Șoseaua Călărași; Oltenița; Călărași; 915400; Romania,hotel,cameraforensics
https://q-cf.bstatic.com/images/hotel/max1280x900/176/176736267.jpg,44.09694592,26.64313078,2021-01-06T06:32:16+0000,853.0,1280.0,,,Romania,Șoseaua Călărași; Oltenița; Călărași; 915400; Romania,hotel,cameraforensics
https://r-cf.bstatic.com/images/hotel/max1280x900/194/194210941.jpg,44.09782196,26.64642825,2020-09-30T15:06:42+0000,900.0,600.0,,,Romania,Șoseaua Călărași; Oltenița; Călărași; 915400; Romania,hotel,cameraforensics
https://r-cf.bstatic.com/images/hotel/max1280x900/437/43739659.jpg,44.11063268,26.63997498,2020-02-29T22:29:40+0000,900.0,1093.0,,,Romania,Oltenița; Călărași; 915400; Romania,hotel,cameraforensics
https://r-cf.bstatic.com/images/hotel/max1280x900/194/194210956.jpg,44.09782196,26.64642825,2020-06-12T20:31:33+0000,900.0,600.0,,,Romania,Șoseaua Călărași; Oltenița; Călărași; 915400; Romania,hotel,cameraforensics
https://r-cf.bstatic.com/images/hotel/max1280x900/176/176736293.jpg,44.09694592,26.64313078,2021-01-02T21:56:19+0000,853.0,1280.0,,,Romania,Șoseaua Călărași; Oltenița; Călărași; 915400; Romania,hotel,cameraforensics
https://q-cf.bstatic.com/images/hotel/max1280x900/908/90818250.jpg,44.09782196,26.64642825,2020-03-06T07:04:14+0000,900.0,601.0,,,Romania,Șoseaua Călărași; Oltenița; Călărași; 915400; Romania,hotel,cameraforensics
https://q-cf.bstatic.com/images/hotel/max1280x900/176/176736344.jpg,44.09694592,26.64313078,2020-10-25T10:16:37+0000,853.0,1280.0,,,Romania,Șoseaua Călărași; Oltenița; Călărași; 915400; Romania,hotel,cameraforensics
https://q-cf.bstatic.com/images/hotel/max1280x900/100/100498016.jpg,44.09782196,26.64642825,2020-07-03T19:05:57+0000,853.0,1280.0,,,Romania,Șoseaua Călărași; Oltenița; Călărași; 915400; Romania,hotel,cameraforensics
https://q-cf.bstatic.com/images/hotel/max1280x900/176/176736358.jpg,44.09694592,26.64313078,2020-08-12T09:57:03+0000,853.0,1280.0,,,Romania,Șoseaua Călărași; Oltenița; Călărași; 915400; Romania,hotel,cameraforensics
https://r-cf.bstatic.com/images/hotel/max1280x900/437/43739849.jpg,44.11063268,26.63997498,2020-01-10T23:33:21+0000,773.0,1280.0,,,Romania,Oltenița; Călărași; 915400; Romania,hotel,cameraforensics
https://q-cf.bstatic.com/images/hotel/max1280x900/100/100498055.jpg,44.09782196,26.64642825,2020-04-26T19:24:18+0000,853.0,1280.0,,,Romania,Șoseaua Călărași; Oltenița; Călărași; 915400; Romania,hotel,cameraforensics
https://q-cf.bstatic.com/images/hotel/max1280x900/194/194210923.jpg,44.09782196,26.64642825,2020-04-26T19:00:13+0000,900.0,600.0,,,Romania,Șoseaua Călărași; Oltenița; Călărași; 915400; Romania,hotel,cameraforensics
https://r-cf.bstatic.com/images/hotel/max1280x900/100/100499591.jpg,44.09694592,26.64313078,2020-06-18T11:11:51+0000,853.0,1280.0,,,Romania,Șoseaua Călărași; Oltenița; Călărași; 915400; Romania,hotel,cameraforensics
https://r-cf.bstatic.com/images/hotel/max1280x900/100/100499561.jpg,44.09694592,26.64313078,2020-06-18T11:11:50+0000,853.0,1280.0,,,Romania,Șoseaua Călărași; Oltenița; Călărași; 915400; Romania,hotel,cameraforensics
https://r-cf.bstatic.com/images/hotel/max1280x900/194/194212347.jpg,44.09782196,26.64642825,2020-03-25T23:28:31+0000,900.0,600.0,,,Romania,Șoseaua Călărași; Oltenița; Călărași; 915400; Romania,hotel,cameraforensics
https://r-cf.bstatic.com/images/hotel/max1280x900/908/90818105.jpg,44.09782196,26.64642825,2020-03-25T23:09:40+0000,855.0,1280.0,,,Romania,Șoseaua Călărași; Oltenița; Călărași; 915400; Romania,hotel,cameraforensics
https://r-cf.bstatic.com/images/hotel/max1280x900/194/194212227.jpg,44.09782196,26.64642825,2020-03-25T23:57:56+0000,900.0,600.0,,,Romania,Șoseaua Călărași; Oltenița; Călărași; 915400; Romania,hotel,cameraforensics
https://q-cf.bstatic.com/images/hotel/max1280x900/100/100499570.jpg,44.09694592,26.64313078,2020-11-19T08:03:30+0000,853.0,1280.0,,,Romania,Șoseaua Călărași; Oltenița; Călărași; 915400; Romania,hotel,cameraforensics
https://q-cf.bstatic.com/images/hotel/max1280x900/194/194212221.jpg,44.09782196,26.64642825,2020-06-29T18:17:30+0000,900.0,600.0,,,Romania,Șoseaua Călărași; Oltenița; Călărași; 915400; Romania,hotel,cameraforensics
https://q-cf.bstatic.com/images/hotel/max1280x900/176/176736295.jpg,44.09694592,26.64313078,2020-11-26T16:09:17+0000,900.0,600.0,,,Romania,Șoseaua Călărași; Oltenița; Călărași; 915400; Romania,hotel,cameraforensics
https://q-cf.bstatic.com/images/hotel/max1280x900/194/194210948.jpg,44.09782196,26.64642825,2020-07-18T12:19:59+0000,900.0,600.0,,,Romania,Șoseaua Călărași; Oltenița; Călărași; 915400; Romania,hotel,cameraforensics
https://q-cf.bstatic.com/images/hotel/max1280x900/176/176736302.jpg,44.09694592,26.64313078,2020-06-23T23:08:54+0000,853.0,1280.0,,,Romania,Șoseaua Călărași; Oltenița; Călărași; 915400; Romania,hotel,cameraforensics
https://q-cf.bstatic.com/images/hotel/max1280x900/908/90818124.jpg,44.09782196,26.64642825,2020-07-18T11:50:57+0000,855.0,1280.0,,,Romania,Șoseaua Călărași; Oltenița; Călărași; 915400; Romania,hotel,cameraforensics
https://q-cf.bstatic.com/images/hotel/max1280x900/417/41718391.jpg,44.11063268,26.63997498,2020-02-01T05:15:16+0000,642.0,1280.0,,,Romania,Oltenița; Călărași; 915400; Romania,hotel,cameraforensics
https://r-cf.bstatic.com/images/hotel/max1280x900/423/42391851.jpg,44.11063268,26.63997498,2020-02-02T14:16:07+0000,900.0,1242.0,,,Romania,Oltenița; Călărași; 915400; Romania,hotel,cameraforensics
https://q-cf.bstatic.com/images/hotel/max1280x900/100/100499626.jpg,44.09694592,26.64313078,2020-11-26T15:42:02+0000,853.0,1280.0,,,Romania,Șoseaua Călărași; Oltenița; Călărași; 915400; Romania,hotel,cameraforensics
https://r-cf.bstatic.com/images/hotel/max1280x900/908/90818216.jpg,44.09782196,26.64642825,2020-07-05T12:38:29+0000,855.0,1280.0,,,Romania,Șoseaua Călărași; Oltenița; Călărași; 915400; Romania,hotel,cameraforensics
https://r-cf.bstatic.com/images/hotel/max1280x900/437/43739867.jpg,44.11063268,26.63997498,2020-02-27T22:39:03+0000,820.0,1280.0,,,Romania,Oltenița; Călărași; 915400; Romania,hotel,cameraforensics
https://q-cf.bstatic.com/images/hotel/max1280x900/176/176736264.jpg,44.09694592,26.64313078,2020-08-02T14:02:57+0000,900.0,600.0,,,Romania,Șoseaua Călărași; Oltenița; Călărași; 915400; Romania,hotel,cameraforensics
https://r-cf.bstatic.com/images/hotel/max1280x900/178/178624724.jpg,44.09694592,26.64313078,2020-11-20T13:22:38+0000,853.0,1280.0,,,Romania,Șoseaua Călărași; Oltenița; Călărași; 915400; Romania,hotel,cameraforensics
https://r-cf.bstatic.com/images/hotel/max1280x900/176/176736318.jpg,44.09694592,26.64313078,2020-11-10T02:32:58+0000,853.0,1280.0,,,Romania,Șoseaua Călărași; Oltenița; Călărași; 915400; Romania,hotel,cameraforensics
https://r-cf.bstatic.com/images/hotel/max1280x900/100/100499713.jpg,44.09694592,26.64313078,2020-05-30T22:14:51+0000,853.0,1280.0,,,Romania,Șoseaua Călărași; Oltenița; Călărași; 915400; Romania,hotel,cameraforensics
https://r-cf.bstatic.com/images/hotel/max1280x900/908/90818312.jpg,44.09782196,26.64642825,2020-06-13T04:42:03+0000,855.0,1280.0,,,Romania,Șoseaua Călărași; Oltenița; Călărași; 915400; Romania,hotel,cameraforensics
https://q-cf.bstatic.com/images/hotel/max1280x900/908/90818128.jpg,44.09782196,26.64642825,2020-04-26T19:10:37+0000,855.0,1280.0,,,Romania,Șoseaua Călărași; Oltenița; Călărași; 915400; Romania,hotel,cameraforensics
https://q-cf.bstatic.com/images/hotel/max1280x900/194/194429025.jpg,44.09782196,26.64642825,2020-03-29T10:43:55+0000,853.0,1280.0,,,Romania,Șoseaua Călărași; Oltenița; Călărași; 915400; Romania,hotel,cameraforensics
https://q-cf.bstatic.com/images/hotel/max1280x900/100/100499506.jpg,44.09694592,26.64313078,2020-11-02T12:18:22+0000,853.0,1280.0,,,Romania,Șoseaua Călărași; Oltenița; Călărași; 915400; Romania,hotel,cameraforensics
https://r-cf.bstatic.com/images/hotel/max1280x900/423/42387025.jpg,44.11063268,26.63997498,2019-12-27T04:21:01+0000,805.0,1280.0,,,Romania,Oltenița; Călărași; 915400; Romania,hotel,cameraforensics
https://q-cf.bstatic.com/images/hotel/max1280x900/178/178624731.jpg,44.09694592,26.64313078,2020-06-23T23:09:11+0000,853.0,1280.0,,,Romania,Șoseaua Călărași; Oltenița; Călărași; 915400; Romania,hotel,cameraforensics
https://q-cf.bstatic.com/images/hotel/max1280x900/888/88890989.jpg,44.09782196,26.64642825,2020-08-13T00:34:25+0000,853.0,1280.0,,,Romania,Șoseaua Călărași; Oltenița; Călărași; 915400; Romania,hotel,cameraforensics
https://r-cf.bstatic.com/images/hotel/max1280x900/176/176736335.jpg,44.09694592,26.64313078,2020-12-23T03:23:06+0000,853.0,1280.0,,,Romania,Șoseaua Călărași; Oltenița; Călărași; 915400; Romania,hotel,cameraforensics
https://q-cf.bstatic.com/images/hotel/max1280x900/908/90818606.jpg,44.09782196,26.64642825,2020-08-13T00:34:28+0000,855.0,1280.0,,,Romania,Șoseaua Călărași; Oltenița; Călărași; 915400; Romania,hotel,cameraforensics
https://r-cf.bstatic.com/images/hotel/max1280x900/908/90818566.jpg,44.09782196,26.64642825,2020-06-27T22:57:00+0000,855.0,1280.0,,,Romania,Șoseaua Călărași; Oltenița; Călărași; 915400; Romania,hotel,cameraforensics
https://q-cf.bstatic.com/images/hotel/max1280x900/194/194429035.jpg,44.09782196,26.64642825,2020-06-26T12:37:58+0000,853.0,1280.0,,,Romania,Șoseaua Călărași; Oltenița; Călărași; 915400; Romania,hotel,cameraforensics
https://r-cf.bstatic.com/images/hotel/max1280x900/100/100499631.jpg,44.09694592,26.64313078,2020-08-01T09:43:15+0000,853.0,1280.0,,,Romania,Șoseaua Călărași; Oltenița; Călărași; 915400; Romania,hotel,cameraforensics
https://r-cf.bstatic.com/images/hotel/max1280x900/100/100497987.jpg,44.09782196,26.64642825,2020-05-20T22:45:08+0000,853.0,1280.0,,,Romania,Șoseaua Călărași; Oltenița; Călărași; 915400; Romania,hotel,cameraforensics
https://r-cf.bstatic.com/images/hotel/max1280x900/100/100498027.jpg,44.09782196,26.64642825,2020-04-20T03:21:16+0000,853.0,1280.0,,,Romania,Șoseaua Călărași; Oltenița; Călărași; 915400; Romania,hotel,cameraforensics
https://r-cf.bstatic.com/images/hotel/max1280x900/100/100497996.jpg,44.09782196,26.64642825,2020-04-25T11:38:36+0000,853.0,1280.0,,,Romania,Șoseaua Călărași; Oltenița; Călărași; 915400; Romania,hotel,cameraforensics
https://q-cf.bstatic.com/images/hotel/max1280x900/194/194429057.jpg,44.09782196,26.64642825,2020-06-27T02:20:06+0000,853.0,1280.0,,,Romania,Șoseaua Călărași; Oltenița; Călărași; 915400; Romania,hotel,cameraforensics
https://r-cf.bstatic.com/images/hotel/max1280x900/100/100497981.jpg,44.09782196,26.64642825,2020-09-30T15:06:36+0000,853.0,1280.0,,,Romania,Șoseaua Călărași; Oltenița; Călărași; 915400; Romania,hotel,cameraforensics
https://r-cf.bstatic.com/images/hotel/max1280x900/908/90818249.jpg,44.09782196,26.64642825,2020-06-12T20:31:34+0000,900.0,601.0,,,Romania,Șoseaua Călărași; Oltenița; Călărași; 915400; Romania,hotel,cameraforensics
https://r-cf.bstatic.com/images/hotel/max1280x900/908/90818589.jpg,44.09782196,26.64642825,2020-09-30T15:06:52+0000,855.0,1280.0,,,Romania,Șoseaua Călărași; Oltenița; Călărași; 915400; Romania,hotel,cameraforensics
https://q-cf.bstatic.com/images/hotel/max1280x900/437/43739623.jpg,44.11063268,26.63997498,2020-02-23T04:45:30+0000,772.0,1280.0,,,Romania,Oltenița; Călărași; 915400; Romania,hotel,cameraforensics
https://r-cf.bstatic.com/images/hotel/max1280x900/176/176736299.jpg,44.09694592,26.64313078,2020-11-10T02:32:56+0000,900.0,600.0,,,Romania,Șoseaua Călărași; Oltenița; Călărași; 915400; Romania,hotel,cameraforensics
https://r-cf.bstatic.com/images/hotel/max1280x900/204/204318853.jpg,44.10569321,27.38951147,2019-12-19T21:12:27+0000,719.0,1280.0,,,Romania,DN3-Ostrov; Ostrov; Constanța; 907220; Romania,hotel,cameraforensics
https://r-cf.bstatic.com/images/hotel/max1280x900/141/141250834.jpg,44.10556512,27.28561982,2020-08-02T00:18:56+0000,853.0,1280.0,,,Romania,DN3; Ostrov; Constanța; 907220; Romania,hotel,cameraforensics
https://q-cf.bstatic.com/images/hotel/max1280x900/196/196842064.jpg,44.10569321,27.38951147,2020-02-02T13:09:06+0000,900.0,675.0,,,Romania,DN3-Ostrov; Ostrov; Constanța; 907220; Romania,hotel,cameraforensics
https://q-cf.bstatic.com/images/hotel/max1280x900/141/141250827.jpg,44.10556512,27.28561982,2020-05-08T07:21:14+0000,636.0,960.0,,,Romania,DN3; Ostrov; Constanța; 907220; Romania,hotel,cameraforensics
https://q-cf.bstatic.com/images/hotel/max1280x900/201/201423264.jpg,44.10569321,27.38951147,2019-12-23T12:43:21+0000,900.0,675.0,,,Romania,DN3-Ostrov; Ostrov; Constanța; 907220; Romania,hotel,cameraforensics
https://q-cf.bstatic.com/images/hotel/max1280x900/141/141250830.jpg,44.10556512,27.28561982,2020-07-19T11:57:09+0000,636.0,960.0,,,Romania,DN3; Ostrov; Constanța; 907220; Romania,hotel,cameraforensics
https://r-cf.bstatic.com/images/hotel/max1280x900/201/201429225.jpg,44.10569321,27.38951147,2020-01-16T17:47:42+0000,900.0,675.0,,,Romania,DN3-Ostrov; Ostrov; Constanța; 907220; Romania,hotel,cameraforensics
https://r-cf.bstatic.com/images/hotel/max1280x900/201/201742852.jpg,44.10569321,27.38951147,2020-01-16T17:47:43+0000,900.0,675.0,,,Romania,DN3-Ostrov; Ostrov; Constanța; 907220; Romania,hotel,cameraforensics
https://q-cf.bstatic.com/images/hotel/max1280x900/201/201733624.jpg,44.10569321,27.38951147,2019-12-03T12:19:55+0000,900.0,1200.0,,,Romania,DN3-Ostrov; Ostrov; Constanța; 907220; Romania,hotel,cameraforensics
https://q-cf.bstatic.com/images/hotel/max1280x900/201/201432439.jpg,44.10569321,27.38951147,2019-12-03T12:19:54+0000,900.0,675.0,,,Romania,DN3-Ostrov; Ostrov; Constanța; 907220; Romania,hotel,cameraforensics
https://r-cf.bstatic.com/images/hotel/max1280x900/201/201733934.jpg,44.10569321,27.38951147,2020-02-02T15:38:22+0000,900.0,675.0,,,Romania,DN3-Ostrov; Ostrov; Constanța; 907220; Romania,hotel,cameraforensics
https://r-cf.bstatic.com/images/hotel/max1280x900/201/201733825.jpg,44.10569321,27.38951147,2020-01-21T06:37:37+0000,900.0,675.0,,,Romania,DN3-Ostrov; Ostrov; Constanța; 907220; Romania,hotel,cameraforensics
https://r-cf.bstatic.com/images/hotel/max1280x900/201/201743752.jpg,44.10569321,27.38951147,2020-02-28T02:10:21+0000,900.0,675.0,,,Romania,DN3-Ostrov; Ostrov; Constanța; 907220; Romania,hotel,cameraforensics
https://r-cf.bstatic.com/images/hotel/max1280x900/141/141248158.jpg,44.10542645,27.28523895,2019-10-02T18:04:27+0000,636.0,960.0,,,Romania,655; DN3; Ostrov; Constanța; 907220; Romania,hotel,cameraforensics
https://q-cf.bstatic.com/images/hotel/max1280x900/204/204318825.jpg,44.10569321,27.38951147,2019-12-19T08:17:55+0000,719.0,1280.0,,,Romania,DN3-Ostrov; Ostrov; Constanța; 907220; Romania,hotel,cameraforensics
https://q-cf.bstatic.com/images/hotel/max1280x900/201/201429355.jpg,44.10569321,27.38951147,2020-02-02T13:09:07+0000,900.0,506.0,,,Romania,DN3-Ostrov; Ostrov; Constanța; 907220; Romania,hotel,cameraforensics
https://r-cf.bstatic.com/images/hotel/max1280x900/141/141250828.jpg,44.10556512,27.28561982,2020-06-24T12:00:27+0000,636.0,960.0,,,Romania,DN3; Ostrov; Constanța; 907220; Romania,hotel,cameraforensics
https://r-cf.bstatic.com/images/hotel/max1280x900/141/141250835.jpg,44.10556512,27.28561982,2020-08-23T17:16:18+0000,636.0,960.0,,,Romania,DN3; Ostrov; Constanța; 907220; Romania,hotel,cameraforensics
https://r-cf.bstatic.com/images/hotel/max1280x900/201/201429266.jpg,44.10569321,27.38951147,2019-11-02T08:54:47+0000,900.0,675.0,,,Romania,DN3-Ostrov; Ostrov; Constanța; 907220; Romania,hotel,cameraforensics
https://r-cf.bstatic.com/images/hotel/max1280x900/201/201432175.jpg,44.10569321,27.38951147,2019-11-02T08:54:48+0000,900.0,675.0,,,Romania,DN3-Ostrov; Ostrov; Constanța; 907220; Romania,hotel,cameraforensics
https://q-cf.bstatic.com/images/hotel/max1280x900/196/196842005.jpg,44.10569321,27.38951147,2019-12-02T22:27:16+0000,720.0,1280.0,,,Romania,DN3-Ostrov; Ostrov; Constanța; 907220; Romania,hotel,cameraforensics
https://r-cf.bstatic.com/images/hotel/max1280x900/201/201423318.jpg,44.10569321,27.38951147,2019-12-27T07:46:35+0000,900.0,1200.0,,,Romania,DN3-Ostrov; Ostrov; Constanța; 907220; Romania,hotel,cameraforensics
https://r-cf.bstatic.com/images/hotel/max1280x900/141/141248167.jpg,44.10542645,27.28523895,2019-09-25T10:56:10+0000,636.0,960.0,,,Romania,655; DN3; Ostrov; Constanța; 907220; Romania,hotel,cameraforensics
https://r-cf.bstatic.com/images/hotel/max1280x900/196/196842042.jpg,44.10569321,27.38951147,2020-01-16T17:47:41+0000,900.0,1200.0,,,Romania,DN3-Ostrov; Ostrov; Constanța; 907220; Romania,hotel,cameraforensics
https://q-cf.bstatic.com/images/hotel/max1280x900/141/141250825.jpg,44.10556512,27.28561982,2020-08-22T23:22:38+0000,636.0,960.0,,,Romania,DN3; Ostrov; Constanța; 907220; Romania,hotel,cameraforensics
https://q-cf.bstatic.com/images/hotel/max1280x900/201/201733415.jpg,44.10569321,27.38951147,2020-01-30T11:19:10+0000,900.0,1200.0,,,Romania,DN3-Ostrov; Ostrov; Constanța; 907220; Romania,hotel,cameraforensics
https://r-cf.bstatic.com/images/hotel/max1280x900/201/201742676.jpg,44.10569321,27.38951147,2019-11-30T08:12:43+0000,900.0,675.0,,,Romania,DN3-Ostrov; Ostrov; Constanța; 907220; Romania,hotel,cameraforensics
https://q-cf.bstatic.com/images/hotel/max1280x900/201/201743094.jpg,44.10569321,27.38951147,2019-12-27T12:02:54+0000,900.0,675.0,,,Romania,DN3-Ostrov; Ostrov; Constanța; 907220; Romania,hotel,cameraforensics
https://r-cf.bstatic.com/images/hotel/max1280x900/141/141248165.jpg,44.10542645,27.28523895,2019-10-02T18:04:23+0000,636.0,960.0,,,Romania,655; DN3; Ostrov; Constanța; 907220; Romania,hotel,cameraforensics
https://r-cf.bstatic.com/images/hotel/max1280x900/201/201429399.jpg,44.10569321,27.38951147,2020-01-04T02:30:24+0000,900.0,675.0,,,Romania,DN3-Ostrov; Ostrov; Constanța; 907220; Romania,hotel,cameraforensics
https://r-cf.bstatic.com/images/hotel/max1280x900/196/196842039.jpg,44.10569321,27.38951147,2020-02-02T22:45:41+0000,720.0,1280.0,,,Romania,DN3-Ostrov; Ostrov; Constanța; 907220; Romania,hotel,cameraforensics
https://q-cf.bstatic.com/images/hotel/max1280x900/201/201432872.jpg,44.10569321,27.38951147,2019-12-19T08:17:54+0000,900.0,1200.0,,,Romania,DN3-Ostrov; Ostrov; Constanța; 907220; Romania,hotel,cameraforensics
https://q-cf.bstatic.com/images/hotel/max1280x900/141/141248162.jpg,44.10542645,27.28523895,2019-09-17T00:29:28+0000,636.0,960.0,,,Romania,655; DN3; Ostrov; Constanța; 907220; Romania,hotel,cameraforensics
https://r-cf.bstatic.com/images/hotel/max1280x900/196/196842056.jpg,44.10569321,27.38951147,2020-01-03T07:00:34+0000,900.0,675.0,,,Romania,DN3-Ostrov; Ostrov; Constanța; 907220; Romania,hotel,cameraforensics
https://q-cf.bstatic.com/images/hotel/max1280x900/201/201423129.jpg,44.10569321,27.38951147,2019-11-02T11:03:28+0000,900.0,1200.0,,,Romania,DN3-Ostrov; Ostrov; Constanța; 907220; Romania,hotel,cameraforensics
https://q-cf.bstatic.com/images/hotel/max1280x900/196/196842050.jpg,44.10569321,27.38951147,2019-12-23T12:26:10+0000,900.0,1200.0,,,Romania,DN3-Ostrov; Ostrov; Constanța; 907220; Romania,hotel,cameraforensics
https://q-cf.bstatic.com/images/hotel/max1280x900/198/198964050.jpg,44.10569321,27.38951147,2020-02-01T06:33:29+0000,622.0,1280.0,,,Romania,DN3-Ostrov; Ostrov; Constanța; 907220; Romania,hotel,cameraforensics
https://r-cf.bstatic.com/images/hotel/max1280x900/201/201432136.jpg,44.10569321,27.38951147,2019-12-05T05:25:01+0000,900.0,675.0,,,Romania,DN3-Ostrov; Ostrov; Constanța; 907220; Romania,hotel,cameraforensics
https://q-cf.bstatic.com/images/hotel/max1280x900/196/196842034.jpg,44.10569321,27.38951147,2020-01-30T11:19:06+0000,900.0,1200.0,,,Romania,DN3-Ostrov; Ostrov; Constanța; 907220; Romania,hotel,cameraforensics
https://q-cf.bstatic.com/images/hotel/max1280x900/196/196842043.jpg,44.10569321,27.38951147,2019-11-29T02:36:50+0000,900.0,1200.0,,,Romania,DN3-Ostrov; Ostrov; Constanța; 907220; Romania,hotel,cameraforensics
https://q-cf.bstatic.com/images/hotel/max1280x900/201/201743558.jpg,44.10569321,27.38951147,2020-02-23T06:23:05+0000,900.0,1200.0,,,Romania,DN3-Ostrov; Ostrov; Constanța; 907220; Romania,hotel,cameraforensics
https://q-cf.bstatic.com/images/hotel/max1280x900/269/26996537.jpg,44.15742812,27.31717765,2020-02-10T18:13:28+0000,726.0,1280.0,,,Romania,DN3; Chiciu; Călărași; 910079; Romania,hotel,cameraforensics
https://q-cf.bstatic.com/images/hotel/max1280x900/104/104551817.jpg,44.15742812,27.31717765,2020-05-08T16:52:48+0000,900.0,600.0,,,Romania,DN3; Chiciu; Călărași; 910079; Romania,hotel,cameraforensics
https://r-cf.bstatic.com/images/hotel/max1280x900/104/104549029.jpg,44.15742812,27.31717765,2020-02-13T23:42:32+0000,853.0,1280.0,,,Romania,DN3; Chiciu; Călărași; 910079; Romania,hotel,cameraforensics
https://r-cf.bstatic.com/images/hotel/max1280x900/184/18468579.jpg,44.19164367,27.32570708,2020-05-25T23:25:22+0000,900.0,1200.0,,,Romania,Călărași Hospital; Strada Eroilor Revolutiei din 22 Decembrie 1989; Călărași; 910079; Romania,hotel,cameraforensics
https://r-cf.bstatic.com/images/hotel/max1280x900/184/18468516.jpg,44.19164367,27.32570708,2020-05-25T22:47:42+0000,900.0,1200.0,,,Romania,Călărași Hospital; Strada Eroilor Revolutiei din 22 Decembrie 1989; Călărași; 910079; Romania,hotel,cameraforensics
https://r-cf.bstatic.com/images/hotel/max1280x900/629/6292314.jpg,44.13432246,27.2754854,2020-10-14T20:01:32+0000,900.0,598.0,,,Romania,Baden; DN3; Chiciu; Călărași; Romania,hotel,cameraforensics
https://r-cf.bstatic.com/images/hotel/max1280x900/619/61933708.jpg,44.18911876,27.323802,2019-12-07T19:43:10+0000,600.0,800.0,,,Romania,La Sălcii; 1; DN3B; Călărași; 910079; Romania,hotel,cameraforensics
https://r-cf.bstatic.com/images/hotel/max1280x900/104/104551849.jpg,44.15742812,27.31717765,2020-03-14T08:51:43+0000,853.0,1280.0,,,Romania,DN3; Chiciu; Călărași; 910079; Romania,hotel,cameraforensics
https://r-cf.bstatic.com/images/hotel/max1280x900/184/18468524.jpg,44.19164367,27.32570708,2020-07-01T06:23:53+0000,900.0,1200.0,,,Romania,Călărași Hospital; Strada Eroilor Revolutiei din 22 Decembrie 1989; Călărași; 910079; Romania,hotel,cameraforensics
https://r-cf.bstatic.com/images/hotel/max1280x900/632/6329710.jpg,44.13432246,27.2754854,2020-07-01T09:23:36+0000,900.0,1205.0,,,Romania,Baden; DN3; Chiciu; Călărași; Romania,hotel,cameraforensics
https://r-cf.bstatic.com/images/hotel/max1280x900/104/104550314.jpg,44.15742812,27.31717765,2020-04-03T18:48:48+0000,853.0,1280.0,,,Romania,DN3; Chiciu; Călărași; 910079; Romania,hotel,cameraforensics
https://q-cf.bstatic.com/images/hotel/max1280x900/629/6292459.jpg,44.13432246,27.2754854,2020-07-30T21:11:33+0000,850.0,1280.0,,,Romania,Baden; DN3; Chiciu; Călărași; Romania,hotel,cameraforensics
https://r-cf.bstatic.com/images/hotel/max1280x900/104/104550320.jpg,44.15742812,27.31717765,2020-06-13T08:19:55+0000,853.0,1280.0,,,Romania,DN3; Chiciu; Călărași; 910079; Romania,hotel,cameraforensics
https://r-cf.bstatic.com/images/hotel/max1280x900/629/6292560.jpg,44.13432246,27.2754854,2020-11-01T23:28:08+0000,900.0,598.0,,,Romania,Baden; DN3; Chiciu; Călărași; Romania,hotel,cameraforensics
https://r-cf.bstatic.com/images/hotel/max1280x900/629/6292375.jpg,44.13432246,27.2754854,2020-06-13T19:29:03+0000,900.0,598.0,,,Romania,Baden; DN3; Chiciu; Călărași; Romania,hotel,cameraforensics
https://r-cf.bstatic.com/images/hotel/max1280x900/629/6292388.jpg,44.13432246,27.2754854,2020-11-01T23:28:06+0000,900.0,598.0,,,Romania,Baden; DN3; Chiciu; Călărași; Romania,hotel,cameraforensics
