url,latitude,longitude,date,height,width,media,copyRight,country,address,keyword,source
https://live.staticflickr.com/7378/9827086683_152273615c_o.jpg,36.485333333333344,-4.955,,,,,,Spain,Marbella; Costa del Sol Occidental; Malaga; Andalusia; 29660; Spain,hotel,cameraforensics
https://live.staticflickr.com/4249/35252955872_c9d7506289_o.jpg,36.488975,-4.9612916666666695,,,,,,Spain,Casino Marbella; Calle las Malvas; Aldea Blanca; Marbella; Costa del Sol Occidental; Malaga; Andalusia; 29660; Spain,hotel,cameraforensics
https://live.staticflickr.com/2941/15223590257_486ab9e9f5_o.jpg,36.48494444444444,-4.95379166666667,,,,,,Spain,La Marina; Calle Muelle Benabola; Marbella; Costa del Sol Occidental; Malaga; Andalusia; 29660; Spain,hotel,cameraforensics
https://live.staticflickr.com/7354/12311047283_a0ec58f9c9_o.jpg,36.4855,-4.9585,,,,,,Spain,Ocean Club Marbella; Avenida Nueva Andalucia 1F; Marbella; Costa del Sol Occidental; Malaga; Andalusia; 29660; Spain,hotel,cameraforensics
https://live.staticflickr.com/6147/5967330578_7bf849f5b7_o.jpg,36.48933333333333,-4.95316666666667,,,,,,Spain,Marbella; Costa del Sol Occidental; Malaga; Andalusia; Spain,hotel,cameraforensics
https://live.staticflickr.com/8425/7515826500_7ceb3a1260_o.jpg,36.49133333333333,-4.94983333333333,,,,,,Spain,Playa Rocio; Avenida de las Naciones Unidas; Marbella; Costa del Sol Occidental; Malaga; Andalusia; 29660; Spain,hotel,cameraforensics
https://live.staticflickr.com/8462/8046007147_6ed0cd5c35_o.jpg,36.49116666666666,-4.94966666666667,,,,,,Spain,Playa Rocio; Avenida de las Naciones Unidas; Marbella; Costa del Sol Occidental; Malaga; Andalusia; 29660; Spain,hotel,cameraforensics
https://live.staticflickr.com/3930/15409767662_edd1b4792c_o.jpg,36.48849166666667,-4.9542194444444405,,,,,,Spain,Route 66 Marbella; Calle Jesús Puente; Marbella; Costa del Sol Occidental; Malaga; Andalusia; 29660; Spain,hotel,cameraforensics
https://q-cf.bstatic.com/images/hotel/max1280x900/182/182120305.jpg,36.4883426,-4.9519543,,,,,,Spain,Al Capone; Avenida Julio Iglesias; Marbella; Costa del Sol Occidental; Malaga; Andalusia; 29660; Spain,hotel,cameraforensics
https://q-cf.bstatic.com/images/hotel/max1280x900/176/176159177.jpg,36.48890220000001,-4.954839,,,,,,Spain,Puerto Banús; Calle Jesús Puente; Marbella; Costa del Sol Occidental; Malaga; Andalusia; 29660; Spain,hotel,cameraforensics
https://live.staticflickr.com/723/33430180986_514867e69a_o.jpg,38.53700277777778,-0.11281666666666999,,,,,,Spain,The Crown; Calle de Gerona; Llevant - Levante; Benidorm; la Marina Baixa; Alacant / Alicante; Valencian Community; 03503; Spain,hotel,cameraforensics
https://live.staticflickr.com/1709/25959922466_9ded096f37_o.jpg,38.53365833333334,-0.10721666666667,,,,,,Spain,La Torre; Avenida de Estocolmo; el Racó de l'Oix - El Rincón de Loix; Benidorm; la Marina Baixa; Alacant / Alicante; Valencian Community; 03500; Spain,hotel,cameraforensics
http://static.panoramio.com/photos/original/37817329.jpg,38.53722222222222,-0.10472222222222001,,,,,,Spain,Edificio Doña Agustina - 1; Avenida de Roma; el Racó de l'Oix - El Rincón de Loix; Benidorm; la Marina Baixa; Alacant / Alicante; Valencian Community; 03500; Spain,hotel,cameraforensics
https://q-cf.bstatic.com/images/hotel/max1280x900/125/125169011.jpg,38.534879,-0.104564,,,,,,Spain,Calle de Bruselas; el Racó de l'Oix - El Rincón de Loix; Benidorm; la Marina Baixa; Alacant / Alicante; Valencian Community; 03500; Spain,hotel,cameraforensics
https://q-cf.bstatic.com/images/hotel/max1280x900/178/178700317.jpg,38.53659438,-0.10479122,,,,,,Spain,Las Bermudas; Avenida de Estocolmo; el Racó de l'Oix - El Rincón de Loix; Benidorm; la Marina Baixa; Alacant / Alicante; Valencian Community; 03500; Spain,hotel,cameraforensics
https://r-cf.bstatic.com/images/hotel/max1280x900/164/164453397.jpg,38.532841999999995,-0.10737200000000001,,,,,,Spain,Rica's Beach Bar; 34; Avenida de Madrid; el Racó de l'Oix - El Rincón de Loix; Benidorm; la Marina Baixa; Alacant / Alicante; Valencian Community; 03503; Spain,hotel,cameraforensics
https://live.staticflickr.com/5114/13925408448_a1c8a229da_o.jpg,38.53746666666667,-0.11590277777777999,,,,,,Spain,Beachcomber; Avinguda de Mallorca; Llevant - Levante; Benidorm; la Marina Baixa; Alacant / Alicante; Valencian Community; 03503; Spain,hotel,cameraforensics
https://live.staticflickr.com/2808/9843625305_4c02e7f869_o.jpg,38.53783333333333,-0.11633333333333,,,,,,Spain,Hotel Marina; Calle de Gerona; Llevant - Levante; Benidorm; la Marina Baixa; Alacant / Alicante; Valencian Community; 03503; Spain,hotel,cameraforensics
https://live.staticflickr.com/4102/4820783557_1960b4b616_o.jpg,38.53966666666667,-0.10733333333333,,,,,,Spain,Aparthotel Lux Mar; Calle Zamora; el Racó de l'Oix - El Rincón de Loix; Benidorm; la Marina Baixa; Alacant / Alicante; Valencian Community; 03500; Spain,hotel,cameraforensics
https://q-cf.bstatic.com/images/hotel/max1280x900/141/141146968.jpg,38.537532,-0.10233851,,,,,,Spain,11; Avenida de Montecarlo; el Racó de l'Oix - El Rincón de Loix; Benidorm; la Marina Baixa; Alacant / Alicante; Valencian Community; 03500; Spain,hotel,cameraforensics
https://q-cf.bstatic.com/images/hotel/max1280x900/165/165594362.jpg,37.88742,-0.7545,,,,,,Spain,Lugano I; Avenida de Holanda; Pilar de la Horadada; el Baix Segura / La Vega Baja del Segura; Alacant / Alicante; Valencian Community; 03191; Spain,hotel,cameraforensics
https://q-cf.bstatic.com/images/hotel/max1280x900/129/129986357.jpg,37.887301,-0.75545,,,,,,Spain,calle Lepanto; Urbanización Mil Palmeras; el Baix Segura / La Vega Baja del Segura; Alacant / Alicante; Valencian Community; 03191; Spain,hotel,cameraforensics
https://r-cf.bstatic.com/images/hotel/max1280x900/204/204497172.jpg,37.88659134,-0.75454764,,,,,,Spain,LUCERNA I; Avenida de Italia; Urbanización Mil Palmeras; el Baix Segura / La Vega Baja del Segura; Alacant / Alicante; Valencian Community; 03191; Spain,hotel,cameraforensics
https://r-cf.bstatic.com/images/hotel/max1280x900/162/162836622.jpg,37.888264,-0.756774,,,,,,Spain,Calle Titanic; Urbanización Mil Palmeras; el Baix Segura / La Vega Baja del Segura; Alacant / Alicante; Valencian Community; 03191; Spain,hotel,cameraforensics
https://q-cf.bstatic.com/images/hotel/max1280x900/151/151396160.jpg,37.88959586,-0.75336654,,,,,,Spain,Avenida de Francia; Urbanización Mil Palmeras; el Baix Segura / La Vega Baja del Segura; Alacant / Alicante; Valencian Community; 03191; Spain,hotel,cameraforensics
https://live.staticflickr.com/5569/14634914949_fa3079b143_o.jpg,37.88652036111111,-0.75680063888889,,,,,,Spain,Avenida de España; Urbanización Mil Palmeras; el Baix Segura / La Vega Baja del Segura; Alacant / Alicante; Valencian Community; 03191; Spain,hotel,cameraforensics
https://r-cf.bstatic.com/images/hotel/max1280x900/173/173758891.jpg,37.89009732,-0.75313947,,,,,,Spain,Avenida de Francia; Urbanización Mil Palmeras; el Baix Segura / La Vega Baja del Segura; Alacant / Alicante; Valencian Community; 03191; Spain,hotel,cameraforensics
https://r-cf.bstatic.com/images/hotel/max1280x900/173/173724329.jpg,37.88832028,-0.7562183000000001,,,,,,Spain,Los Boleros; Avenida de Holanda; Urbanización Mil Palmeras; el Baix Segura / La Vega Baja del Segura; Alacant / Alicante; Valencian Community; 03191; Spain,hotel,cameraforensics
https://r-cf.bstatic.com/images/hotel/max1280x900/129/129986321.jpg,37.887301,-0.75545,,,,,,Spain,calle Lepanto; Urbanización Mil Palmeras; el Baix Segura / La Vega Baja del Segura; Alacant / Alicante; Valencian Community; 03191; Spain,hotel,cameraforensics
https://q-cf.bstatic.com/images/hotel/max1280x900/162/162836839.jpg,37.888264,-0.756774,,,,,,Spain,Calle Titanic; Urbanización Mil Palmeras; el Baix Segura / La Vega Baja del Segura; Alacant / Alicante; Valencian Community; 03191; Spain,hotel,cameraforensics
https://live.staticflickr.com/4505/38186778466_af5ee0e13a_o.jpg,38.99205833333333,1.56962222222222,,,,,,Spain,Sol s'Argamassa; Avinguda de Cala Martina; S’Argamassa; Santa Eulària des Riu; Ibiza; Balearic Islands; 07849; Spain,hotel,cameraforensics
https://r-cf.bstatic.com/images/hotel/max1280x900/244/24446587.jpg,38.99407237,1.56643152,,,,,,Spain,Avinguda de s'Argamassa; S’Argamassa; Santa Eulària des Riu; Ibiza; Balearic Islands; 07849; Spain,hotel,cameraforensics
https://q-cf.bstatic.com/images/hotel/max1280x900/693/6936569.jpg,38.99414742,1.56367958,,,,,,Spain,Avinguda de s'Argamassa; S’Argamassa; Santa Eulària des Riu; Ibiza; Balearic Islands; 07849; Spain,hotel,cameraforensics
https://live.staticflickr.com/65535/33826415708_c5634b47d0_o.jpg,38.99531535003332,1.5683845399974998,,,,,,Spain,Carrer de sa Trenca; S’Argamassa; Santa Eulària des Riu; Ibiza; Balearic Islands; 07849; Spain,hotel,cameraforensics
https://live.staticflickr.com/4112/5054513158_ee815687b3_o.jpg,38.99489833333333,1.5677383333333301,,,,,,Spain,Acora; 3; Carrer del Mestral; S’Argamassa; Santa Eulària des Riu; Ibiza; Balearic Islands; 07849; Spain,hotel,cameraforensics
https://live.staticflickr.com/4109/5053997135_f429f0d3c3_o.jpg,38.99485666666666,1.5677083333333302,,,,,,Spain,Acora; 3; Carrer del Mestral; S’Argamassa; Santa Eulària des Riu; Ibiza; Balearic Islands; 07849; Spain,hotel,cameraforensics
https://r-cf.bstatic.com/images/hotel/max1280x900/170/170893525.jpg,38.99407237,1.56643152,,,,,,Spain,Avinguda de s'Argamassa; S’Argamassa; Santa Eulària des Riu; Ibiza; Balearic Islands; 07849; Spain,hotel,cameraforensics
https://live.staticflickr.com/4109/5054229487_811ceb60f9_o.jpg,38.99474666666666,1.5677450000000002,,,,,,Spain,Acora; 3; Carrer del Mestral; S’Argamassa; Santa Eulària des Riu; Ibiza; Balearic Islands; 07849; Spain,hotel,cameraforensics
https://live.staticflickr.com/6017/5971389756_069b18c732_o.jpg,38.99485833333333,1.5677266666666698,,,,,,Spain,Acora; 3; Carrer del Mestral; S’Argamassa; Santa Eulària des Riu; Ibiza; Balearic Islands; 07849; Spain,hotel,cameraforensics
https://r-cf.bstatic.com/images/hotel/max1280x900/590/59079611.jpg,38.99390873,1.56718925,,,,,,Spain,IBEROSTAR Santa Eulalia; Carrer del Mestral; S’Argamassa; Santa Eulària des Riu; Ibiza; Balearic Islands; 07849; Spain,hotel,cameraforensics
https://live.staticflickr.com/4267/34677145401_bb7924a5eb_o.jpg,42.87737222222222,-8.55176666666667,,,,,,Spain,Avenida de Antonio Raimundo Ibáñez; A Espiñeira; Villaldía; Santiago de Compostela; Santiago; A Coruña; Galicia; Spain,hotel,cameraforensics
https://live.staticflickr.com/8328/8108359544_d7083a80a3_o.jpg,42.87216666666666,-8.5505,,,,,,Spain,15; Rúa de Santiago de Chile; Cornes; Villaldía; Santiago de Compostela; Santiago; A Coruña; Galicia; 15701; Spain,hotel,cameraforensics
https://live.staticflickr.com/916/28307456737_b3b8ecee72_o.jpg,42.87049722222222,-8.56431666666667,,,,,,Spain,Complexo Hospitalario Universitario de Santiago; Rúa da Choupana; A Espiñeira; A Choupana; Santiago de Compostela; Santiago; A Coruña; Galicia; 15706; Spain,hotel,cameraforensics
http://static.panoramio.com/photos/original/95739218.jpg,42.87019805555556,-8.54675138888889,,,,,,Spain,Hórreo (RENFE); Túnel do Hórreo; Cornes; Villaldía; Santiago de Compostela; Santiago; A Coruña; Galicia; 15702; Spain,hotel,cameraforensics
https://r-cf.bstatic.com/images/hotel/max1280x900/192/192925013.jpg,42.8710263,-8.55795,,,,,,Spain,18; Rúa da Espiñeira; A Espiñeira; Santa Marta de Abaixo; Santiago de Compostela; Santiago; A Coruña; Galicia; 15706; Spain,hotel,cameraforensics
https://q-cf.bstatic.com/images/hotel/max1280x900/467/46742488.jpg,42.87182638,-8.55565399,,,,,,Spain,Rosalía de Castro (hotel Peregrino); Avenida de Rosalía de Castro; A Espiñeira; Villaldía; Santiago de Compostela; Santiago; A Coruña; Galicia; 15706; Spain,hotel,cameraforensics
https://q-cf.bstatic.com/images/hotel/max1280x900/180/180617262.jpg,42.87282745,-8.5508417,,,,,,Spain,Cornes; Villaldía; Santiago de Compostela; Santiago; A Coruña; Galicia; 15701; Spain,hotel,cameraforensics
https://r-cf.bstatic.com/images/hotel/max1280x900/157/157735340.jpg,42.87445200000001,-8.547811,,,,,,Spain,Aparcabicis República do Salvador (IV); Rúa da República de El Salvador; Cornes; Villaldía; Santiago de Compostela; Santiago; A Coruña; Galicia; 15701; Spain,hotel,cameraforensics
https://live.staticflickr.com/7268/27583898592_e3f4905d88_o.jpg,42.87386388888889,-8.5572,,,,,,Spain,Campus Vida USC; Rúa de Vicente Fraiz Andón; A Espiñeira; O Banco do Pobre; Santiago de Compostela; Santiago; A Coruña; Galicia; 15782; Spain,hotel,cameraforensics
https://live.staticflickr.com/8176/7976985655_9db7ab91ba_o.jpg,42.86966666666667,-8.55833333333333,,,,,,Spain,Rúa de Emilia Pardo Bazán; A Espiñeira; Santa Marta de Abaixo; Santiago de Compostela; Santiago; A Coruña; Galicia; 15706; Spain,hotel,cameraforensics
https://live.staticflickr.com/7312/14109649583_112abea1fb_o.jpg,28.99793888888889,-13.48929444444444,,,,,,Spain,Avenida Arenas Blancas; Costa Teguise; Teguise; Las Palmas; Canary Islands; 35508; Spain,hotel,cameraforensics
https://q-cf.bstatic.com/images/hotel/max1280x900/187/187090947.jpg,29.006529399999998,-13.484879199999998,,,,,,Spain,Avenida Las Palmeras; Costa Teguise; Teguise; Las Palmas; Canary Islands; 35508; Spain,hotel,cameraforensics
https://live.staticflickr.com/2851/9126441801_ea49133dd6_o.jpg,28.99666666666667,-13.4895,,,,,,Spain,Hotel Barcelo Teguise Beach; Calle La Falua; Costa Teguise; Teguise; Las Palmas; Canary Islands; 35508; Spain,hotel,cameraforensics
https://live.staticflickr.com/7207/6803190698_5ac38926c4_o.jpg,29.00366666666667,-13.48133333333333,,,,,,Spain,Plaza Del Sol; Sands Beach Resort; Costa Teguise; Teguise; Las Palmas; Canary Islands; 35508; Spain,hotel,cameraforensics
https://live.staticflickr.com/8292/7781699854_bf68364b8f_o.jpg,29.00383333333333,-13.482999999999999,,,,,,Spain,Sands Beach Resort; 18; Avenida Islas Canarias; Costa Teguise; Teguise; Las Palmas; Canary Islands; 35508; Spain,hotel,cameraforensics
https://q-cf.bstatic.com/images/hotel/max1280x900/161/161306564.jpg,28.99793,-13.493898000000002,,,,,,Spain,Aquarius IV; Costa Teguise; Teguise; Las Palmas; Canary Islands; 35508; Spain,hotel,cameraforensics
https://r-cf.bstatic.com/images/hotel/max1280x900/186/186374641.jpg,29.00631553,-13.48520756,,,,,,Spain,Avenida Las Palmeras; Costa Teguise; Teguise; Las Palmas; Canary Islands; 35508; Spain,hotel,cameraforensics
https://q-cf.bstatic.com/images/hotel/max1280x900/209/209010247.jpg,29.00681324,-13.48476426,,,,,,Spain,Avenida Las Palmeras; Costa Teguise; Teguise; Las Palmas; Canary Islands; 35508; Spain,hotel,cameraforensics
https://q-cf.bstatic.com/images/hotel/max1280x900/344/34436362.jpg,29.00195684,-13.48291218,,,,,,Spain,Playa de los Charcos; Calle Mastil; Costa Teguise; Teguise; Las Palmas; Canary Islands; 35508; Spain,hotel,cameraforensics
https://live.staticflickr.com/8460/7979311506_c5c7590f5a_o.jpg,29.004,-13.481,,,,,,Spain,Plaza Verde; Sands Beach Resort; Costa Teguise; Teguise; Las Palmas; Canary Islands; 35508; Spain,hotel,cameraforensics
https://live.staticflickr.com/1534/26437460241_6136f0f6eb_o.jpg,39.371763888888886,3.23288611111111,,,,,,Spain,Carrer del Marquès de Comillas; Cala d'Or; Santanyí; Migjorn; Balearic Islands; 07660; Spain,hotel,cameraforensics
https://live.staticflickr.com/5713/20875484326_69923e8782_o.jpg,39.37857436111111,3.2360596388888903,,,,,,Spain,Andy's; Carrer de s'Espalmador; Cala d'Or; Santanyí; Migjorn; Balearic Islands; 07660; Spain,hotel,cameraforensics
https://live.staticflickr.com/65535/48556767967_07a4525414_o.jpg,39.376127777777775,3.2367416666666697,,,,,,Spain,Esmeralda Park; Avinguda Platja d'or; Cala d'Or; Santanyí; Migjorn; Balearic Islands; 07660; Spain,hotel,cameraforensics
https://r-cf.bstatic.com/images/hotel/max1280x900/176/176766100.jpg,39.37637,3.23468,,,,,,Spain,carrer Figueretes; Cala d'Or; Santanyí; Migjorn; Balearic Islands; 07660; Spain,hotel,cameraforensics
https://q-cf.bstatic.com/images/hotel/max1280x900/164/164971816.jpg,39.3735,3.23842,,,,,,Spain,Carrer de s'Olla; Cala d'Or; Santanyí; Migjorn; Balearic Islands; 07660; Spain,hotel,cameraforensics
https://r-cf.bstatic.com/images/hotel/max1280x900/150/150926958.jpg,39.38172301,3.2394486000000002,,,,,,Spain,Carrer Forn; Cala Ferrera; Felanitx; Migjorn; Balearic Islands; Spain,hotel,cameraforensics
https://r-cf.bstatic.com/images/hotel/max1280x900/629/62966287.jpg,39.38273047,3.23819339,,,,,,Spain,Monsuau; Avinguda Cala d'Or; Cala Ferrera; Felanitx; Migjorn; Balearic Islands; 07660; Spain,hotel,cameraforensics
https://r-cf.bstatic.com/images/hotel/max1280x900/701/70113526.jpg,39.38147343,3.24006155,,,,,,Spain,Carrer Forn; Cala Ferrera; Felanitx; Migjorn; Balearic Islands; Spain,hotel,cameraforensics
https://r-cf.bstatic.com/images/hotel/max1280x900/164/164970729.jpg,39.38016,3.22967,,,,,,Spain,Carrer Molins; Cala d'Or; Santanyí; Migjorn; Balearic Islands; 07660; Spain,hotel,cameraforensics
https://q-cf.bstatic.com/images/hotel/max1280x900/104/104835311.jpg,39.37761383,3.23903977,,,,,,Spain,Cala Azul Park; Carrer del Caló des Corral; Cala d'Or; Santanyí; Migjorn; Balearic Islands; 07660; Spain,hotel,cameraforensics
https://live.staticflickr.com/8057/29031773781_47cdcbf4b2_o.jpg,43.314925,-1.99795555555556,,,,,,Spain,Miramar Jauregia/Palacio de Miramar; Mirakontxa pasealekua/Paseo de Miraconcha; Antiguo; San Sebastián; Donostialdea; Gipuzkoa; Autonomous Community of the Basque Country; 20008; Spain,hotel,cameraforensics
https://live.staticflickr.com/7709/27633635082_babfcf727a_o.jpg,43.316894444444436,-2.00371388888889,,,,,,Spain,Irutxulo pasealekua; Antiguo; San Sebastián; Donostialdea; Gipuzkoa; Autonomous Community of the Basque Country; 20008; Spain,hotel,cameraforensics
https://r-cf.bstatic.com/images/hotel/max1280x900/202/202036007.jpg,43.315287,-2.004657,,,,,,Spain,Villa Matilde-enea; 16; Brunet kalea; Antiguo; San Sebastián; Donostialdea; Gipuzkoa; Autonomous Community of the Basque Country; 20008; Spain,hotel,cameraforensics
https://live.staticflickr.com/7192/6880034313_697c628747_o.jpg,43.3075,-2.01083333333333,,,,,,Spain,Informatika Fakultatea UPV/EHU; 1; Manuel Lardizabal pasealekua; Ibaeta; San Sebastián; Donostialdea; Gipuzkoa; Autonomous Community of the Basque Country; 20018; Spain,hotel,cameraforensics
https://live.staticflickr.com/8532/8572586366_61ea672684_o.jpg,43.31266666666667,-2.0069999999999997,,,,,,Spain,Hotel NH Aranzazu; 1; Gasteiz kalea; Antiguo; San Sebastián; Donostialdea; Gipuzkoa; Autonomous Community of the Basque Country; 20018; Spain,hotel,cameraforensics
https://live.staticflickr.com/543/19701863640_dd355e6f4e_o.jpg,43.3143823888889,-1.99806688888889,,,,,,Spain,Miramar Jauregia/Palacio de Miramar; Mirakontxa pasealekua/Paseo de Miraconcha; Antiguo; San Sebastián; Donostialdea; Gipuzkoa; Autonomous Community of the Basque Country; 20008; Spain,hotel,cameraforensics
https://live.staticflickr.com/7377/26824817216_43ababf56a_o.jpg,43.31676388888889,-2.00108888888889,,,,,,Spain,Irutxulo pasealekua; Antiguo; San Sebastián; Donostialdea; Gipuzkoa; Autonomous Community of the Basque Country; 20008; Spain,hotel,cameraforensics
https://live.staticflickr.com/8183/8139961248_d103849104_o.jpg,43.31666666666667,-2.0006666666666697,,,,,,Spain,Irutxulo pasealekua; Antiguo; San Sebastián; Donostialdea; Gipuzkoa; Autonomous Community of the Basque Country; 20008; Spain,hotel,cameraforensics
https://q-cf.bstatic.com/images/hotel/max1280x900/795/79526496.jpg,43.30713002,-2.01269478,,,,,,Spain,Residencia Manuel Agud Querol; 9; Berio pasealekua; Ibaeta; San Sebastián; Donostialdea; Gipuzkoa; Autonomous Community of the Basque Country; 20018; Spain,hotel,cameraforensics
https://r-cf.bstatic.com/images/hotel/max1280x900/841/84141600.jpg,43.31103091,-2.00109841,,,,,,Spain,Koisi Hostel; Heriz pasealekua; Antiguo; San Sebastián; Donostialdea; Gipuzkoa; Autonomous Community of the Basque Country; 20008; Spain,hotel,cameraforensics
https://live.staticflickr.com/778/31712248493_ed3b6593a4_o.jpg,41.651945472222216,-4.72888458333333,,,,,,Spain,Estatua del Conde Ansúrez; Plaza Mayor; Centro; Valladolid; Castile and León; Spain,hotel,cameraforensics
https://live.staticflickr.com/4145/5082873263_1fe51c052d_o.jpg,41.6525,-4.724,,,,,,Spain,El Largo Adiós; Calle de Arribas; Universidad; Valladolid; Castile and León; 47002; Spain,hotel,cameraforensics
https://live.staticflickr.com/4197/34736086581_17afb7ca4b_o.jpg,41.64802222222222,-4.72938055555556,,,,,,Spain,Atención al cliente AUVASA; Plaza de Zorrilla; El Cuadro; Centro; Valladolid; Castile and León; 47001; Spain,hotel,cameraforensics
https://live.staticflickr.com/7333/16207548519_055e9fee1a_o.jpg,41.651091888888885,-4.7255771944444405,,,,,,Spain,Azul Marino; Calle de San Felipe Neri; Universidad; Valladolid; Castile and León; 47001; Spain,hotel,cameraforensics
https://live.staticflickr.com/1694/23756919333_ae6cb91ea2_o.jpg,41.65211111111111,-4.7291472222222195,,,,,,Spain,Loterías y Apuestas del Estado; Plaza Mayor; Centro; Valladolid; Castile and León; 47001; Spain,hotel,cameraforensics
http://static.panoramio.com/photos/original/76368802.jpg,41.652426,-4.7236660000000015,,,,,,Spain,Catedral de Nuestra Señora de la Asunción; Calle de Arribas; Universidad; Valladolid; Castile and León; 47002; Spain,hotel,cameraforensics
https://live.staticflickr.com/1482/26036506595_0cf9e4bf62_o.jpg,41.65172138888889,-4.728244999999999,,,,,,Spain,Teatro Zorrilla; 9; Plaza Mayor; Centro; Valladolid; Castile and León; 47001; Spain,hotel,cameraforensics
https://noescinetodoloquereluce.com/wp-content/uploads/2019/06/18-HulkBuster-XL-Marvel-Movie-Collection-010.jpg,41.64975,-4.72243888888889,,,,,,Spain,Teatro Cervantes; Calle del Santuario; Universidad; Valladolid; Castile and León; 47002; Spain,hotel,cameraforensics
https://noescinetodoloquereluce.com/wp-content/uploads/2019/07/Nosotros-Steelbook-Bluray-009.jpg,41.64976111111111,-4.7224527777777805,,,,,,Spain,Teatro Cervantes; Calle del Santuario; Universidad; Valladolid; Castile and León; 47002; Spain,hotel,cameraforensics
https://noescinetodoloquereluce.com/wp-content/uploads/2018/02/Blade-Runner-2049-Steelbook-Bluray-08.jpg,41.64973888888889,-4.722413888888889,,,,,,Spain,Teatro Cervantes; Calle del Santuario; Universidad; Valladolid; Castile and León; 47002; Spain,hotel,cameraforensics
https://live.staticflickr.com/7180/13560665925_8414e6f256_o.jpg,39.50988055555555,2.48323611111111,,,,,,Spain,Avinguda de Nova Santa Ponça; Santa Ponça; Calvià; Serra de Tramuntana; Balearic Islands; 07180; Spain,hotel,cameraforensics
https://r-cf.bstatic.com/images/hotel/max1280x900/166/166111965.jpg,39.50884142,2.4778636,,,,,,Spain,carrer del Puig de Sant Salvador; Santa Ponça; Calvià; Serra de Tramuntana; Balearic Islands; 07180; Spain,hotel,cameraforensics
https://r-cf.bstatic.com/images/hotel/max1280x900/158/15839837.jpg,39.51284189,2.47684702,,,,,,Spain,Bahía del Sol; 74; Avinguda del Rei Jaume I; Santa Ponça; Urbanització Galatzó; Calvià; Serra de Tramuntana; Balearic Islands; 07180; Spain,hotel,cameraforensics
https://q-cf.bstatic.com/images/hotel/max1280x900/472/47207843.jpg,39.51266807,2.48451948,,,,,,Spain,Plazamar; Avinguda del Golf; Santa Ponça; Urbanització Galatzó; Calvià; Serra de Tramuntana; Balearic Islands; 07180; Spain,hotel,cameraforensics
https://q-cf.bstatic.com/images/hotel/max1280x900/166/166111950.jpg,39.50884142,2.4778636,,,,,,Spain,carrer del Puig de Sant Salvador; Santa Ponça; Calvià; Serra de Tramuntana; Balearic Islands; 07180; Spain,hotel,cameraforensics
https://r-cf.bstatic.com/images/hotel/max1280x900/734/73408445.jpg,39.51741381,2.4844484000000002,,,,,,Spain,Pionero; gran via del Puig des Teix; Santa Ponça; Urbanització Galatzó; Calvià; Serra de Tramuntana; Balearic Islands; 07180; Spain,hotel,cameraforensics
https://r-cf.bstatic.com/images/hotel/max1280x900/474/47484782.jpg,39.5150146,2.48323202,,,,,,Spain,Plaza Santa Ponsa; 2; Plaça de Santa Ponça; Santa Ponça; Urbanització Galatzó; Calvià; Serra de Tramuntana; Balearic Islands; 07180; Spain,hotel,cameraforensics
https://q-cf.bstatic.com/images/hotel/max1280x900/150/150616004.jpg,39.51860045,2.48466969,,,,,,Spain,4; Gran Via del Puig Major; Santa Ponça; Urbanització Galatzó; Calvià; Serra de Tramuntana; Balearic Islands; 07180; Spain,hotel,cameraforensics
https://live.staticflickr.com/3802/9293447323_6f8193da88_o.jpg,39.51783333333334,2.48833333333333,,,,,,Spain,La Kuky; Carrer Riu Sil; Santa Ponça; Urbanització Galatzó; Calvià; Serra de Tramuntana; Balearic Islands; 07180; Spain,hotel,cameraforensics
https://live.staticflickr.com/6127/5977584878_0f11cbfc0d_o.jpg,39.51933333333334,2.4821666666666697,,,,,,Spain,Miraflores; Carrer de Ramon de Montcada; Santa Ponça; Urbanització Galatzó; Calvià; Serra de Tramuntana; Balearic Islands; 07180; Spain,hotel,cameraforensics
https://live.staticflickr.com/4460/26239501609_103c337d8c_o.jpg,43.556125,-5.93150277777778,,,,,,Spain,Calle Juan XXIII; Sabugo; El Montán; Avilés; 33401; Spain,hotel,cameraforensics
https://live.staticflickr.com/4273/35152628242_1732cf65c2_o.jpg,43.55102683333333,-5.91510775,,,,,,Spain,Calle Suárez del Villar; El Pozón; Avilés; 33402; Spain,hotel,cameraforensics
https://live.staticflickr.com/533/18859068643_958ca6792e_o.jpg,43.55431747222222,-5.92355155555556,,,,,,Spain,Escuela de Oficios; Plaza Domingo Álvarez Acebal; Sabugo; Avilés; Spain,hotel,cameraforensics
https://live.staticflickr.com/6053/6217590138_687b612f68_o.jpg,43.55466666666667,-5.92383333333333,,,,,,Spain,Taberna la Bellota; Plaza Domingo Álvarez Acebal; Sabugo; Avilés; 33402; Spain,hotel,cameraforensics
https://live.staticflickr.com/8140/8763453377_0f23de83a7_o.jpg,43.5572166388889,-5.9210605555555595,,,,,,Spain,Iglesia de los Padres Franciscanos; Plaza de Carlos Lobo; Sabugo; Avilés; Spain,hotel,cameraforensics
https://live.staticflickr.com/7229/6871292286_45a9917375_o.jpg,43.55764552999722,-5.9171569300019415,,,,,,Spain,Centro Cultural Internacional Oscar Niemeyer; Acceso al Puerto de Avilés; Sabugo; Llaranes; Avilés; 33402; Spain,hotel,cameraforensics
https://live.staticflickr.com/4650/40610476731_720d1d5e86_o.jpg,43.5562361111111,-5.92257777777778,,,,,,Spain,Hotel 40 Nudos; 9; Calle La Fruta; Sabugo; Avilés; 33402; Spain,hotel,cameraforensics
https://live.staticflickr.com/7063/6933269238_2407cc0f58_o.jpg,43.557022777777775,-5.91859527777778,,,,,,Spain,Sabugo; Avilés; 33402; Spain,hotel,cameraforensics
https://r-cf.bstatic.com/images/hotel/max1280x900/163/163154731.jpg,43.55659201,-5.92230946,,,,,,Spain,Hotel Don Pedro; 22; Calle La Fruta; Sabugo; Avilés; 33402; Spain,hotel,cameraforensics
https://live.staticflickr.com/65535/48381916406_fa8775eed7_o.jpg,43.55151388888889,-5.9266527777777815,,,,,,Spain,Colegio Público Palacio Valdés; Avenida de Portugal; La Ceba; Avilés; 33402; Spain,hotel,cameraforensics
https://live.staticflickr.com/461/32103861830_f84fc772b8_o.jpg,28.859019444444453,-13.81671666666667,,,,,,Spain,Lani's Snack Bar; Camino a Capitania; Castillo del Águila; Playa Blanca; Yaiza; Las Palmas; Canary Islands; 35580; Spain,hotel,cameraforensics
https://live.staticflickr.com/663/32351846364_af8e120eb0_o.jpg,28.86310277777779,-13.81457777777778,,,,,,Spain,Avenida de Papagayo; Castillo del Águila; Playa Blanca; Yaiza; Las Palmas; Canary Islands; 35580; Spain,hotel,cameraforensics
https://r-cf.bstatic.com/images/hotel/max1280x900/714/71405050.jpg,28.85916638,-13.80594586,,,,,,Spain,Calle Calle Santa Cruz; San Marcial del Rubicon; Playa Blanca; Yaiza; Las Palmas; Canary Islands; Spain,hotel,cameraforensics
https://r-cf.bstatic.com/images/hotel/max1280x900/100/100514756.jpg,28.86149321,-13.80339425,,,,,,Spain,Calle Caleta Del Sebo; Villas de Playa Las Coloradas; San Marcial del Rubicon; Playa Blanca; Yaiza; Las Palmas; Canary Islands; 35580; Spain,hotel,cameraforensics
https://r-cf.bstatic.com/images/hotel/max1280x900/722/72244579.jpg,28.85920229,-13.80330741,,,,,,Spain,The Mirador Papagayo; Calle Calle Santa Cruz; San Marcial del Rubicon; Playa Blanca; Yaiza; Las Palmas; Canary Islands; 35580; Spain,hotel,cameraforensics
https://r-cf.bstatic.com/images/hotel/max1280x900/179/179653137.jpg,28.862024699999996,-13.812456400000002,,,,,,Spain,Restaurante La Cocinade Colacho; Avenida de Papagayo; Castillo del Águila; Playa Blanca; Yaiza; Las Palmas; Canary Islands; 35580; Spain,hotel,cameraforensics
https://live.staticflickr.com/7050/6830209710_fc8cd8acec_o.jpg,28.8585,-13.81383333333333,,,,,,Spain,Castillo del Águila; Playa Blanca; Yaiza; Las Palmas; Canary Islands; 35580; Spain,hotel,cameraforensics
https://live.staticflickr.com/65535/49406726777_226a63bb82_o.jpg,28.860084999999998,-13.81688833333333,,,,,,Spain,Paseo Maritimo; Castillo del Águila; Playa Blanca; Yaiza; Las Palmas; Canary Islands; 35580; Spain,hotel,cameraforensics
https://q-cf.bstatic.com/images/hotel/max1280x900/998/99825544.jpg,28.8598554,-13.804654199999998,,,,,,Spain,Calle Los LLanos; San Marcial del Rubicon; Playa Blanca; Yaiza; Las Palmas; Canary Islands; 35580; Spain,hotel,cameraforensics
https://q-cf.bstatic.com/images/hotel/max1280x900/998/99825561.jpg,28.8598554,-13.804654199999998,,,,,,Spain,Calle Los LLanos; San Marcial del Rubicon; Playa Blanca; Yaiza; Las Palmas; Canary Islands; 35580; Spain,hotel,cameraforensics
http://static.panoramio.com/photos/original/72800935.jpg,39.9214075,3.05791194444444,,,,,,Spain,el Maressar; carrer del Temporal; Cala Sant Vicenç; Port de Pollença; Pollença; Serra de Tramuntana; Balearic Islands; 07470; Spain,hotel,cameraforensics
https://r-cf.bstatic.com/images/hotel/max1280x900/205/205973347.jpg,39.920346,3.054992,,,,,,Spain,plaça de Sant Vicenç; Cala Sant Vicenç; Port de Pollença; Pollença; Serra de Tramuntana; Balearic Islands; 07470; Spain,hotel,cameraforensics
https://r-cf.bstatic.com/images/hotel/max1280x900/192/192795779.jpg,39.91907713,3.05585327,,,,,,Spain,carrer de Cala Molins; Cala Sant Vicenç; Port de Pollença; Pollença; Serra de Tramuntana; Balearic Islands; 07470; Spain,hotel,cameraforensics
https://q-cf.bstatic.com/images/hotel/max1280x900/199/199002369.jpg,39.917343,3.053016,,,,,,Spain,carrer del Temporal; Cala Sant Vicenç; Port de Pollença; Pollença; Serra de Tramuntana; Balearic Islands; 07470; Spain,hotel,cameraforensics
https://q-cf.bstatic.com/images/hotel/max1280x900/396/39601931.jpg,39.918578000000004,3.054322,,,,,,Spain,C/ Temporal (Cala Sant Vicenç); carrer del Temporal; Cala Sant Vicenç; Port de Pollença; Pollença; Serra de Tramuntana; Balearic Islands; 07470; Spain,hotel,cameraforensics
https://q-cf.bstatic.com/images/hotel/max1280x900/580/58036534.jpg,39.91824329,3.055014,,,,,,Spain,carrer de Cala Molins; Cala Sant Vicenç; Port de Pollença; Pollença; Serra de Tramuntana; Balearic Islands; 07470; Spain,hotel,cameraforensics
https://r-cf.bstatic.com/images/hotel/max1280x900/580/58047869.jpg,39.91842431,3.0548637999999997,,,,,,Spain,carrer de Cala Molins; Cala Sant Vicenç; Port de Pollença; Pollença; Serra de Tramuntana; Balearic Islands; 07470; Spain,hotel,cameraforensics
https://r-cf.bstatic.com/images/hotel/max1280x900/199/199018213.jpg,39.917343,3.0530150000000003,,,,,,Spain,carrer del Temporal; Cala Sant Vicenç; Port de Pollença; Pollença; Serra de Tramuntana; Balearic Islands; 07470; Spain,hotel,cameraforensics
https://q-cf.bstatic.com/images/hotel/max1280x900/109/109441469.jpg,39.91857749,3.05674313,,,,,,Spain,Cala Sant Vicenç; Port de Pollença; Pollença; Serra de Tramuntana; Balearic Islands; 07470; Spain,hotel,cameraforensics
https://r-cf.bstatic.com/images/hotel/max1280x900/168/168442341.jpg,39.91857,3.0543400000000003,,,,,,Spain,C/ Temporal (Cala Sant Vicenç); carrer del Temporal; Cala Sant Vicenç; Port de Pollença; Pollença; Serra de Tramuntana; Balearic Islands; 07470; Spain,hotel,cameraforensics
https://live.staticflickr.com/8230/28680843460_594a1d264a_o.jpg,28.053125,-16.73348666666667,,,,,,Spain,"Vans ""off the wall"" Surf school; Paseo las Vistas; El Camisón; Playa de las Américas; Los Cristianos; Arona; Santa Cruz de Tenerife; Canary Islands; 38650; Spain",hotel,cameraforensics
https://live.staticflickr.com/8689/28861437832_dbc36b1c4f_o.jpg,28.053125,-16.73348666666667,,,,,,Spain,"Vans ""off the wall"" Surf school; Paseo las Vistas; El Camisón; Playa de las Américas; Los Cristianos; Arona; Santa Cruz de Tenerife; Canary Islands; 38650; Spain",hotel,cameraforensics
https://live.staticflickr.com/2332/32749457906_ef1a7d9fc7_o.jpg,28.05990222222221,-16.72459194444444,,,,,,Spain,Deposito Municipal; Camino las Madrigueras; El Camisón; Playa de las Américas; Los Cristianos; Arona; Santa Cruz de Tenerife; Canary Islands; 38650; Spain,hotel,cameraforensics
https://live.staticflickr.com/1564/26220542146_ff96530517_o.jpg,28.060813888888887,-16.73218611111111,,,,,,Spain,Caixabank; Avenida Rafael Puig Lluvina; El Camisón; Playa de las Américas; Los Cristianos; Arona; Santa Cruz de Tenerife; Canary Islands; 38650; Spain,hotel,cameraforensics
https://live.staticflickr.com/1645/25665494963_8c61a82652_o.jpg,28.060544444444453,-16.73511944444444,,,,,,Spain,Paradise; Paseo Francisco Andrade Fumero; El Camisón; Playa de las Américas; Los Cristianos; Arona; Santa Cruz de Tenerife; Canary Islands; 38660; Spain,hotel,cameraforensics
https://live.staticflickr.com/5679/21194553484_7daa438627_o.jpg,28.05722222222222,-16.73555555555556,,,,,,Spain,Paseo Francisco Andrade Fumero; El Camisón; Playa de las Américas; Los Cristianos; Arona; Santa Cruz de Tenerife; Canary Islands; Spain,hotel,cameraforensics
https://live.staticflickr.com/1525/26358970082_46694edbae_o.jpg,28.061030555555547,-16.73324722222222,,,,,,Spain,Woldy; Calle México; El Camisón; Playa de las Américas; Los Cristianos; Arona; Santa Cruz de Tenerife; Canary Islands; 38650; Spain,hotel,cameraforensics
https://live.staticflickr.com/1586/26042240063_6121019d5b_o.jpg,28.06086388888889,-16.73318611111111,,,,,,Spain,Jags; Calle México; El Camisón; Playa de las Américas; Los Cristianos; Arona; Santa Cruz de Tenerife; Canary Islands; 38650; Spain,hotel,cameraforensics
https://live.staticflickr.com/5181/5833297520_327ede9ec5_o.jpg,28.06233333333333,-16.7335,,,,,,Spain,Arona Surf; Paseo Francisco Andrade Fumero; El Camisón; Playa de las Américas; Los Cristianos; Arona; Santa Cruz de Tenerife; Canary Islands; 38660; Spain,hotel,cameraforensics
http://static.panoramio.com/photos/original/14478356.jpg,28.05407833001111,-16.735020000000002,,,,,,Spain,El Camisón; Playa de las Américas; Los Cristianos; Arona; Santa Cruz de Tenerife; Canary Islands; 38650; Spain,hotel,cameraforensics
https://live.staticflickr.com/5694/22600228245_84461f7844_o.jpg,39.839828472222216,3.1218295,,,,,,Spain,Port d'Alcúdia; Alcúdia; Raiguer; Balearic Islands; 07408; Spain,hotel,cameraforensics
https://live.staticflickr.com/5724/22318543945_d01913e194_o.jpg,39.83619722222222,3.1243222222222204,,,,,,Spain,Sunwing; Carrer de Neptú; Port d'Alcúdia; Alcúdia; Raiguer; Balearic Islands; 07400; Spain,hotel,cameraforensics
https://r-cf.bstatic.com/images/hotel/max1280x900/178/178816920.jpg,39.83581911,3.11352968,,,,,,Spain,Seaclub; Carrer d'Anglaterra; Alcúdia; Raiguer; Balearic Islands; 7400; Spain,hotel,cameraforensics
https://q-cf.bstatic.com/images/hotel/max1280x900/219/219652391.jpg,39.835935,3.114688,,,,,,Spain,Carrer de la Cadernera; Alcúdia; Raiguer; Balearic Islands; 07408; Spain,hotel,cameraforensics
https://live.staticflickr.com/3857/18909340206_0d173e100f_o.jpg,39.83216944444445,3.1202222222222202,,,,,,Spain,Port d'Alcúdia; Alcúdia; Raiguer; Balearic Islands; 07410; Spain,hotel,cameraforensics
https://live.staticflickr.com/7363/16209685509_d726477d21_o.jpg,39.84071666666667,3.12739444444444,,,,,,Spain,13; Carretera d'Artà; Port d'Alcúdia; Alcúdia; Raiguer; Balearic Islands; 07410; Spain,hotel,cameraforensics
https://r-cf.bstatic.com/images/hotel/max1280x900/172/172438130.jpg,39.83422599,3.11131648,,,,,,Spain,Avinguda de Grècia; Alcúdia; Raiguer; Balearic Islands; 07408; Spain,hotel,cameraforensics
https://r-cf.bstatic.com/images/hotel/max1280x900/172/172438089.jpg,39.83422599,3.11131648,,,,,,Spain,Avinguda de Grècia; Alcúdia; Raiguer; Balearic Islands; 07408; Spain,hotel,cameraforensics
https://q-cf.bstatic.com/images/hotel/max1280x900/159/159846932.jpg,39.83602402,3.12074049,,,,,,Spain,Carrer d'Apol·lo; Port d'Alcúdia; Alcúdia; Raiguer; Balearic Islands; 07408; Spain,hotel,cameraforensics
https://q-cf.bstatic.com/images/hotel/max1280x900/128/128265691.jpg,39.835001,3.120579,,,,,,Spain,Sofía; Carrer de Minerva; Port d'Alcúdia; Alcúdia; Raiguer; Balearic Islands; 07408; Spain,hotel,cameraforensics
https://r-cf.bstatic.com/images/hotel/max1280x900/142/142640224.jpg,37.210533,-1.811896,,,,,,Spain,Puerto del Rey; Vera; Almeria; Andalusia; 04621; Spain,hotel,cameraforensics
https://r-cf.bstatic.com/images/hotel/max1280x900/116/116991897.jpg,37.21006767,-1.8132409999999999,,,,,,Spain,Calle de Sotavento; Puerto del Rey; Vera; Almeria; Andalusia; 04621; Spain,hotel,cameraforensics
https://r-cf.bstatic.com/images/hotel/max1280x900/212/212838517.jpg,37.212193799999994,-1.8117299999999998,,,,,,Spain,Calle Ciudad de Lorca; Puerto del Rey; Vera; Almeria; Andalusia; 04621; Spain,hotel,cameraforensics
https://r-cf.bstatic.com/images/hotel/max1280x900/169/169250514.jpg,37.209029,-1.8166099999999998,,,,,,Spain,AL-7107; Puerto del Rey; Vera; Almeria; Andalusia; 04621; Spain,hotel,cameraforensics
https://q-cf.bstatic.com/images/hotel/max1280x900/116/116935283.jpg,37.20948872,-1.81272805,,,,,,Spain,Calle de los Pinos; Puerto del Rey; Vera; Almeria; Andalusia; 04621; Spain,hotel,cameraforensics
https://q-cf.bstatic.com/images/hotel/max1280x900/188/188146528.jpg,37.20936907,-1.81256845,,,,,,Spain,Calle de los Pinos; Puerto del Rey; Vera; Almeria; Andalusia; 04621; Spain,hotel,cameraforensics
https://q-cf.bstatic.com/images/hotel/max1280x900/180/180673945.jpg,37.211804,-1.81521944,,,,,,Spain,Calle de las Washingtonas; Puerto del Rey; Vera; Almeria; Andalusia; 04621; Spain,hotel,cameraforensics
https://r-cf.bstatic.com/images/hotel/max1280x900/212/212806029.jpg,37.212193799999994,-1.8117299999999998,,,,,,Spain,Calle Ciudad de Lorca; Puerto del Rey; Vera; Almeria; Andalusia; 04621; Spain,hotel,cameraforensics
https://q-cf.bstatic.com/images/hotel/max1280x900/149/149252344.jpg,37.205828000000004,-1.8156189999999999,,,,,,Spain,Puerto del Rey; Vera; Almeria; Andalusia; 04621; Spain,hotel,cameraforensics
https://q-cf.bstatic.com/images/hotel/max1280x900/153/153272292.jpg,37.209029,-1.8166099999999998,,,,,,Spain,AL-7107; Puerto del Rey; Vera; Almeria; Andalusia; 04621; Spain,hotel,cameraforensics
https://live.staticflickr.com/4799/40032091704_59ac37470e_o.jpg,37.221425,-7.13572777777778,,,,,,Spain,Sendero Río Piedras; El Rompido; Cartaya; Costa Occidental; Huelva; Andalusia; 21459; Spain,hotel,cameraforensics
https://live.staticflickr.com/6006/5934281286_845f3d4047_o.jpg,37.22616666666666,-7.13483333333333,,,,,,Spain,Golf El Rompido - Campo Sur; km 7; Urbanización Marina De El Rompido; El Rompido; Cartaya; Costa Occidental; Huelva; Andalusia; 21450; Spain,hotel,cameraforensics
https://live.staticflickr.com/6063/6045473568_5407378148_o.jpg,37.22016666666666,-7.13333333333333,,,,,,Spain,El Río Piedras; Tramo adaptado; El Rompido; Cartaya; Costa Occidental; Huelva; Andalusia; 21459; Spain,hotel,cameraforensics
https://live.staticflickr.com/5601/15444174925_b37dc8b70a_o.jpg,37.220558333333344,-7.1318699999999975,,,,,,Spain,Tramo adaptado; El Rompido; Cartaya; Costa Occidental; Huelva; Andalusia; 21459; Spain,hotel,cameraforensics
https://live.staticflickr.com/7900/47544521562_894f7daf73_o.jpg,37.224730555555546,-7.1363,,,,,,Spain,Hotel Precise Resort El Rompido; Camino de El Lancón; El Rompido; Cartaya; Costa Occidental; Huelva; Andalusia; 21459; Spain,hotel,cameraforensics
https://r-cf.bstatic.com/images/hotel/max1280x900/613/61395692.jpg,37.22509171,-7.13675737,,,,,,Spain,Hotel Precise Resort El Rompido; Camino de El Lancón; El Rompido; Cartaya; Costa Occidental; Huelva; Andalusia; 21459; Spain,hotel,cameraforensics
https://r-cf.bstatic.com/images/hotel/max1280x900/120/120072991.jpg,37.22509171,-7.13675737,,,,,,Spain,Hotel Precise Resort El Rompido; Camino de El Lancón; El Rompido; Cartaya; Costa Occidental; Huelva; Andalusia; 21459; Spain,hotel,cameraforensics
https://q-cf.bstatic.com/images/hotel/max1280x900/613/61380653.jpg,37.22509171,-7.13675737,,,,,,Spain,Hotel Precise Resort El Rompido; Camino de El Lancón; El Rompido; Cartaya; Costa Occidental; Huelva; Andalusia; 21459; Spain,hotel,cameraforensics
https://live.staticflickr.com/3931/15466391355_1a3929dcf5_o.jpg,37.220558333333344,-7.1318699999999975,,,,,,Spain,Tramo adaptado; El Rompido; Cartaya; Costa Occidental; Huelva; Andalusia; 21459; Spain,hotel,cameraforensics
https://live.staticflickr.com/6040/6307202456_ebe15bffb3_o.jpg,37.22166666666666,-7.13466666666667,,,,,,Spain,Marismas de San Miguel; Sendero Río Piedras; El Rompido; Cartaya; Costa Occidental; Huelva; Andalusia; 21459; Spain,hotel,cameraforensics
https://r-cf.bstatic.com/images/hotel/max1280x900/118/118225281.jpg,39.93171402,3.82532358,,,,,,Spain,16B; Cap d'Artrutx; Cala en Bosch; Ciutadella; Menorca; Balearic Islands; 07769; Spain,hotel,cameraforensics
https://q-cf.bstatic.com/images/hotel/max1280x900/194/194657108.jpg,39.9288242,3.83046449,,,,,,Spain,Carrer de sa Cova des Moro; Cap d'Artrutx; Cala en Bosch; Ciutadella; Menorca; Balearic Islands; Spain,hotel,cameraforensics
https://live.staticflickr.com/8322/8036125397_7bdddc7a14_o.jpg,39.92333333333333,3.82433333333333,,,,,,Spain,Cap d'Artrutx; Cala en Bosch; Ciutadella; Menorca; Balearic Islands; Spain,hotel,cameraforensics
https://live.staticflickr.com/3844/14694218184_2e71bbd500_o.jpg,39.9268,3.82650555555556,,,,,,Spain,Pool Bar; Carrer des Cap de Mal Passar; Cap d'Artrutx; Cala en Bosch; Ciutadella; Menorca; Balearic Islands; Spain,hotel,cameraforensics
https://r-cf.bstatic.com/images/hotel/max1280x900/164/164942907.jpg,39.92370070000001,3.82378816,,,,,,Spain,72; Cap d'Artrutx; Cala en Bosch; Ciutadella; Menorca; Balearic Islands; 07769; Spain,hotel,cameraforensics
https://q-cf.bstatic.com/images/hotel/max1280x900/211/211992392.jpg,39.92853970000001,3.8321059,,,,,,Spain,Carrer de sa Cova des Moro; Cap d'Artrutx; Cala en Bosch; Ciutadella; Menorca; Balearic Islands; Spain,hotel,cameraforensics
https://q-cf.bstatic.com/images/hotel/max1280x900/211/211035037.jpg,39.92738184,3.82859864,,,,,,Spain,Carrer des Cap de Mal Passar; Cap d'Artrutx; Cala en Bosch; Ciutadella; Menorca; Balearic Islands; Spain,hotel,cameraforensics
https://q-cf.bstatic.com/images/hotel/max1280x900/186/186411415.jpg,39.92979848,3.8248366999999996,,,,,,Spain,186; Cap d'Artrutx; Cala en Bosch; Ciutadella; Menorca; Balearic Islands; 07769; Spain,hotel,cameraforensics
https://r-cf.bstatic.com/images/hotel/max1280x900/172/172567697.jpg,39.93138,3.823058,,,,,,Spain,233; Cap d'Artrutx; Cala en Bosch; Ciutadella; Menorca; Balearic Islands; 07769; Spain,hotel,cameraforensics
https://q-cf.bstatic.com/images/hotel/max1280x900/162/162446068.jpg,39.92471,3.8272519999999997,,,,,,Spain,39; Cap d'Artrutx; Cala en Bosch; Ciutadella; Menorca; Balearic Islands; 07769; Spain,hotel,cameraforensics
https://live.staticflickr.com/8502/28742650833_076fef3179_o.jpg,36.58996666666667,-4.53184722222222,,,,,,Spain,Laderas del Mediterráneo; Calle de Albatros; Benalmádena Costa; Arroyo de la Miel; Benalmádena; Costa del Sol Occidental; Malaga; Andalusia; 29630; Spain,hotel,cameraforensics
https://live.staticflickr.com/296/31786463223_f0dfed65d3_o.jpg,36.58888888888889,-4.52888888888889,,,,,,Spain,Maracas Beach Bil Bil; Avenida Antonio Machado; Benalmádena Costa; Arroyo de la Miel; Benalmádena; Costa del Sol Occidental; Malaga; Andalusia; 29630; Spain,hotel,cameraforensics
http://static.panoramio.com/photos/original/88677014.jpg,36.58933333333334,-4.52816666666667,,,,,,Spain,Castillo Bil-Bil; Avenida Antonio Machado; Benalmádena Costa; Arroyo de la Miel; Benalmádena; Costa del Sol Occidental; Malaga; Andalusia; 29630; Spain,hotel,cameraforensics
https://live.staticflickr.com/7460/13065357914_7e896eb71e_o.jpg,36.592225,-4.532911111111111,,,,,,Spain,Selwo Marina; Calle Seguidilla; Benalmádena Costa; Arroyo de la Miel; Benalmádena; Costa del Sol Occidental; Malaga; Andalusia; 29630; Spain,hotel,cameraforensics
https://q-cf.bstatic.com/images/hotel/max1280x900/179/179507423.jpg,36.587827000000004,-4.533151,,,,,,Spain,Calle Manuel Mena; Benalmádena Costa; Arroyo de la Miel; Benalmádena; Costa del Sol Occidental; Malaga; Andalusia; 29630; Spain,hotel,cameraforensics
http://static.panoramio.com/photos/original/118020467.jpg,36.58626166666667,-4.534375,,,,,,Spain,Irish Pub & Grill; Calle Torrealmádena; Benalmádena Costa; Arroyo de la Miel; Benalmádena; Costa del Sol Occidental; Malaga; Andalusia; 29630; Spain,hotel,cameraforensics
https://r-cf.bstatic.com/images/hotel/max1280x900/844/84456618.jpg,36.58265646,-4.538074900000002,,,,,,Spain,Calle Alemania; Benalmádena Costa; Benalmádena; Costa del Sol Occidental; Malaga; Andalusia; 29630; Spain,hotel,cameraforensics
https://q-cf.bstatic.com/images/hotel/max1280x900/182/182792627.jpg,36.58796257,-4.53130161,,,,,,Spain,lime and lemon; Avenida de las Palmeras; Benalmádena Costa; Arroyo de la Miel; Benalmádena; Costa del Sol Occidental; Malaga; Andalusia; 29630; Spain,hotel,cameraforensics
https://q-cf.bstatic.com/images/hotel/max1280x900/141/141670682.jpg,36.587334999999996,-4.532432,,,,,,Spain,Calle Manuel Mena; Benalmádena Costa; Arroyo de la Miel; Benalmádena; Costa del Sol Occidental; Malaga; Andalusia; 29630; Spain,hotel,cameraforensics
https://q-cf.bstatic.com/images/hotel/max1280x900/205/205094605.jpg,36.58782720000001,-4.5331510999999995,,,,,,Spain,Calle Manuel Mena; Benalmádena Costa; Arroyo de la Miel; Benalmádena; Costa del Sol Occidental; Malaga; Andalusia; 29630; Spain,hotel,cameraforensics
https://live.staticflickr.com/8388/8643887736_5db882c15e_o.jpg,28.392,-13.86016666666667,,,,,,Spain,Paseo maritimo - Seafront promenade; Caleta de Fuste; Antigua; Las Palmas; Canary Islands; 35610; Spain,hotel,cameraforensics
https://r-cf.bstatic.com/images/hotel/max1280x900/195/195456599.jpg,28.39417663,-13.86483708,,,,,,Spain,Residencial Castillo Beach Villas; Caleta de Fuste; Antigua; Las Palmas; Canary Islands; 35610; Spain,hotel,cameraforensics
https://live.staticflickr.com/4688/25393341868_f0756802e2_o.jpg,28.39136663888889,-13.86005,,,,,,Spain,Paseo maritimo - Seafront promenade; Caleta de Fuste; Antigua; Las Palmas; Canary Islands; 35610; Spain,hotel,cameraforensics
https://r-cf.bstatic.com/images/hotel/max1280x900/992/99273460.jpg,28.39017456,-13.86683688,,,,,,Spain,Caleta de Fuste; Antigua; Las Palmas; Canary Islands; 35610; Spain,hotel,cameraforensics
https://q-cf.bstatic.com/images/hotel/max1280x900/524/52496553.jpg,28.38814409,-13.8644886,,,,,,Spain,Elba Carlota Beach & Convention Resort; Avenida de las Marismas; Caleta de Fuste; Antigua; Las Palmas; Canary Islands; 35610; Spain,hotel,cameraforensics
https://r-cf.bstatic.com/images/hotel/max1280x900/893/89335704.jpg,28.3904521,-13.860019199999998,,,,,,Spain,Paseo maritimo - Seafront promenade; Caleta de Fuste; Antigua; Las Palmas; Canary Islands; 35610; Spain,hotel,cameraforensics
https://r-cf.bstatic.com/images/hotel/max1280x900/205/205610455.jpg,28.39419321,-13.86422772,,,,,,Spain,Skatepark Fuste; FV-2; Caleta de Fuste; Antigua; Las Palmas; Canary Islands; 35610; Spain,hotel,cameraforensics
http://static.panoramio.com/photos/original/77879456.jpg,28.386065000000002,-13.863595000000002,,,,,,Spain,Monumento Hornos de Cal de la Guirra; Seafront promenade; Caleta de Fuste; Antigua; Las Palmas; Canary Islands; 35610; Spain,hotel,cameraforensics
https://live.staticflickr.com/7003/6435644793_be743d1434_o.jpg,28.38716666666667,-13.86216666666667,,,,,,Spain,Caleta de Fuste; Antigua; Las Palmas; Canary Islands; 35610; Spain,hotel,cameraforensics
https://live.staticflickr.com/4601/24397580187_18c0c6dec0_o.jpg,28.38498608333333,-13.86381941666667,,,,,,Spain,Monumento Hornos de Cal de la Guirra; Seafront promenade; Caleta de Fuste; Antigua; Las Palmas; Canary Islands; 35610; Spain,hotel,cameraforensics
https://live.staticflickr.com/5822/21263273304_b04913065d_o.jpg,38.90871388888889,1.43510555555556,,,,,,Spain,Carrer de Jaume I; Eivissa; Ibiza; Balearic Islands; 07800; Spain,hotel,cameraforensics
https://live.staticflickr.com/3679/33694595256_793aa76c33_o.jpg,38.90800833333333,1.42730277777778,,,,,,Spain,Africa; Avinguda d'Espanya; Eivissa; Ibiza; Balearic Islands; 07800; Spain,hotel,cameraforensics
https://live.staticflickr.com/3920/14183060510_86f17abbdc_o.jpg,38.90449388888889,1.42829694444444,,,,,,Spain,Los Molinos; Carrer Ramon Montaner; Eivissa; Ibiza; Balearic Islands; 07800; Spain,hotel,cameraforensics
https://live.staticflickr.com/4464/37508415184_e1df1af0d3_o.jpg,38.90444444444444,1.42277777777778,,,,,,Spain,Passeig de les Pitiuses; Eivissa; Ibiza; Balearic Islands; 07800; Spain,hotel,cameraforensics
https://live.staticflickr.com/8/7361/13035361624_3ab20b2c5a_o_d.jpg,38.90771944444445,1.43396944444444,,,,,,Spain,Carrer Sant Josep; Eivissa; Ibiza; Balearic Islands; 07800; Spain,hotel,cameraforensics
https://live.staticflickr.com/8371/8600600203_84f05d1d00_o.jpg,38.90766666666666,1.43683333333333,,,,,,Spain,Carrer Sagrada Familia; Eivissa; Ibiza; Balearic Islands; 07800; Spain,hotel,cameraforensics
https://live.staticflickr.com/6077/6152753714_099a01df38_o.jpg,38.90833333333333,1.43483333333333,,,,,,Spain,Ronda d'Antoni Costa Ramon; Eivissa; Ibiza; Balearic Islands; 07800; Spain,hotel,cameraforensics
https://live.staticflickr.com/4469/37055327463_91619f6738_o.jpg,38.90769444444445,1.43386666666667,,,,,,Spain,Sescalinata; 10; Carrer Portal Nou; Eivissa; Ibiza; Balearic Islands; 07800; Spain,hotel,cameraforensics
https://live.staticflickr.com/7407/9778571514_7fbf833746_o.jpg,38.90910972222222,1.43483972222222,,,,,,Spain,Spar; 3; Carrer d'Abel Matutes Torres; Eivissa; Ibiza; Balearic Islands; 07810; Spain,hotel,cameraforensics
https://drscdn.500px.org/photo/233572869/m%3D2048_k%3D1_a%3D1/v2?client_application_id=36673&webp=true&sig=d0d149b3e64bd9e945162b90537622386c376872f9bf874f9904fd0ffa8142b2,38.90383611111111,1.42186944444444,,,,,,Spain,Passeig de les Pitiuses; Eivissa; Ibiza; Balearic Islands; 07800; Spain,hotel,cameraforensics
https://live.staticflickr.com/7763/26368951334_72b1a6c554_o.jpg,41.656255,-0.8788,,,,,,Spain,Mural de la Virgen del Pilar; Plaza de Nuestra Señora del Pilar; Casco Antiguo; Zaragoza; Aragon; 5003; Spain,hotel,cameraforensics
https://live.staticflickr.com/7499/15936466706_48220b4340_o.jpg,41.6563,-0.87903611111111,,,,,,Spain,El Real; Plaza de Nuestra Señora del Pilar; Casco Antiguo; Zaragoza; Aragon; 5003; Spain,hotel,cameraforensics
https://live.staticflickr.com/7429/10704403106_2a728268db_o.jpg,41.65882777777778,-0.88129444444444,,,,,,Spain,Puente de Santiago; Casco Antiguo; Zaragoza; Aragon; 5003; Spain,hotel,cameraforensics
https://live.staticflickr.com/7125/26847266052_07ccb6eb06_o.jpg,41.65835555555557,-0.87515277777778,,,,,,Spain,7; Paseo de la Ribera; Arrabal; Zaragoza; Aragon; 50015; Spain,hotel,cameraforensics
https://live.staticflickr.com/7403/15867367584_85e96926ff_o.jpg,41.65544888888889,-0.8789799999999999,,,,,,Spain,12; Calle Santiago; Casco Antiguo; Zaragoza; Aragon; 50003; Spain,hotel,cameraforensics
https://live.staticflickr.com/8273/30144856805_e81a47993a_o.jpg,41.65357833333334,-0.8804049999999999,,,,,,Spain,4; Calle de Estébanes; Casco Antiguo; Zaragoza; Aragon; 50003; Spain,hotel,cameraforensics
http://static.panoramio.com/photos/original/34704259.jpg,41.659666666666666,-0.88883333333333,,,,,,Spain,Paseo de la Igualdad; El Gancho; San Pablo; Zaragoza; Aragon; 50003; Spain,hotel,cameraforensics
https://live.staticflickr.com/716/31827643034_129d89dc5f_o.jpg,41.65342166666667,-0.87580333333333,,,,,,Spain,KMKAZE; Calle Mayor; La Magdalena; Zaragoza; Aragon; 50001; Spain,hotel,cameraforensics
https://live.staticflickr.com/5655/30930523255_2ce36ee81d_o.jpg,41.65805666666667,-0.87496166666667,,,,,,Spain,Puente de Piedra; Andador Mario Gaviria; Jesús; Zaragoza; Aragon; 5003; Spain,hotel,cameraforensics
https://live.staticflickr.com/4001/4588357511_1d2d9eb310_o.jpg,41.65570194444444,-0.87692611111111,,,,,,Spain,Monumento a Goya; Plaza de Nuestra Señora del Pilar; Casco Antiguo; Zaragoza; Aragon; 5003; Spain,hotel,cameraforensics
https://live.staticflickr.com/4374/36721464840_351d37303c_o.jpg,41.91810277777778,3.208075,,,,,,Spain,La Morera; 18; Passeig del Mar; Tamariu; Palafrugell; Lower Empordà; Girona; Catalonia; 17212; Spain,hotel,cameraforensics
https://q-cf.bstatic.com/images/hotel/max1280x900/172/172738313.jpg,41.9186,3.2033400000000003,,,,,,Spain,Carrer de Berruguete; Tamariu; Palafrugell; Lower Empordà; Girona; Catalonia; 17212; Spain,hotel,cameraforensics
https://r-cf.bstatic.com/images/hotel/max1280x900/172/172735087.jpg,41.92352,3.21133,,,,,,Spain,Carrer del Montgrí; Tamariu; Palafrugell; Lower Empordà; Girona; Catalonia; 17212; Spain,hotel,cameraforensics
https://live.staticflickr.com/7444/16364038097_bdf7278a18_o.jpg,41.91831666666667,3.20656944444444,,,,,,Spain,Tamariu; ; Tamariu; Palafrugell; Lower Empordà; Girona; Catalonia; 17212; Spain,hotel,cameraforensics
https://q-cf.bstatic.com/images/hotel/max1280x900/182/182399335.jpg,41.9239293,3.20684139,,,,,,Spain,Carrer del Puigmal; Tamariu; Palafrugell; Lower Empordà; Girona; Catalonia; 17212; Spain,hotel,cameraforensics
https://r-cf.bstatic.com/images/hotel/max1280x900/882/88213589.jpg,41.91846745,3.20833672,,,,,,Spain,Stollis Divecenter; Passeig del Mar; Tamariu; Palafrugell; Lower Empordà; Girona; Catalonia; 17212; Spain,hotel,cameraforensics
https://q-cf.bstatic.com/images/hotel/max1280x900/168/168853995.jpg,41.91764000000001,3.2056,,,,,,Spain,Carrer del Pi; Tamariu; Palafrugell; Lower Empordà; Girona; Catalonia; 17212; Spain,hotel,cameraforensics
https://q-cf.bstatic.com/images/hotel/max1280x900/189/189095759.jpg,41.92055360000001,3.2135206000000003,,,,,,Spain,Carrer de la Cala de Cabres; Tamariu; Palafrugell; Lower Empordà; Girona; Catalonia; 17212; Spain,hotel,cameraforensics
https://q-cf.bstatic.com/images/hotel/max1280x900/883/88335800.jpg,41.91840924,3.20479948,,,,,,Spain,Carrer de la Perica; Tamariu; Palafrugell; Lower Empordà; Girona; Catalonia; 17212; Spain,hotel,cameraforensics
https://r-cf.bstatic.com/images/hotel/max1280x900/168/168854004.jpg,41.91764000000001,3.2056,,,,,,Spain,Carrer del Pi; Tamariu; Palafrugell; Lower Empordà; Girona; Catalonia; 17212; Spain,hotel,cameraforensics
https://live.staticflickr.com/8029/8046533363_ddf2143194_o.jpg,28.731333333333332,-13.8635,,,,,,Spain,Beach Walk; Corralejo; La Oliva; Las Palmas; Canary Islands; 35660; Spain,hotel,cameraforensics
https://r-cf.bstatic.com/images/hotel/max1280x900/207/207652175.jpg,28.727887,-13.861965,,,,,,Spain,Avenida Fuerteventura; Corralejo; La Oliva; Las Palmas; Canary Islands; 35660; Spain,hotel,cameraforensics
https://r-cf.bstatic.com/images/hotel/max1280x900/139/139071126.jpg,28.72694000000001,-13.858920000000001,,,,,,Spain,Calle El Moro; Corralejo; La Oliva; Las Palmas; Canary Islands; 35660; Spain,hotel,cameraforensics
https://q-cf.bstatic.com/images/hotel/max1280x900/145/145761959.jpg,28.729693,-13.862604000000001,,,,,,Spain,20; Avenida Grandes Playas; Corralejo; La Oliva; Las Palmas; Canary Islands; 35660; Spain,hotel,cameraforensics
https://q-cf.bstatic.com/images/hotel/max1280x900/207/207594689.jpg,28.73044995,-13.86314447,,,,,,Spain,Estrella del Mar; Avenida Grandes Playas; Corralejo; La Oliva; Las Palmas; Canary Islands; 35660; Spain,hotel,cameraforensics
https://r-cf.bstatic.com/images/hotel/max1280x900/210/210249701.jpg,28.73063107,-13.85803521,,,,,,Spain,Avenida Grandes Playas; Corralejo; La Oliva; Las Palmas; Canary Islands; 35660; Spain,hotel,cameraforensics
https://r-cf.bstatic.com/images/hotel/max1280x900/223/223306898.jpg,28.72931143,-13.856423999999999,,,,,,Spain,La Miranda Center; Calle Dormidero; Corralejo; La Oliva; Las Palmas; Canary Islands; 35660; Spain,hotel,cameraforensics
https://q-cf.bstatic.com/images/hotel/max1280x900/174/174883681.jpg,28.72937509,-13.85673031,,,,,,Spain,Avenida Grandes Playas; Corralejo; La Oliva; Las Palmas; Canary Islands; 35660; Spain,hotel,cameraforensics
https://r-cf.bstatic.com/images/hotel/max1280x900/174/174882881.jpg,28.72937509,-13.85673031,,,,,,Spain,Avenida Grandes Playas; Corralejo; La Oliva; Las Palmas; Canary Islands; 35660; Spain,hotel,cameraforensics
https://live.staticflickr.com/65535/48032063291_788ff3135f_o.jpg,28.72836944444445,-13.86146111111111,,,,,,Spain,Corralejo; La Oliva; Las Palmas; Canary Islands; 35660; Spain,hotel,cameraforensics
https://live.staticflickr.com/4546/38174861264_9170ebb199_o.jpg,38.53416666666666,-0.13055555555556,,,,,,Spain,Hotel Canfali; 5; Plaça de Sant Jaume; el Castell - Casc Antic; Benidorm; la Marina Baixa; Alacant / Alicante; Valencian Community; 03501; Spain,hotel,cameraforensics
https://live.staticflickr.com/7333/13598720324_fe81799412_o.jpg,38.536775,-0.14038055555556,,,,,,Spain,Paseo Marítimo de Poniente; El Campo; Benidorm; la Marina Baixa; Alacant / Alicante; Valencian Community; 03502; Spain,hotel,cameraforensics
http://static.panoramio.com/photos/original/127353762.jpg,38.534462,-0.131145,,,,,,Spain,Sant Jaume i Santa Anna; Carrer del Mal Pas; el Castell - Casc Antic; Benidorm; la Marina Baixa; Alacant / Alicante; Valencian Community; 03501; Spain,hotel,cameraforensics
http://static.panoramio.com/photos/original/127292994.jpg,38.534240000000004,-0.13124,,,,,,Spain,Aloha Bar; Plaça Castelar; el Castell - Casc Antic; Benidorm; la Marina Baixa; Alacant / Alicante; Valencian Community; 03501; Spain,hotel,cameraforensics
https://live.staticflickr.com/4171/33918641670_cc883ca0bc_o.jpg,38.53555555555555,-0.13027777777778,,,,,,Spain,Hotel Alameda; 34; Alameda de l'Alcalde Pedro Zaragoza Orts; el Castell - Casc Antic; Benidorm; la Marina Baixa; Alacant / Alicante; Valencian Community; 03501; Spain,hotel,cameraforensics
http://static.panoramio.com/photos/original/127292985.jpg,38.534714,-0.13134200000000001,,,,,,Spain,Sherry's Bar; Plaça de la Senyoria; el Castell - Casc Antic; Benidorm; la Marina Baixa; Alacant / Alicante; Valencian Community; 03501; Spain,hotel,cameraforensics
http://static.panoramio.com/photos/original/127432708.jpg,38.533770000000004,-0.131262,,,,,,Spain,Punta Canfali; Plaça del Castell; el Castell - Casc Antic; Benidorm; la Marina Baixa; Alacant / Alicante; Valencian Community; 03501; Spain,hotel,cameraforensics
http://static.panoramio.com/photos/original/127379968.jpg,38.53645,-0.132072,,,,,,Spain,Milord's Suites; Passeig de la Carretera; el Calvari; Benidorm; la Marina Baixa; Alacant / Alicante; Valencian Community; 03501; Spain,hotel,cameraforensics
http://static.panoramio.com/photos/original/127406726.jpg,38.536915,-0.146057,,,,,,Spain,Paseo Marítimo de Poniente; El Campo; Benidorm; la Marina Baixa; Alacant / Alicante; Valencian Community; 03502; Spain,hotel,cameraforensics
https://live.staticflickr.com/4193/34549936366_447d7a97d1_o.jpg,38.539444444444435,-0.13194444444444,,,,,,Spain,Carrer Apolo XI; Pla de Maravall; Benidorm; la Marina Baixa; Alacant / Alicante; Valencian Community; 03501; Spain,hotel,cameraforensics
https://q-cf.bstatic.com/images/hotel/max1280x900/165/165955880.jpg,41.7116,2.85943,,,,,,Spain,Carrer del riu Fluvià; Serra Brava; Lloret de Mar; Selva; Girona; Catalonia; 17310; Spain,hotel,cameraforensics
https://live.staticflickr.com/3798/10332095076_fed1f22141_o.jpg,41.705166666666656,2.85516666666667,,,,,,Spain,Eugenia; Avinguda Roca Grossa; la Montgoda; Lloret de Mar; Selva; Girona; Catalonia; 17310; Spain,hotel,cameraforensics
https://r-cf.bstatic.com/images/hotel/max1280x900/210/210513562.jpg,41.70912355,2.85894878,,,,,,Spain,Avinguda Nicolau Cabanes; la Montgoda; Serra Brava; Lloret de Mar; Selva; Girona; Catalonia; 17310; Spain,hotel,cameraforensics
https://r-cf.bstatic.com/images/hotel/max1280x900/148/148159270.jpg,41.70465268,2.8552001000000002,,,,,,Spain,Evenia Havai; Avinguda Roca Grossa; la Montgoda; Lloret de Mar; Selva; Girona; Catalonia; 17310; Spain,hotel,cameraforensics
https://r-cf.bstatic.com/images/hotel/max1280x900/689/68902042.jpg,41.70285993,2.85741091,,,,,,Spain,Rosamar Garden Resort; Avinguda de la Magnolia; la Montgoda; Lloret de Mar; Selva; Girona; Catalonia; 17310; Spain,hotel,cameraforensics
https://r-cf.bstatic.com/images/hotel/max1280x900/190/190700057.jpg,41.71103,2.8552299999999997,,,,,,Spain,Carrer de Margarida Xirgu; Serra Brava; Lloret de Mar; Selva; Girona; Catalonia; 17310; Spain,hotel,cameraforensics
https://q-cf.bstatic.com/images/hotel/max1280x900/118/118039667.jpg,41.70356407,2.8558284,,,,,,Spain,Carrer Sant Jaume; la Montgoda; Lloret de Mar; Selva; Girona; Catalonia; 17310; Spain,hotel,cameraforensics
https://r-cf.bstatic.com/images/hotel/max1280x900/235/235442932.jpg,41.707159999999995,2.8587700000000003,,,,,,Spain,Carrer de Mestral; la Montgoda; Lloret de Mar; Selva; Girona; Catalonia; 17310; Spain,hotel,cameraforensics
https://q-cf.bstatic.com/images/hotel/max1280x900/168/168729090.jpg,41.70133,2.86761,,,,,,Spain,Carrer de les Gavines; la Tortuga; Canyelles; Lloret de Mar; Selva; Girona; Catalonia; 17310; Spain,hotel,cameraforensics
https://r-cf.bstatic.com/images/hotel/max1280x900/206/206833785.jpg,41.70705558,2.85527831,,,,,,Spain,Avinguda del Doctor Fleming; la Montgoda; Lloret de Mar; Selva; Girona; Catalonia; 17310; Spain,hotel,cameraforensics
https://q-cf.bstatic.com/images/hotel/max1280x900/173/173535368.jpg,39.90115,3.07019,,,,,,Spain,Leo complex; Carrer del Voltor; Port de Pollença; Pollença; Serra de Tramuntana; Balearic Islands; 07470; Spain,hotel,cameraforensics
https://q-cf.bstatic.com/images/hotel/max1280x900/172/172332626.jpg,39.9046379,3.0808739,,,,,,Spain,Carrer de la Verge del Carme; Port de Pollença; Pollença; Serra de Tramuntana; Balearic Islands; 07470; Spain,hotel,cameraforensics
https://q-cf.bstatic.com/images/hotel/max1280x900/169/169992667.jpg,39.906121999999996,3.081034,,,,,,Spain,El Pozo; carrer de Joan XXIII; Port de Pollença; Pollença; Serra de Tramuntana; Balearic Islands; 07470; Spain,hotel,cameraforensics
https://q-cf.bstatic.com/images/hotel/max1280x900/182/182193935.jpg,39.9051,3.0817,,,,,,Spain,Escoleta Sant Vicenç de Paül; carrer de les Monges; Port de Pollença; Pollença; Serra de Tramuntana; Balearic Islands; 07470; Spain,hotel,cameraforensics
https://r-cf.bstatic.com/images/hotel/max1280x900/212/212859902.jpg,39.90490938,3.0825052000000004,,,,,,Spain,Port de Pollença; moll vell; Port de Pollença; 07470; Spain,hotel,cameraforensics
https://q-cf.bstatic.com/images/hotel/max1280x900/184/184725576.jpg,39.90301270000001,3.07977627,,,,,,Spain,Pinarello Experience (Cycle Hire); 3/5; Carrer de Temple H. Fielding; Port de Pollença; Pollença; Serra de Tramuntana; Balearic Islands; 07470; Spain,hotel,cameraforensics
https://q-cf.bstatic.com/images/hotel/max1280x900/122/122607724.jpg,39.89774669,3.0759355999999998,,,,,,Spain,Panorama; Carrer del Bot; Port de Pollença; Pollença; Serra de Tramuntana; Balearic Islands; 07470; Spain,hotel,cameraforensics
https://q-cf.bstatic.com/images/hotel/max1280x900/977/9774486.jpg,39.89761293,3.07603106,,,,,,Spain,Panorama; Carrer del Bot; Port de Pollença; Pollença; Serra de Tramuntana; Balearic Islands; 07470; Spain,hotel,cameraforensics
https://r-cf.bstatic.com/images/hotel/max1280x900/787/78749031.jpg,39.89583115,3.07339311,,,,,,Spain,Port de Pollença; Pollença; Serra de Tramuntana; Balearic Islands; 07470; Spain,hotel,cameraforensics
https://r-cf.bstatic.com/images/hotel/max1280x900/765/76590620.jpg,39.900868,3.0711779999999997,,,,,,Spain,carrer de l'Estornell; Port de Pollença; Pollença; Serra de Tramuntana; Balearic Islands; 07470; Spain,hotel,cameraforensics
https://live.staticflickr.com/4487/38005600981_b0cb0957cd_o.jpg,36.27527777777778,-5.3522222222222195,,,,,,Spain,San Roque; Campo de Gibraltar; Cádiz; Andalusia; 11360; Spain,hotel,cameraforensics
https://live.staticflickr.com/4480/38005603021_e7e2562d55_o.jpg,36.274722222222216,-5.3522222222222195,,,,,,Spain,Hotel Almenara; Calle Gaucin; San Roque; Campo de Gibraltar; Cádiz; Andalusia; 11360; Spain,hotel,cameraforensics
https://r-cf.bstatic.com/images/hotel/max1280x900/172/172727618.jpg,36.27634000000001,-5.34858,,,,,,Spain,Avenida de los Cortijos; San Roque; Campo de Gibraltar; Cádiz; Andalusia; 11311; Spain,hotel,cameraforensics
https://q-cf.bstatic.com/images/hotel/max1280x900/172/172727646.jpg,36.27634000000001,-5.34858,,,,,,Spain,Avenida de los Cortijos; San Roque; Campo de Gibraltar; Cádiz; Andalusia; 11311; Spain,hotel,cameraforensics
https://q-cf.bstatic.com/images/hotel/max1280x900/172/172727621.jpg,36.27634000000001,-5.34858,,,,,,Spain,Avenida de los Cortijos; San Roque; Campo de Gibraltar; Cádiz; Andalusia; 11311; Spain,hotel,cameraforensics
https://r-cf.bstatic.com/images/hotel/max1280x900/172/172727620.jpg,36.27634000000001,-5.34858,,,,,,Spain,Avenida de los Cortijos; San Roque; Campo de Gibraltar; Cádiz; Andalusia; 11311; Spain,hotel,cameraforensics
https://r-cf.bstatic.com/images/hotel/max1280x900/184/184630305.jpg,36.2699819,-5.35561405,,,,,,Spain,Calle Gaucin; San Roque; Campo de Gibraltar; Cádiz; Andalusia; 11360; Spain,hotel,cameraforensics
https://q-cf.bstatic.com/images/hotel/max1280x900/184/184630273.jpg,36.2699819,-5.35561405,,,,,,Spain,Calle Gaucin; San Roque; Campo de Gibraltar; Cádiz; Andalusia; 11360; Spain,hotel,cameraforensics
https://live.staticflickr.com/4472/38005602341_2a9ec2b50e_o.jpg,36.27527777777778,-5.35138888888889,,,,,,Spain,Almenara Golf Resort; Avenida Almenara; San Roque; Campo de Gibraltar; Cádiz; Andalusia; 11310; Spain,hotel,cameraforensics
https://q-cf.bstatic.com/images/hotel/max1280x900/172/172727667.jpg,36.27634000000001,-5.34858,,,,,,Spain,Avenida de los Cortijos; San Roque; Campo de Gibraltar; Cádiz; Andalusia; 11311; Spain,hotel,cameraforensics
https://live.staticflickr.com/7348/9629153065_2a03f04407_o.jpg,39.573975,3.37670833333333,,,,,,Spain,sa Coma; cala Moreia; Sant Llorenç des Cardassar; Llevant; Balearic Islands; 07687; Spain,hotel,cameraforensics
https://r-cf.bstatic.com/images/hotel/max1280x900/207/207612108.jpg,39.578109999999995,3.37014,,,,,,Spain,Carrer de les Dàlies; sa Coma; cala Moreia; Sant Llorenç des Cardassar; Llevant; Balearic Islands; 07687; Spain,hotel,cameraforensics
https://q-cf.bstatic.com/images/hotel/max1280x900/207/207611913.jpg,39.578109999999995,3.37014,,,,,,Spain,Carrer de les Dàlies; sa Coma; cala Moreia; Sant Llorenç des Cardassar; Llevant; Balearic Islands; 07687; Spain,hotel,cameraforensics
https://r-cf.bstatic.com/images/hotel/max1280x900/151/151382298.jpg,39.57768547,3.37472856,,,,,,Spain,Gran Playa; Mercat; sa Coma; cala Moreia; Sant Llorenç des Cardassar; Llevant; Balearic Islands; Spain,hotel,cameraforensics
https://q-cf.bstatic.com/images/hotel/max1280x900/151/151387266.jpg,39.57768547,3.37472856,,,,,,Spain,Gran Playa; Mercat; sa Coma; cala Moreia; Sant Llorenç des Cardassar; Llevant; Balearic Islands; Spain,hotel,cameraforensics
https://live.staticflickr.com/3675/9643761939_4d088ce52e_o.jpg,39.576,3.37533333333333,,,,,,Spain,Marfil playa; Carrer dels Polls; sa Coma; cala Moreia; Sant Llorenç des Cardassar; Llevant; Balearic Islands; 07687; Spain,hotel,cameraforensics
https://q-cf.bstatic.com/images/hotel/max1280x900/226/226889824.jpg,39.578549100000004,3.3749644,,,,,,Spain,Plaça de les Estepes; sa Coma; cala Moreia; Sant Llorenç des Cardassar; Llevant; Balearic Islands; 07687; Spain,hotel,cameraforensics
https://q-cf.bstatic.com/images/hotel/max1280x900/223/223305073.jpg,39.576504,3.370968,,,,,,Spain,Carrer Oms; sa Coma; cala Moreia; Sant Llorenç des Cardassar; Llevant; Balearic Islands; 07687; Spain,hotel,cameraforensics
https://r-cf.bstatic.com/images/hotel/max1280x900/142/142906036.jpg,39.576719,3.3724339999999997,,,,,,Spain,Carrer de les Dàlies; sa Coma; cala Moreia; Sant Llorenç des Cardassar; Llevant; Balearic Islands; 07687; Spain,hotel,cameraforensics
https://r-cf.bstatic.com/images/hotel/max1280x900/151/151379661.jpg,39.57768547,3.37472856,,,,,,Spain,Gran Playa; Mercat; sa Coma; cala Moreia; Sant Llorenç des Cardassar; Llevant; Balearic Islands; Spain,hotel,cameraforensics
https://live.staticflickr.com/2861/9931587964_5deef07c86_o.jpg,39.00205555555557,1.57595,,,,,,Spain,2TT; Avinguda de Cala Nova; Es Canar; Santa Eulària des Riu; Ibiza; Balearic Islands; 07849; Spain,hotel,cameraforensics
https://live.staticflickr.com/7419/10871895514_9bd5813e4a_o.jpg,38.99861111111111,1.57888888888889,,,,,,Spain,Avinguda de Punta Arabí; Es Canar; Santa Eulària des Riu; Ibiza; Balearic Islands; 07849; Spain,hotel,cameraforensics
https://r-cf.bstatic.com/images/hotel/max1280x900/213/213977778.jpg,38.99864176,1.57782555,,,,,,Spain,Carrer d'en Cardona; Es Canar; Santa Eulària des Riu; Ibiza; Balearic Islands; 07849; Spain,hotel,cameraforensics
https://r-cf.bstatic.com/images/hotel/max1280x900/134/134114212.jpg,39.00733872,1.57989919,,,,,,Spain,Camping Cala Nova; Carrer de ses Pedrisses; Es Canar; Santa Eulària des Riu; Ibiza; Balearic Islands; 07849; Spain,hotel,cameraforensics
https://live.staticflickr.com/65535/48338160842_676f699045_o.jpg,39.000388888888885,1.57869166666667,,,,,,Spain,Port d'Es Canar; Avinguda de Punta Arabí; Es Canar; Santa Eulària des Riu; Ibiza; Balearic Islands; 07849; Spain,hotel,cameraforensics
https://q-cf.bstatic.com/images/hotel/max1280x900/695/69506006.jpg,39.00558283,1.57707855,,,,,,Spain,Es Canar; Santa Eulària des Riu; Ibiza; Balearic Islands; 07849; Spain,hotel,cameraforensics
https://r-cf.bstatic.com/images/hotel/max1280x900/102/102321512.jpg,39.00014259,1.57687604,,,,,,Spain,Carrer des Pou des Lleó; Es Canar; Santa Eulària des Riu; Ibiza; Balearic Islands; 07849; Spain,hotel,cameraforensics
https://r-cf.bstatic.com/images/hotel/max1280x900/989/9897266.jpg,39.00733872,1.57989919,,,,,,Spain,Camping Cala Nova; Carrer de ses Pedrisses; Es Canar; Santa Eulària des Riu; Ibiza; Balearic Islands; 07849; Spain,hotel,cameraforensics
https://q-cf.bstatic.com/images/hotel/max1280x900/221/221197706.jpg,38.99937134,1.57906473,,,,,,Spain,Avinguda de Punta Arabí; Es Canar; Santa Eulària des Riu; Ibiza; Balearic Islands; 07849; Spain,hotel,cameraforensics
https://r-cf.bstatic.com/images/hotel/max1280x900/905/90533267.jpg,39.00271686,1.57484293,,,,,,Spain,Autocares Cosmacar; Avinguda d'es Canar; Es Canar; Santa Eulària des Riu; Ibiza; Balearic Islands; 07849; Spain,hotel,cameraforensics
https://i.pinimg.com/originals/1a/63/5e/1a635eaa03cc8551e6a490ee3f67c172.jpg,41.23401388888889,1.80539444444444,,,,,,Spain,Passeig de la Ribera; Sitges; Garraf; Barcelona; Catalonia; 08870; Spain,hotel,cameraforensics
https://live.staticflickr.com/332/32376110291_7ef0ba6bb8_o.jpg,41.23295805555557,1.80195583333333,,,,,,Spain,Passeig Marítim; Vinyet; Sitges; Garraf; Barcelona; Catalonia; 08870; Spain,hotel,cameraforensics
https://live.staticflickr.com/3679/11785508194_52d872e891_o.jpg,41.23044166666666,1.80373055555556,,,,,,Spain,Club Del Mar Del Sitges; Passeig Marítim; Vinyet; Sitges; Garraf; Barcelona; Catalonia; 08870; Spain,hotel,cameraforensics
https://live.staticflickr.com/8615/16527450800_115e574d8d_o.jpg,41.23076388888889,1.798625,,,,,,Spain,Passeig Marítim; Vinyet; Sitges; Garraf; Barcelona; Catalonia; 08870; Spain,hotel,cameraforensics
https://q-cf.bstatic.com/images/hotel/max1280x900/145/145121438.jpg,41.230654,1.7959439999999998,,,,,,Spain,Carrer de Socias; Vinyet; Sitges; Garraf; Barcelona; Catalonia; 08870; Spain,hotel,cameraforensics
https://q-cf.bstatic.com/images/hotel/max1280x900/208/208257302.jpg,41.233444,1.7955801,,,,,,Spain,Carrer del Mossèn Joan Lloberas; Vinyet; Sitges; Garraf; Barcelona; Catalonia; 08870; Spain,hotel,cameraforensics
https://q-cf.bstatic.com/images/hotel/max1280x900/213/213854758.jpg,41.23541596,1.79893881,,,,,,Spain,Carrer de Monssèn Joan Llopis Pi; Vinyet; Sitges; Garraf; Barcelona; Catalonia; 08870; Spain,hotel,cameraforensics
https://r-cf.bstatic.com/images/hotel/max1280x900/199/199883576.jpg,41.23062041,1.7905872,,,,,,Spain,Carrer de Josep Planas Robert; Vinyet; Sitges; Garraf; Barcelona; Catalonia; 08870; Spain,hotel,cameraforensics
https://r-cf.bstatic.com/images/hotel/max1280x900/635/63558141.jpg,41.23660236,1.80182641,,,,,,Spain,83; Passeig de Vilanova; Vinyet; Sitges; Garraf; Barcelona; Catalonia; 08870; Spain,hotel,cameraforensics
https://q-cf.bstatic.com/images/hotel/max1280x900/732/73211797.jpg,41.23412339,1.80373302,,,,,,Spain,Mediterráneo Sitges Hotel & Apartments; 3; Avinguda de Sofia; Sitges; Garraf; Barcelona; Catalonia; 08870; Spain,hotel,cameraforensics
https://i.pinimg.com/originals/6d/b7/bb/6db7bb7fb5e252d1c9f4d48cb7fd0f45.jpg,43.38230555555555,-5.736825,,,,,,Spain,Carretera Irún - La Coruña; La Revuelta'l Coche; Siero; 33199; Spain,hotel,cameraforensics
https://r-cf.bstatic.com/images/hotel/max1280x900/170/170438556.jpg,43.38265711,-5.744690900000001,,,,,,Spain,Hotel Zalle Don Fernando; N-634; Poligono Industrial Proni-Meres; Urbanización Palacio de Meres - Fontemera; Siero; 33199; Spain,hotel,cameraforensics
https://live.staticflickr.com/4344/37067574346_4a8a0f0365_o.jpg,43.38224166666667,-5.74052777777778,,,,,,Spain,Carretera Irún - La Coruña; La Revuelta'l Coche; Siero; 33199; Spain,hotel,cameraforensics
https://q-cf.bstatic.com/images/hotel/max1280x900/765/76562375.jpg,43.38918159,-5.74680448,,,,,,Spain,El Cristo; Siero; 33199; Spain,hotel,cameraforensics
https://r-cf.bstatic.com/images/hotel/max1280x900/170/170433436.jpg,43.38265711,-5.744690900000001,,,,,,Spain,Hotel Zalle Don Fernando; N-634; Poligono Industrial Proni-Meres; Urbanización Palacio de Meres - Fontemera; Siero; 33199; Spain,hotel,cameraforensics
https://r-cf.bstatic.com/images/hotel/max1280x900/170/170432831.jpg,43.38265711,-5.744690900000001,,,,,,Spain,Hotel Zalle Don Fernando; N-634; Poligono Industrial Proni-Meres; Urbanización Palacio de Meres - Fontemera; Siero; 33199; Spain,hotel,cameraforensics
https://r-cf.bstatic.com/images/hotel/max1280x900/765/76563864.jpg,43.38918159,-5.74680448,,,,,,Spain,El Cristo; Siero; 33199; Spain,hotel,cameraforensics
https://live.staticflickr.com/6228/6298288561_6d5ff87e8e_o.jpg,43.37866666666667,-5.75233333333333,,,,,,Spain,Palacio de Meres; 8; Camín del Palacio; Urbanización Palacio de Meres - Fontemera; Siero; 33199; Spain,hotel,cameraforensics
https://live.staticflickr.com/6219/6298287109_69d180d13e_o.jpg,43.37866666666667,-5.751,,,,,,Spain,Palacio de Meres; 8; Camín del Palacio; Urbanización Palacio de Meres - Fontemera; Siero; 33199; Spain,hotel,cameraforensics
https://q-cf.bstatic.com/images/hotel/max1280x900/765/76556865.jpg,43.38918159,-5.74680448,,,,,,Spain,El Cristo; Siero; 33199; Spain,hotel,cameraforensics
https://live.staticflickr.com/4213/35460541615_21dcb1f41e_o.jpg,42.33559444444445,1.93145277777778,,,,,,Spain,GI-400; Super Molina; Alp; Cerdanya; Girona; Catalonia; 17538; Spain,hotel,cameraforensics
https://live.staticflickr.com/804/27172401318_6c2f6a86e0_o.jpg,42.33320277777778,1.9390833333333304,,,,,,Spain,Carrer de Fontcanaleta; Super Molina; Alp; Cerdanya; Girona; Catalonia; 17538; Spain,hotel,cameraforensics
https://r-cf.bstatic.com/images/hotel/max1280x900/185/185262483.jpg,42.337410999999996,1.935329,,,,,,Spain,Avinguda de Supermolina; Super Molina; Alp; Cerdanya; Girona; Catalonia; 17538; Spain,hotel,cameraforensics
https://live.staticflickr.com/4029/4479749088_2f7ff2f3e5_o.jpg,42.3365,1.9403333333333301,,,,,,Spain,Avinguda de Supermolina; Super Molina; la Molina; Alp; Cerdanya; Girona; Catalonia; 17538; Spain,hotel,cameraforensics
https://live.staticflickr.com/3767/32796633661_6742760dd5_o.jpg,42.33515833333333,1.9373,,,,,,Spain,Mare de Déu de les Neus; Carrer de Fontcanaleta; Super Molina; Alp; Cerdanya; Girona; Catalonia; 17538; Spain,hotel,cameraforensics
https://live.staticflickr.com/789/27449676828_791f6c8b98_o.jpg,42.33465576166667,1.93612575527778,,,,,,Spain,Mare de Déu de les Neus; Carrer de Fontcanaleta; Super Molina; Alp; Cerdanya; Girona; Catalonia; 17538; Spain,hotel,cameraforensics
https://live.staticflickr.com/2604/3759426291_e50b6e3e15_o.jpg,42.33703995362222,1.9423078229527801,,,,,,Spain,Avinguda de Supermolina; Super Molina; la Molina; Alp; Cerdanya; Girona; Catalonia; 17538; Spain,hotel,cameraforensics
https://live.staticflickr.com/4629/39578397884_dab8f8157d_o.jpg,42.33650555555555,1.94032222222222,,,,,,Spain,Avinguda de Supermolina; Super Molina; la Molina; Alp; Cerdanya; Girona; Catalonia; 17538; Spain,hotel,cameraforensics
https://live.staticflickr.com/8353/8435370220_4fb44dd37b_o.jpg,42.34133333333333,1.9280000000000002,,,,,,Spain,GI-400; Super Molina; Alp; Cerdanya; Girona; Catalonia; 17538; Spain,hotel,cameraforensics
https://r-cf.bstatic.com/images/hotel/max1280x900/185/185262651.jpg,42.337410999999996,1.935329,,,,,,Spain,Avinguda de Supermolina; Super Molina; Alp; Cerdanya; Girona; Catalonia; 17538; Spain,hotel,cameraforensics
https://i.pinimg.com/originals/47/c7/6c/47c76c3d3909877a08cc804e522ea287.jpg,41.70250833333333,2.85611944444444,,,,,,Spain,Carrer del Pare Claret; la Montgoda; Lloret de Mar; Selva; Girona; Catalonia; 17310; Spain,hotel,cameraforensics
https://live.staticflickr.com/967/27265771077_b279c9806f_o.jpg,41.70361111111111,2.8522222222222204,,,,,,Spain,Selvamar; Avinguda de la Vila de Tossa; la Montgoda; Lloret de Mar; Selva; Girona; Catalonia; 17310; Spain,hotel,cameraforensics
http://static.panoramio.com/photos/original/28643494.jpg,41.69766111111111,2.8459333333333303,,,,,,Spain,Lloret Beach; Camí de Ronda; Lloret de Mar; Selva; Girona; Catalonia; 17310; Spain,hotel,cameraforensics
https://r-cf.bstatic.com/images/hotel/max1280x900/194/194764267.jpg,41.7047669,2.8444568,,,,,,Spain,Carrer de Rovira de Dalt; Lloret de Mar; Selva; Girona; Catalonia; 17310; Spain,hotel,cameraforensics
https://live.staticflickr.com/1193/4729223866_85b5ba8927_o.jpg,41.69966666666667,2.84316666666667,,,,,,Spain,Carrer de Santa Marta; Lloret de Mar; Selva; Girona; Catalonia; 17310; Spain,hotel,cameraforensics
https://live.staticflickr.com/1009/4726335766_f3ed86268a_o.jpg,41.7035,2.84533333333333,,,,,,Spain,Disco Hollywood; Avinguda de la Vila de Tossa; Lloret de Mar; Selva; Girona; Catalonia; 17310; Spain,hotel,cameraforensics
https://live.staticflickr.com/970/27253187427_d720c132ae_o.jpg,41.7003885,2.84455408333333,,,,,,Spain,Casa de Cultura de Lloret; Carrer del Torrentó; Lloret de Mar; Selva; Girona; Catalonia; 17310; Spain,hotel,cameraforensics
https://live.staticflickr.com/1308/4709120492_c0c36a60cd_o.jpg,41.69983333333333,2.84316666666667,,,,,,Spain,Avinguda de Just Marles; Lloret de Mar; Selva; Girona; Catalonia; 17310; Spain,hotel,cameraforensics
https://live.staticflickr.com/4086/5004611882_d5842922f7_o.jpg,41.70016666666667,2.8539999999999996,,,,,,Spain,Parking bicicletes; passeig de Camprodon i Arrieta; la Montgoda; Lloret de Mar; Selva; Girona; Catalonia; 17310; Spain,hotel,cameraforensics
https://live.staticflickr.com/3933/15433014367_67cbbe27e2_o.jpg,36.311875,-6.15371111111111,,,,,,Spain,Playa y Calas de Roche; Avenida Inglaterra; Roche; Conil de la Frontera; La Janda; Cádiz; Andalusia; 11400; Spain,hotel,cameraforensics
https://live.staticflickr.com/6028/5945660483_52c4351021_o.jpg,36.30365280555557,-6.148403694444442,,,,,,Spain,Carretera a Conil Roche; Conil de la Frontera; La Janda; Cádiz; Andalusia; 11400; Spain,hotel,cameraforensics
https://q-cf.bstatic.com/images/hotel/max1280x900/198/198970308.jpg,36.310013,-6.147571,,,,,,Spain,Avenida Europa; Roche; Conil de la Frontera; La Janda; Cádiz; Andalusia; 11400; Spain,hotel,cameraforensics
https://r-cf.bstatic.com/images/hotel/max1280x900/100/100263560.jpg,36.31019929,-6.14755762,,,,,,Spain,Avenida Europa; Roche; Conil de la Frontera; La Janda; Cádiz; Andalusia; 11400; Spain,hotel,cameraforensics
https://r-cf.bstatic.com/images/hotel/max1280x900/178/178174130.jpg,36.311451899999994,-6.1433292,,,,,,Spain,Avenida Irlanda; Roche; Conil de la Frontera; La Janda; Cádiz; Andalusia; 11149; Spain,hotel,cameraforensics
https://live.staticflickr.com/65535/48838426588_89ec12c987_o.jpg,36.30722,-6.14941666666667,,,,,,Spain,Ilunion Calas de Conil; Avenida Mónaco; Roche; Conil de la Frontera; La Janda; Cádiz; Andalusia; 11400; Spain,hotel,cameraforensics
https://live.staticflickr.com/7872/46851262144_949bb2e750_o.jpg,36.30891388888889,-6.15209444444444,,,,,,Spain,Avenida Italia; Roche; Conil de la Frontera; La Janda; Cádiz; Andalusia; 11400; Spain,hotel,cameraforensics
https://live.staticflickr.com/65535/48678840507_0bbe9fcae1_o.jpg,36.31242805555557,-6.15392422222222,,,,,,Spain,Acantilado Canyon; Roche; Conil de la Frontera; La Janda; Cádiz; Andalusia; 11400; Spain,hotel,cameraforensics
https://q-cf.bstatic.com/images/hotel/max1280x900/226/226993979.jpg,36.3097982,-6.1507407,,,,,,Spain,Avenida Mónaco; Roche; Conil de la Frontera; La Janda; Cádiz; Andalusia; 11400; Spain,hotel,cameraforensics
https://live.staticflickr.com/5604/15616245131_54c06aca4c_o.jpg,36.31155277777777,-6.15368611111111,,,,,,Spain,Playa y Calas de Roche; Avenida Inglaterra; Roche; Conil de la Frontera; La Janda; Cádiz; Andalusia; 11400; Spain,hotel,cameraforensics
https://live.staticflickr.com/5732/22036511970_eea6d00c10_o.jpg,36.59281838888889,-4.52808719444444,,,,,,Spain,Cebra; Avenida del Parque; Benalmádena Costa; Arroyo de la Miel; Benalmádena; Costa del Sol Occidental; Malaga; Andalusia; 29630; Spain,hotel,cameraforensics
https://live.staticflickr.com/2901/14446213943_52a807a6b1_o.jpg,36.59100833333333,-4.52577222222222,,,,,,Spain,"Saint Tropez ""Los Mellizos""; Paseo Marítimo; Benalmádena Costa; Arroyo de la Miel; Benalmádena; Costa del Sol Occidental; Malaga; Andalusia; 29630; Spain",hotel,cameraforensics
https://live.staticflickr.com/3693/13481624503_fd46985a06_o.jpg,36.597,-4.52516666666667,,,,,,Spain,Bar Cafetería La Iglesia; Avenida de Bonanza; Benalmádena Costa; Arroyo de la Miel; Benalmádena; Costa del Sol Occidental; Malaga; Andalusia; 29630; Spain,hotel,cameraforensics
https://live.staticflickr.com/1636/26351743880_abc6b196bd_o.jpg,36.593802777777775,-4.52942222222222,,,,,,Spain,Cabeza 2; Camino de la Paloma; Benalmádena Costa; Arroyo de la Miel; Benalmádena; Costa del Sol Occidental; Malaga; Andalusia; 29630; Spain,hotel,cameraforensics
https://r-cf.bstatic.com/images/hotel/max1280x900/864/86449999.jpg,39.83754687,3.11412674,,,,,,Spain,Avinguda de l'Argentina; Port d'Alcúdia; Alcúdia; Raiguer; Balearic Islands; 7400; Spain,hotel,cameraforensics
https://q-cf.bstatic.com/images/hotel/max1280x900/196/196952299.jpg,39.83856223,3.11358124,,,,,,Spain,Carrer del Gall Salvatge; Alcúdia; Raiguer; Balearic Islands; 7400; Spain,hotel,cameraforensics
https://live.staticflickr.com/658/22220729098_1a8bfda59f_o.jpg,36.62295,-4.4961444444444405,,,,,,Spain,Pasaje del Peligro; Torremolinos; Costa del Sol Occidental; Malaga; Andalusia; 29620; Spain,hotel,cameraforensics
https://live.staticflickr.com/5826/29933347634_e0cd0cd0f8_o.jpg,36.62041388888889,-4.50354166666667,,,,,,Spain,Calle Loma de los Riscos; Torremolinos; Costa del Sol Occidental; Malaga; Andalusia; 29620; Spain,hotel,cameraforensics
https://r-cf.bstatic.com/images/hotel/max1280x900/165/165070658.jpg,36.6184,-4.497986,,,,,,Spain,Apartamentos Roca Chica; 1; Paseo Marítimo; Torremolinos; Costa del Sol Occidental; Malaga; Andalusia; 29620; Spain,hotel,cameraforensics
https://live.staticflickr.com/65535/48764477146_4eb3f16982_o.jpg,36.618788888888886,-4.49843888888889,,,,,,Spain,Ritual Hotel - Adults only; Calle Brasil; Torremolinos; Costa del Sol Occidental; Malaga; Andalusia; 29620; Spain,hotel,cameraforensics
https://q-cf.bstatic.com/images/hotel/max1280x900/205/205598914.jpg,36.62770065,-4.49474613,,,,,,Spain,Pizzería Crepería La Favorita; Avenida del Lido; Torremolinos; Costa del Sol Occidental; Malaga; Andalusia; 29620; Spain,hotel,cameraforensics
https://r-cf.bstatic.com/images/hotel/max1280x900/192/192276101.jpg,36.624206,-4.502115,,,,,,Spain,Avenida Isabel Manoja; Torremolinos; Costa del Sol Occidental; Malaga; Andalusia; 29620; Spain,hotel,cameraforensics
https://live.staticflickr.com/1572/25086154715_af54595c7d_o.jpg,36.62470555555557,-4.4949944444444405,,,,,,Spain,Calle del Bajondillo; Torremolinos; Costa del Sol Occidental; Malaga; Andalusia; 29620; Spain,hotel,cameraforensics
https://live.staticflickr.com/3743/10350210704_cfb5091dc6_o.jpg,36.62640055555556,-4.501143055555559,,,,,,Spain,Torremolinos; Costa del Sol Occidental; Malaga; Andalusia; 29620; Spain,hotel,cameraforensics
https://live.staticflickr.com/7359/26219971173_5cf503204c_o.jpg,36.62400833333334,-4.498344444444442,,,,,,Spain,Torremolinos; Costa del Sol Occidental; Malaga; Andalusia; 29620; Spain,hotel,cameraforensics
https://r-cf.bstatic.com/images/hotel/max1280x900/148/148749663.jpg,36.6270338,-4.50041881,,,,,,Spain,Calle Río Algas; Torremolinos; Costa del Sol Occidental; Malaga; Andalusia; 29620; Spain,hotel,cameraforensics
https://live.staticflickr.com/4328/35157762283_11f20f041a_o.jpg,43.37085277777778,-8.39845555555556,,,,,,Spain,50; Rúa Franxa; Zalaeta; Pescaría; A Coruña; Galicia; 15001; Spain,hotel,cameraforensics
https://live.staticflickr.com/5485/29757450504_d4f64d4095_o.jpg,43.36960833333333,-8.39618166666667,,,,,,Spain,Porta Real; Dársena; A Mariña; A Mestranza; Old Town; A Coruña; Galicia; 15001; Spain,hotel,cameraforensics
https://live.staticflickr.com/8393/8703582793_bf8ba3ac60_o.jpg,43.36987777777777,-8.39820833333333,,,,,,Spain,Pier; A Mariña; A Mestranza; Old Town; A Coruña; Galicia; 15001; Spain,hotel,cameraforensics
https://live.staticflickr.com/3882/14434819557_d605e5f553_o.jpg,43.37157333333333,-8.39679166666667,,,,,,Spain,Praza do Marqués de San Martín; Zalaeta; As Atochas; A Coruña; Galicia; 15001; Spain,hotel,cameraforensics
https://live.staticflickr.com/7124/6935792184_52e1612c8b_o.jpg,43.37483333333333,-8.40316666666667,,,,,,Spain,Rúa do Matadoiro; Zalaeta; O Orzán; A Coruña; Galicia; 15002; Spain,hotel,cameraforensics
https://live.staticflickr.com/8415/8706890678_1e7b163fea_o.jpg,43.36973333333334,-8.39893611111111,,,,,,Spain,Port Authority; 3; Avenida da Mariña; Zalaeta; Pescaría; A Coruña; Galicia; 15001; Spain,hotel,cameraforensics
https://live.staticflickr.com/1576/26386839142_e7f1cd2114_o.jpg,43.3658686111111,-8.4050075,,,,,,Spain,2; Rúa Sánchez Bregua; Santa Lucía; Ensanche; A Coruña; Galicia; 15004; Spain,hotel,cameraforensics
https://live.staticflickr.com/3773/19978925005_3bc4e424eb_o.jpg,43.37088333333333,-8.39573333333333,,,,,,Spain,Parking María Pita; Praza de María Pita; A Mestranza; Old Town; A Coruña; Galicia; 15001; Spain,hotel,cameraforensics
https://live.staticflickr.com/262/19129611015_80fa0ccf37_o.jpg,43.368755,-8.410355000000001,,,,,,Spain,Paseo Marítimo; Zalaeta; Riazor; A Coruña; Galicia; 15004; Spain,hotel,cameraforensics
http://static.panoramio.com/photos/original/72343771.jpg,43.367150296166656,-8.394171939777781,,,,,,Spain,Isabel Zendal Gómez; O Parrote; A Mestranza; Old Town; A Coruña; Galicia; 15001; Spain,hotel,cameraforensics
http://live.staticflickr.com/5466/9445591831_bdb2312f49_o.jpg,28.92608,-13.638810999999999,,,,,,Spain,Avenida Las Playas; Puerto del Carmen; Tías; Las Palmas; Canary Islands; 35510; Spain,hotel,cameraforensics
https://lanzaroteinformation.co.uk/wp-content/uploads/2017/11/image-5.jpeg,28.92533333333333,-13.64116666666667,,,,,,Spain,Yugoslavia; Puerto del Carmen; Tías; Las Palmas; Canary Islands; 35510; Spain,hotel,cameraforensics
https://live.staticflickr.com/7148/26928908760_e5b050b62a_o.jpg,28.91992166666667,-13.64576166666667,,,,,,Spain,Hawaiian Bar; Avenida Las Playas; Puerto del Carmen; Tías; Las Palmas; Canary Islands; 35510; Spain,hotel,cameraforensics
https://live.staticflickr.com/7754/27171066866_bf274d62ab_o.jpg,28.91992166666667,-13.64576166666667,,,,,,Spain,Hawaiian Bar; Avenida Las Playas; Puerto del Carmen; Tías; Las Palmas; Canary Islands; 35510; Spain,hotel,cameraforensics
https://q-cf.bstatic.com/images/hotel/max1280x900/199/199000399.jpg,28.920927000000002,-13.644128,,,,,,Spain,Rocas Negras; Avenida Italia; Puerto del Carmen; Tías; Las Palmas; Canary Islands; 35510; Spain,hotel,cameraforensics
https://r-cf.bstatic.com/images/hotel/max1280x900/163/163295405.jpg,28.92402248,-13.64693302,,,,,,Spain,Los Dices; Calle Finlandia; Puerto del Carmen; Tías; Las Palmas; Canary Islands; 35510; Spain,hotel,cameraforensics
https://r-cf.bstatic.com/images/hotel/max1280x900/105/105656169.jpg,28.91955053,-13.64516198,,,,,,Spain,Dolomiti; Avenida Las Playas; Puerto del Carmen; Tías; Las Palmas; Canary Islands; 35510; Spain,hotel,cameraforensics
https://q-cf.bstatic.com/images/hotel/max1280x900/174/174061802.jpg,28.91982,-13.646343,,,,,,Spain,Cabrera Aptos; Avenida Las Playas; Puerto del Carmen; Tías; Las Palmas; Canary Islands; 35510; Spain,hotel,cameraforensics
https://r-cf.bstatic.com/images/hotel/max1280x900/119/119478983.jpg,28.924932000000002,-13.645852,,,,,,Spain,Hyde Park; Belgica; Puerto del Carmen; Tías; Las Palmas; Canary Islands; 35510; Spain,hotel,cameraforensics
https://q-cf.bstatic.com/images/hotel/max1280x900/270/27090243.jpg,28.91977964,-13.64630096,,,,,,Spain,Cabrera Aptos; Avenida Las Playas; Puerto del Carmen; Tías; Las Palmas; Canary Islands; 35510; Spain,hotel,cameraforensics
https://live.staticflickr.com/7197/6839333424_d7674f1748_o.jpg,41.70316666666667,2.842,,,,,,Spain,Pavelló d'esports; Carrer dels Mestres; Lloret de Mar; Selva; Girona; Catalonia; 17310; Spain,hotel,cameraforensics
https://live.staticflickr.com/1889/44233050301_fab960e215_o.jpg,41.70006177777778,2.84248255555556,,,,,,Spain,McDonald's; Carrer de Ponent; Lloret de Mar; Selva; Girona; Catalonia; 17310; Spain,hotel,cameraforensics
https://live.staticflickr.com/65535/49300687356_1cf322b672_o.jpg,41.704045,2.84130333333333,,,,,,Spain,Piscina municipal; Passatge Senyora de Rosell; Lloret de Mar; Selva; Girona; Catalonia; 17310; Spain,hotel,cameraforensics
https://live.staticflickr.com/65535/49289364872_c768f06a13_o.jpg,41.70380833333333,2.8403549999999997,,,,,,Spain,Piscina municipal; Passatge Senyora de Rosell; Lloret de Mar; Selva; Girona; Catalonia; 17310; Spain,hotel,cameraforensics
https://live.staticflickr.com/2927/14584653042_43f011e9da_o.jpg,39.91815843138889,4.03007939444444,,,,,,Spain,Cami de Cavalls; Sant Tomàs; es Migjorn Gran; Menorca; Balearic Islands; 07749; Spain,hotel,cameraforensics
https://live.staticflickr.com/4371/37158918142_eaebc9d56c_o.jpg,39.91773333333333,4.03057666666667,,,,,,Spain,Cami de Cavalls; Sant Tomàs; es Migjorn Gran; Menorca; Balearic Islands; 07749; Spain,hotel,cameraforensics
https://q-cf.bstatic.com/images/hotel/max1280x900/137/137513436.jpg,39.91794958,4.03573073,,,,,,Spain,Sant Tomàs; es Migjorn Gran; Menorca; Balearic Islands; Spain,hotel,cameraforensics
https://live.staticflickr.com/65535/48225936387_a2877c1f22_o.jpg,39.91733333333333,4.03283333333333,,,,,,Spain,Es Bruc; 7; Cami de Cavalls; Sant Tomàs; es Migjorn Gran; Menorca; Balearic Islands; 07749; Spain,hotel,cameraforensics
https://q-cf.bstatic.com/images/hotel/max1280x900/426/4266067.jpg,39.91641836,4.03674603,,,,,,Spain,H1A; Urbanització Santo Tomàs; es Migjorn Gran; Menorca; Balearic Islands; 07749; Spain,hotel,cameraforensics
https://q-cf.bstatic.com/images/hotel/max1280x900/173/173624404.jpg,39.91572959,4.04358222,,,,,,Spain,R10; Urbanització Santo Tomàs; es Migjorn Gran; Menorca; Balearic Islands; 07749; Spain,hotel,cameraforensics
https://live.staticflickr.com/7633/16397734523_6af383ebd5_o.jpg,39.915209722222215,4.03679277777778,,,,,,Spain,Cami de Cavalls; Sant Tomàs; es Migjorn Gran; Menorca; Balearic Islands; 077049; Spain,hotel,cameraforensics
https://live.staticflickr.com/7108/7556877738_8734ae669d_o.jpg,39.912,4.04407777777778,,,,,,Spain,Cami de Cavalls; Sant Tomàs; es Migjorn Gran; Menorca; Balearic Islands; 077049; Spain,hotel,cameraforensics
https://r-cf.bstatic.com/images/hotel/max1280x900/168/168846749.jpg,39.9185,4.0399,,,,,,Spain,D14; Urbanització Santo Tomàs; es Migjorn Gran; Menorca; Balearic Islands; 07749; Spain,hotel,cameraforensics
https://r-cf.bstatic.com/images/hotel/max1280x900/160/160933713.jpg,39.91794958,4.03573073,,,,,,Spain,Sant Tomàs; es Migjorn Gran; Menorca; Balearic Islands; Spain,hotel,cameraforensics
https://live.staticflickr.com/5176/30143737666_6aef2115fc_o.jpg,36.50722166666667,-4.8865300000000005,,,,,,Spain,La libertad no Muere Nace y duerme Diariamente; Avenida del Mar; Marbella; Costa del Sol Occidental; Malaga; Andalusia; 29600-29604; Spain,hotel,cameraforensics
https://live.staticflickr.com/1577/24268563423_589bb492a4_o.jpg,36.5096929,-4.8838992999999995,,,,,,Spain,Parroquia Nuestra Señora de La Encarnación; Calle Viento; Marbella; Costa del Sol Occidental; Malaga; Andalusia; 29600-29604; Spain,hotel,cameraforensics
https://live.staticflickr.com/1498/25989802254_af8b31b6de_o.jpg,36.51029388888889,-4.8842802777777825,,,,,,Spain,Calle Carmen; Marbella; Costa del Sol Occidental; Malaga; Andalusia; 29600-29604; Spain,hotel,cameraforensics
https://live.staticflickr.com/601/21389931378_2d8436c7a4_o.jpg,36.50936358333333,-4.88476077777778,,,,,,Spain,Plaza de Josè Palomo; Marbella; Costa del Sol Occidental; Malaga; Andalusia; Spain,hotel,cameraforensics
https://live.staticflickr.com/1671/26129845190_1190f05e7b_o.jpg,36.51173333333333,-4.88521666666667,,,,,,Spain,Top Jamon; Calle Ancha; El Cenit; Marbella; Costa del Sol Occidental; Malaga; Andalusia; 29601; Spain,hotel,cameraforensics
https://live.staticflickr.com/4080/4860661888_68175fd582_o.jpg,36.51056527777778,-4.88583166666667,,,,,,Spain,Calle de Buirago; Marbella; Costa del Sol Occidental; Malaga; Andalusia; 29600-29604; Spain,hotel,cameraforensics
https://r-cf.bstatic.com/images/hotel/max1280x900/183/183266333.jpg,36.5077765,-4.886058,,,,,,Spain,Calle de Juan Ruiz Muñoz; Marbella; Costa del Sol Occidental; Malaga; Andalusia; 29600-29604; Spain,hotel,cameraforensics
http://static.panoramio.com/photos/original/121248483.jpg,36.510069444444454,-4.88612777777778,,,,,,Spain,Don Jaime de Mora y Aragon; Plaza Victoria; Marbella; Costa del Sol Occidental; Malaga; Andalusia; 29600-29604; Spain,hotel,cameraforensics
https://live.staticflickr.com/7112/7513993070_083b9c6254_o.jpg,36.51283333333333,-4.88333333333333,,,,,,Spain,Avenida Dr. Maíz Viñals; Marbella; Costa del Sol Occidental; Malaga; Andalusia; 29601; Spain,hotel,cameraforensics
https://live.staticflickr.com/906/40277950330_2c8fd7e3ea_o.jpg,36.51058458333333,-4.88321544444444,,,,,,Spain,Calle Salinas; Marbella; Costa del Sol Occidental; Malaga; Andalusia; 29601; Spain,hotel,cameraforensics
https://live.staticflickr.com/7244/13743964514_d390f2b319_o.jpg,36.48570333333333,-4.97333666666667,,,,,,Spain,Marbella; Costa del Sol Occidental; Malaga; Andalusia; 29670; Spain,hotel,cameraforensics
https://q-cf.bstatic.com/images/hotel/max1280x900/202/202289018.jpg,36.480295,-4.971419,,,,,,Spain,Calle Ana de Austria; Marbella; Costa del Sol Occidental; Malaga; Andalusia; 29670; Spain,hotel,cameraforensics
https://q-cf.bstatic.com/images/hotel/max1280x900/204/204064102.jpg,36.48738270000001,-4.971406,,,,,,Spain,El Mirador del Rodeo; Calle Río Danubio; Aldea Blanca; Marbella; Costa del Sol Occidental; Malaga; Andalusia; 29670; Spain,hotel,cameraforensics
https://live.staticflickr.com/2843/13742155203_b80446008d_o.jpg,36.48570333333333,-4.97333666666667,,,,,,Spain,Marbella; Costa del Sol Occidental; Malaga; Andalusia; 29670; Spain,hotel,cameraforensics
https://q-cf.bstatic.com/images/hotel/max1280x900/152/152083634.jpg,36.482451,-4.985798,,,,,,Spain,Avenida de San Sebastián; El Ingenio; Marbella; Costa del Sol Occidental; Malaga; Andalusia; 29670; Spain,hotel,cameraforensics
https://q-cf.bstatic.com/images/hotel/max1280x900/219/219701253.jpg,36.483641999999996,-4.972558,,,,,,Spain,Calle Ana de Austria; Marbella; Costa del Sol Occidental; Malaga; Andalusia; 29670; Spain,hotel,cameraforensics
https://r-cf.bstatic.com/images/hotel/max1280x900/201/201350745.jpg,36.47880061,-4.97764346,,,,,,Spain,Avenida Las Petunias; Marbella; Costa del Sol Occidental; Malaga; Andalusia; 29670; Spain,hotel,cameraforensics
https://q-cf.bstatic.com/images/hotel/max1280x900/211/211369932.jpg,36.483456,-4.97256,,,,,,Spain,Calle Ana de Austria; Marbella; Costa del Sol Occidental; Malaga; Andalusia; 29670; Spain,hotel,cameraforensics
https://q-cf.bstatic.com/images/hotel/max1280x900/125/125702106.jpg,36.483388399999995,-4.9751252,,,,,,Spain,Calle Vicente Alexandre; Marbella; Costa del Sol Occidental; Malaga; Andalusia; 29670; Spain,hotel,cameraforensics
https://q-cf.bstatic.com/images/hotel/max1280x900/202/202093966.jpg,36.4796817,-4.97404959,,,,,,Spain,Calle José María Pemán; Marbella; Costa del Sol Occidental; Malaga; Andalusia; 29670; Spain,hotel,cameraforensics
https://live.staticflickr.com/2945/15299007088_f748609aab_o.jpg,27.79209166666667,-15.713425,,,,,,Spain,Colina Mar; Calle Timanfaya; Puerto Rico; Mogán; Las Palmas; Canary Islands; 35130; Spain,hotel,cameraforensics
https://live.staticflickr.com/5726/31082673575_25f594a50b_o.jpg,27.785325,-15.71405,,,,,,Spain,El Molino; Calle Doreste Y Molina; Puerto Rico; Mogán; Las Palmas; Canary Islands; 35130; Spain,hotel,cameraforensics
https://live.staticflickr.com/5339/30940313972_05723738a0_o.jpg,27.78365833333334,-15.7166,,,,,,Spain,Beach Club; Carretera General; Puerto Rico; Mogán; Las Palmas; Canary Islands; 35130; Spain,hotel,cameraforensics
https://live.staticflickr.com/8523/8601592330_556234ef6c_o.jpg,27.78799057006945,-15.722058296202777,,,,,,Spain,Riu Vista Mar; Hotel Riu Vista Mar; Playa Amadores; Mogán; Las Palmas; Canary Islands; 35130; Spain,hotel,cameraforensics
https://live.staticflickr.com/4437/35937112544_b82bf78686_o.jpg,27.78603888888889,-15.7171,,,,,,Spain,Puerto Azul; Calle La Palma; Playa Amadores; Mogán; Las Palmas; Canary Islands; 35130; Spain,hotel,cameraforensics
https://q-cf.bstatic.com/images/hotel/max1280x900/992/99226439.jpg,27.78718344,-15.71717888,,,,,,Spain,Avenida de la Cornisa; Puerto Rico; Mogán; Las Palmas; Canary Islands; 35130; Spain,hotel,cameraforensics
https://live.staticflickr.com/8245/8505703525_2a1dc4ced7_o.jpg,27.7825472,-15.7119861,,,,,,Spain,Grill Costa Mar; Calle Juan Diaz Rodriguez; Puerto Rico; Mogán; Las Palmas; Canary Islands; 35130; Spain,hotel,cameraforensics
https://live.staticflickr.com/8080/8303845156_b2fbc245bb_o.jpg,27.78483333333334,-15.710999999999999,,,,,,Spain,Calle Lancarote; Puerto Rico; Mogán; Las Palmas; Canary Islands; 35130; Spain,hotel,cameraforensics
https://live.staticflickr.com/1893/44467483722_f78679d016_o.jpg,27.784713888888888,-15.714775,,,,,,Spain,Zako-Fante; Calle Doreste Y Molina; Puerto Rico; Mogán; Las Palmas; Canary Islands; 35130; Spain,hotel,cameraforensics
https://q-cf.bstatic.com/images/hotel/max1280x900/174/174369902.jpg,27.79261898,-15.71241096,,,,,,Spain,25; Calle Timanfaya; Puerto Rico; Mogán; Las Palmas; Canary Islands; 35130; Spain,hotel,cameraforensics
https://live.staticflickr.com/4231/35392039951_76d5b8f8cc_o.jpg,27.76714134194444,-15.58803558333333,,,,,,Spain,Calle El Estanque de La Cruz; San Fernando; Maspalomas; San Bartolomé de Tirajana; Las Palmas; Canary Islands; 35290; Spain,hotel,cameraforensics
https://r-cf.bstatic.com/images/hotel/max1280x900/150/150622514.jpg,27.75897931,-15.58664599,,,,,,Spain,Playmar; 3; Avenida de Touroperador Neckermann; Campo Internacional; Maspalomas; San Bartolomé de Tirajana; Las Palmas; Canary Islands; LAS PALMAS; Spain,hotel,cameraforensics
https://r-cf.bstatic.com/images/hotel/max1280x900/112/112778781.jpg,27.7680113,-15.587882999999998,,,,,,Spain,Plaza Jandia; San Fernando; Maspalomas; San Bartolomé de Tirajana; Las Palmas; Canary Islands; 35290; Spain,hotel,cameraforensics
