url,latitude,longitude,date,height,width,media,copyRight,country,address,keyword,source
https://live.staticflickr.com/4179/34580490081_259064d1f5_o.jpg,57.78316666666666,14.16433333333333,,,,,,Sweden,Vinotek & Tapasbar; Västra Storgatan; Väster; Jönköping; Jönköpings kommun; Jönköping County; 55315; Sweden,hotel,cameraforensics
https://live.staticflickr.com/7647/28182071271_0c410b7897_o.jpg,57.7810388888889,14.17122777777778,,,,,,Sweden,Vue; Södra Strandgatan; Kålgården; Jönköping; Jönköpings kommun; Jönköping County; 553 20; Sweden,hotel,cameraforensics
https://live.staticflickr.com/659/22542938652_55b424ee45_o.jpg,57.7840888888889,14.166522222222225,,,,,,Sweden,Jönköping; Jönköping Resecentrum; Väster; Jönköping; Jönköpings kommun; Jönköping County; 55186; Sweden,hotel,cameraforensics
https://live.staticflickr.com/1510/25540499856_2c3654338b_o.jpg,57.786007777777776,14.16653166666667,,,,,,Sweden,Jönköpings gästhamn; Norra Strandgatan; Öster; Jönköping; Jönköpings kommun; Jönköping County; 55321; Sweden,hotel,cameraforensics
https://live.staticflickr.com/4047/4560463924_34fc7f7e7d_o.jpg,57.78117194444444,14.172135,,,,,,Sweden,Ester Kök & Bar; Södra Strandgatan; Kålgården; Jönköping; Jönköpings kommun; Jönköping County; 553 20; Sweden,hotel,cameraforensics
https://live.staticflickr.com/841/43284164481_a7ed2575c0_o.jpg,57.77918305555556,14.17162638888889,,,,,,Sweden,Pylongatan; Kålgården; Jönköping; Jönköpings kommun; Jönköping County; 553 20; Sweden,hotel,cameraforensics
https://q-cf.bstatic.com/images/hotel/max1280x900/183/183136514.jpg,57.78371459,14.159107800000001,,,,,,Sweden,City Hotel; Västra Storgatan; Tändsticksområdet; Jönköping; Jönköpings kommun; Jönköping County; 55315; Sweden,hotel,cameraforensics
https://live.staticflickr.com/1571/26100859862_2cfe5114f7_o.jpg,57.78184166666666,14.170905555555553,,,,,,Sweden,SEB; Södra Strandgatan; Kålgården; Jönköping; Jönköpings kommun; Jönköping County; 553 20; Sweden,hotel,cameraforensics
https://r-cf.bstatic.com/images/hotel/max1280x900/147/147981011.jpg,57.78142806,14.17141646,,,,,,Sweden,Hotel John Bauer; Södra Strandgatan; Kålgården; Jönköping; Jönköpings kommun; Jönköping County; 553 20; Sweden,hotel,cameraforensics
https://live.staticflickr.com/5834/23474961274_9eeb03d739_o.jpg,57.78251666666667,14.168686111111107,,,,,,Sweden,Västra Storgatan; Väster; Jönköping; Jönköpings kommun; Jönköping County; 55186; Sweden,hotel,cameraforensics
https://live.staticflickr.com/5675/21706642359_d939898c88_o.jpg,59.331497222222225,18.074111111111108,,,,,,Sweden,6; Wahrendorffsgatan; Norrmalm; Norrmalms stadsdelsområde; Stockholm; Stockholms kommun; Stockholm County; 11147; Sweden,hotel,cameraforensics
https://live.staticflickr.com/2838/11430243816_bd7aa68d40_o.jpg,59.33178833333334,18.064954999999998,,,,,,Sweden,Benny Fredrikssons Torg; Norrmalm; Norrmalms stadsdelsområde; Stockholm; Stockholms kommun; Stockholm County; Sweden,hotel,cameraforensics
https://live.staticflickr.com/452/19439650749_3aeec47d58_o.jpg,59.338147222222226,18.06681666666667,,,,,,Sweden,3; Drottninghusgränd; Norrmalm; Norrmalms stadsdelsområde; Stockholm; Stockholms kommun; Stockholm County; 111 39; Sweden,hotel,cameraforensics
https://live.staticflickr.com/637/31512840320_d6f28986d2_o.jpg,59.34475833333333,18.07339722222222,,,,,,Sweden,Valhallavägen; Villastaden; Östermalm; Östermalms stadsdelsområde; Stockholm; Stockholms kommun; Stockholm County; 114 32; Sweden,hotel,cameraforensics
https://live.staticflickr.com/3834/13259440114_d94ba951d7_o.jpg,59.332194444444454,18.07178611111111,,,,,,Sweden,Bar Burger Café; Birgit Nilssons Allé; Norrmalm; Norrmalms stadsdelsområde; Stockholm; Stockholms kommun; Stockholm County; 11147; Sweden,hotel,cameraforensics
https://live.staticflickr.com/754/23242300545_d1595dcf3e_o.jpg,59.34042222222222,18.06746944444444,,,,,,Sweden,4; Runebergsgatan; Lärkstaden; Östermalm; Östermalms stadsdelsområde; Stockholm; Stockholms kommun; Stockholm County; 114 29; Sweden,hotel,cameraforensics
https://live.staticflickr.com/4545/24965099428_0de199b01f_o.jpg,59.331225,18.07142222222221,,,,,,Sweden,Karl XIII; Jussi Björlings Allé; Norrmalm; Norrmalms stadsdelsområde; Stockholm; Stockholms kommun; Stockholm County; 103 27; Sweden,hotel,cameraforensics
https://live.staticflickr.com/1580/24021452454_2b7bbce61a_o.jpg,59.33715,18.07296388888889,,,,,,Sweden,23; Humlegårdsgatan; Villastaden; Östermalm; Östermalms stadsdelsområde; Stockholm; Stockholms kommun; Stockholm County; 106 63; Sweden,hotel,cameraforensics
https://live.staticflickr.com/4291/36174085655_5933deca8b_o.jpg,59.335186111111106,18.062608333333326,,,,,,Sweden,Konserthuset; Hötorget; Norrmalm; Norrmalms stadsdelsområde; Stockholm; Stockholms kommun; Stockholm County; Sweden,hotel,cameraforensics
https://live.staticflickr.com/7780/17588257173_b88c82847b_o.jpg,59.33233333333333,18.062166666666673,,,,,,Sweden,Åhléns Stockholm City; Klarabergsgatan; Norrmalm; Norrmalms stadsdelsområde; Stockholm; Stockholms kommun; Stockholm County; 111 21; Sweden,hotel,cameraforensics
https://live.staticflickr.com/8792/28469206804_1589d0d834_o.jpg,61.00716388888889,14.53904166666667,,,,,,Sweden,Café Zorn; Vasagatan; Morastrand; Mora; Mora kommun; Dalecarlia; 79231; Sweden,hotel,cameraforensics
https://live.staticflickr.com/8196/8100550550_a61134a05e_o.jpg,61.00366666666667,14.53716666666667,,,,,,Sweden,Pizzeria & Restaurang Pronto; Kyrkogatan; Morastrand; Mora; Mora kommun; Dalecarlia; 792 25; Sweden,hotel,cameraforensics
https://live.staticflickr.com/65535/47802261252_a24a6420d2_o.jpg,61.00675555555557,14.542097222222221,,,,,,Sweden,Zornstatyn; Vasagatan; Morastrand; Mora; Mora kommun; Dalecarlia; 79230; Sweden,hotel,cameraforensics
https://38.media.tumblr.com/92c44d603f6a6e3379f23b1ef967f712/tumblr_o17lspqzLJ1v5fb3ko2_1280.jpg,61.00695833333333,14.53813611111111,,,,,,Sweden,Zornmuseet; 36; Vasagatan; Morastrand; Mora; Mora kommun; Dalecarlia; 79231; Sweden,hotel,cameraforensics
https://live.staticflickr.com/667/21784014030_a970340d46_o.jpg,61.00740833333333,14.53916111111111,,,,,,Sweden,Zorngården; Zornstigen; Morastrand; Mora; Mora kommun; Dalecarlia; 79280; Sweden,hotel,cameraforensics
https://q-cf.bstatic.com/images/hotel/max1280x900/211/211895711.jpg,61.00536698,14.54081833,,,,,,Sweden,4b; Moragatan; Morastrand; Mora; Mora kommun; Dalecarlia; 79230; Sweden,hotel,cameraforensics
https://live.staticflickr.com/4257/34964154763_be127662c8_o.jpg,61.005086111111105,14.539775,,,,,,Sweden,My Sushi; 3; Köpmannagatan; Morastrand; Mora; Mora kommun; Dalecarlia; 792 25; Sweden,hotel,cameraforensics
https://live.staticflickr.com/4749/25629877487_5a3959fe32_o.jpg,61.007375,14.54555,,,,,,Sweden,STF Mora Målkullan Hostel; 19; Vasagatan; Morastrand; Mora; Mora kommun; Dalecarlia; 79280; Sweden,hotel,cameraforensics
https://live.staticflickr.com/6140/5961195112_a8cb777024_o.jpg,61.00533333333333,14.5275,,,,,,Sweden,Morkarlby; Morastrand; Mora; Mora kommun; Dalecarlia; 792 37; Sweden,hotel,cameraforensics
https://q-cf.bstatic.com/images/hotel/max1280x900/195/195308653.jpg,61.00536698,14.54081833,,,,,,Sweden,4b; Moragatan; Morastrand; Mora; Mora kommun; Dalecarlia; 79230; Sweden,hotel,cameraforensics
https://live.staticflickr.com/555/19149699430_a515598a16_o.jpg,59.40208055555557,17.94357222222222,,,,,,Sweden,Kista Galleria; 55F; Hanstavägen; Kista; Rinkeby-Kista stadsdelsområde; Stockholm; Stockholms kommun; Stockholm County; 16453; Sweden,hotel,cameraforensics
https://live.staticflickr.com/6213/6248880279_542922ba01_o.jpg,59.40533333333333,17.938,,,,,,Sweden,Sorögatan; Kista; Rinkeby-Kista stadsdelsområde; Stockholm; Stockholms kommun; Stockholm County; 16453; Sweden,hotel,cameraforensics
https://live.staticflickr.com/6053/6249406560_803f51cf90_o.jpg,59.4075,17.9475,,,,,,Sweden,1; Kista Alléväg; Kista; Rinkeby-Kista stadsdelsområde; Stockholm; Stockholms kommun; Stockholm County; 164 55; Sweden,hotel,cameraforensics
https://live.staticflickr.com/7636/16824734792_d3cabffcde_o.jpg,59.40234666666666,17.952566666666673,,,,,,Sweden,13; Modemgatan; Kista; Rinkeby-Kista stadsdelsområde; Stockholm; Stockholms kommun; Stockholm County; 164 40; Sweden,hotel,cameraforensics
https://live.staticflickr.com/3788/13866427074_61930580d9_o.jpg,59.404438,17.95013425,,,,,,Sweden,16; Kistagången; Kista; Rinkeby-Kista stadsdelsområde; Stockholm; Stockholms kommun; Stockholm County; 16440; Sweden,hotel,cameraforensics
https://live.staticflickr.com/5327/9030225739_bc6229dacd_o.jpg,59.404272222222225,17.95358055555555,,,,,,Sweden,Ericsson Studio; 8; Grönlandsgatan; Kista; Rinkeby-Kista stadsdelsområde; Stockholm; Stockholms kommun; Stockholm County; 16480; Sweden,hotel,cameraforensics
https://live.staticflickr.com/2873/12297579486_5eb9428b93_o.jpg,59.40875,17.945458333333328,,,,,,Sweden,Kista; Rinkeby-Kista stadsdelsområde; Stockholm; Stockholms kommun; Stockholm County; 164 55; Sweden,hotel,cameraforensics
https://live.staticflickr.com/7089/7301015728_62cb951b08_o.jpg,59.40333333333334,17.95083333333333,,,,,,Sweden,Ericsson House 4; Blåfjällsgatan; Kista; Rinkeby-Kista stadsdelsområde; Stockholm; Stockholms kommun; Stockholm County; 16480; Sweden,hotel,cameraforensics
https://q-cf.bstatic.com/images/hotel/max1280x900/964/96417397.jpg,59.40217144,17.94821084,,,,,,Sweden,Scandic Kista; 9; Färögatan; Kista; Rinkeby-Kista stadsdelsområde; Stockholm; Stockholms kommun; Stockholm County; 16440; Sweden,hotel,cameraforensics
https://live.staticflickr.com/8312/7979211026_040a28e393_o.jpg,59.40416666666667,17.953333333333326,,,,,,Sweden,Ericsson Studio; 8; Grönlandsgatan; Kista; Rinkeby-Kista stadsdelsområde; Stockholm; Stockholms kommun; Stockholm County; 16480; Sweden,hotel,cameraforensics
http://static.panoramio.com/photos/original/93691898.jpg,56.662781,16.361126000000002,,,,,,Sweden,7; Larmtorget; Kvarnholmen; Kalmar; Kalmar kommun; Kalmar County; 392 32; Sweden,hotel,cameraforensics
https://live.staticflickr.com/7576/28979937775_41ac7f3955_o.jpg,56.66361111111111,16.37027777777778,,,,,,Sweden,Elevatorkajen; Skeppsbrogatan; Kvarnholmen; Kalmar; Kalmar kommun; Kalmar County; 392 31; Sweden,hotel,cameraforensics
https://live.staticflickr.com/4508/24197069568_ec8bdc9b92_o.jpg,56.65900833333333,16.35421944444445,,,,,,Sweden,2; Slottsvägen; Gamla stan; Kalmar; Kalmar kommun; Kalmar County; 39233; Sweden,hotel,cameraforensics
https://live.staticflickr.com/8652/16182513634_91699fcee5_o.jpg,56.663711111111105,16.36001666666667,,,,,,Sweden,Gamla vattentornet; Larmgatan; Kvarnholmen; Kalmar; Kalmar kommun; Kalmar County; 392 33; Sweden,hotel,cameraforensics
https://live.staticflickr.com/7150/6851389637_08c8193f68_o.jpg,56.66866666666667,16.36666666666667,,,,,,Sweden,Varvsgatan; Ängöleden; Ängö; Kalmar; Kalmar kommun; Kalmar County; 392 30; Sweden,hotel,cameraforensics
https://live.staticflickr.com/941/42963401455_605c7dd270_o.jpg,56.65823166666667,16.35524666666667,,,,,,Sweden,Kalmar slott; Kungsgatan; Gamla stan; Kalmar; Kalmar kommun; Kalmar County; 39233; Sweden,hotel,cameraforensics
https://live.staticflickr.com/1795/43819021362_705abd1a2b_o.jpg,56.65823166666667,16.35524666666667,,,,,,Sweden,Kalmar slott; Kungsgatan; Gamla stan; Kalmar; Kalmar kommun; Kalmar County; 39233; Sweden,hotel,cameraforensics
https://live.staticflickr.com/1109/1328327500_64ebf80805_o.jpg,56.66398616666667,16.35782816666667,,,,,,Sweden,Cellgraven; Tullslätten; Malmen; Kalmar; Kalmar kommun; Kalmar County; 392 33; Sweden,hotel,cameraforensics
https://r-cf.bstatic.com/images/hotel/max1280x900/228/228001520.jpg,56.661724,16.366858999999998,,,,,,Sweden,2; Kom snart igen; Kvarnholmen; Kalmar; Kalmar kommun; Kalmar County; 392 31; Sweden,hotel,cameraforensics
https://live.staticflickr.com/8796/16731181413_d4aa11fc47_o.jpg,56.66234166666667,16.36206111111111,,,,,,Sweden,Restaurang Larmgatan 10; 6; Södra Långgatan; Kvarnholmen; Kalmar; Kalmar kommun; Kalmar County; 392 32; Sweden,hotel,cameraforensics
https://live.staticflickr.com/7392/11225709475_5ee0cb78be_o.jpg,59.856855,17.654761666666673,,,,,,Sweden,Strandbodgatan; Vaksalastaden; Fålhagen; Uppsala; Uppsala kommun; Uppsala County; 75326; Sweden,hotel,cameraforensics
https://live.staticflickr.com/4512/37022505593_c095064382_o.jpg,59.85863000000001,17.635975,,,,,,Sweden,Dombron; Fjärdingen; Uppsala; Uppsala kommun; Uppsala County; 753 22; Sweden,hotel,cameraforensics
https://live.staticflickr.com/7212/7290022872_546fe7d8b1_o.jpg,59.861171666666664,17.645783333333327,,,,,,Sweden,Uppsala Konsert & Kongress; Vaksala torg; Vaksalastaden; Kvarngärdet; Uppsala; Uppsala kommun; Uppsala County; Sweden,hotel,cameraforensics
https://live.staticflickr.com/5523/11931372494_f21a89aff3_o.jpg,59.8589638888889,17.63701944444444,,,,,,Sweden,Skomakeri & Nyckelservice; Sankt Persgatan; Höganäs; Centrum; Uppsala; Uppsala kommun; Uppsala County; 7530; Sweden,hotel,cameraforensics
https://live.staticflickr.com/7288/16617971399_c0b438da6d_o.jpg,59.85866944444444,17.648790555555557,,,,,,Sweden,Stationsgallerian; 12; Stationsgatan; Vaksalastaden; Kvarngärdet; Uppsala; Uppsala kommun; Uppsala County; 75340; Sweden,hotel,cameraforensics
https://live.staticflickr.com/3765/12539852284_f3b47520ec_o.jpg,59.86186333333333,17.647013333333327,,,,,,Sweden,Händelser kring ett torg - till arbetets lov; Vaksala torg; Vaksalastaden; Kvarngärdet; Uppsala; Uppsala kommun; Uppsala County; Sweden,hotel,cameraforensics
https://live.staticflickr.com/1504/24702221425_3dbebbb55d_o.jpg,59.85910277777778,17.649038888888892,,,,,,Sweden,Centralpassagen; Vaksalastaden; Kvarngärdet; Uppsala; Uppsala kommun; Uppsala County; Sweden,hotel,cameraforensics
https://live.staticflickr.com/8162/27919517994_16a065e2f4_o.jpg,59.85721666666667,17.64135277777779,,,,,,Sweden,Blomsterrummet; Kungsängsgatan; Vaksalastaden; Centrum; Uppsala; Uppsala kommun; Uppsala County; 75322; Sweden,hotel,cameraforensics
https://live.staticflickr.com/6230/6219653389_691b8a1578_o.jpg,59.857,17.636666666666674,,,,,,Sweden,Norrlands nation; 14; Västra Ågatan; Vaksalastaden; Centrum; Uppsala; Uppsala kommun; Uppsala County; 753 09; Sweden,hotel,cameraforensics
https://live.staticflickr.com/8438/7954414732_6a62eb0b6d_o.jpg,59.85766666666667,17.647666666666673,,,,,,Sweden,1; Bäverns gränd; Vaksalastaden; Centrum; Uppsala; Uppsala kommun; Uppsala County; 75319; Sweden,hotel,cameraforensics
https://live.staticflickr.com/5336/17653941961_a729450879_o.jpg,65.58517222222223,22.164080555555557,,,,,,Sweden,Luleå centralstation; 20; Prästgatan; Östermalm; Luleå; Luleå kommun; Norrbotten County; 97234; Sweden,hotel,cameraforensics
https://q-cf.bstatic.com/images/hotel/max1280x900/265/26554651.jpg,65.58503857,22.15197489,,,,,,Sweden,Kulturens Hus; 17; Skeppsbrogatan; Bergviken; Luleå; Luleå kommun; Norrbotten County; 971 79; Sweden,hotel,cameraforensics
https://live.staticflickr.com/3931/15316678409_ac985eb78f_o.jpg,65.58841083333333,22.15894,,,,,,Sweden,Luleå Dag & Natt förskola Charlottendal; Västra Malmgatan; Östermalm; Luleå; Luleå kommun; Norrbotten County; 97241; Sweden,hotel,cameraforensics
https://live.staticflickr.com/4163/34233112470_d731f1eac5_o.jpg,65.58044444444444,22.14782777777778,,,,,,Sweden,Södra Hamnleden; Varvet; Luleå; Luleå kommun; Norrbotten County; 97232; Sweden,hotel,cameraforensics
https://live.staticflickr.com/8523/8456717378_e93e876a1e_o.jpg,65.58800000000001,22.139833333333332,,,,,,Sweden,7; Norra Strandgatan; Kv. Koltrasten; Varvet; Luleå; Luleå kommun; Norrbotten County; 97239; Sweden,hotel,cameraforensics
https://live.staticflickr.com/8428/7854097880_39791f0750_o.jpg,65.58033333333333,22.136999999999997,,,,,,Sweden,Varvet; Sandviksgatan; Varvet; Luleå; Luleå kommun; Norrbotten County; 97236; Sweden,hotel,cameraforensics
https://q-cf.bstatic.com/images/hotel/max1280x900/716/71654409.jpg,65.58494563,22.15805229,,,,,,Sweden,Cocktailbaren Savoy; Storgatan; Östermalm; Luleå; Luleå kommun; Norrbotten County; 972 31; Sweden,hotel,cameraforensics
https://r-cf.bstatic.com/images/hotel/max1280x900/206/206647504.jpg,65.58307024,22.16366842,,,,,,Sweden,Comfort Hotel Arctic; 82; Sandviksgatan; Östermalm; Luleå; Luleå kommun; Norrbotten County; 97234; Sweden,hotel,cameraforensics
https://live.staticflickr.com/779/31686611493_e5b8027a68_o.jpg,65.58314444444444,22.13890277777778,,,,,,Sweden,Luleå gymnasieskola; Trädgårdsgatan; Varvet; Luleå; Luleå kommun; Norrbotten County; 97238; Sweden,hotel,cameraforensics
https://live.staticflickr.com/1900/44242472071_d67fcf5fde_o.jpg,65.58455,22.1555,,,,,,Sweden,44; Storgatan; Bergviken; Luleå; Luleå kommun; Norrbotten County; 972 31; Sweden,hotel,cameraforensics
https://65.media.tumblr.com/caab6508866112e426adc050bc397f84/tumblr_o99wujn5vN1qlv1bvo1_1280.jpg,55.698555000000006,13.2086525,,,,,,Sweden,10; Merkuriusgatan; Planetstaden; Stampelyckan; Söder; Lund; Lund Municipality; Skåne County; 224 60; Sweden,hotel,cameraforensics
https://live.staticflickr.com/759/23255465904_29ec19a36d_o.jpg,55.701519,13.20106219444444,,,,,,Sweden,Dalbyvägen; Olshög; Professorsstaden; Centrum; Lund; Lund Municipality; Skåne County; 22361; Sweden,hotel,cameraforensics
https://live.staticflickr.com/4321/36059754712_73dfdac93a_o.jpg,55.699872222222226,13.19989166666667,,,,,,Sweden,6; Östra Vallgatan; Stadskärnan; Centrum; Lund; Lund Municipality; Skåne County; 22361; Sweden,hotel,cameraforensics
https://live.staticflickr.com/4305/35464593803_77114c6327_o.jpg,55.7044,13.20261388888889,,,,,,Sweden,Botaniska trädgården; Agardhsgatan; Stadskärnan; Centrum; Lund; Lund Municipality; Skåne County; 220 02; Sweden,hotel,cameraforensics
https://live.staticflickr.com/586/30829594924_bcd080e9c8_o.jpg,55.69833333333333,13.19861111111111,,,,,,Sweden,1b; Kastanjegatan; Södra innerstaden; Centrum; Lund; Lund Municipality; Skåne County; 22359; Sweden,hotel,cameraforensics
https://live.staticflickr.com/2663/4122560992_3ee74d9085_o.jpg,55.69611111111111,13.20583333333333,,,,,,Sweden,15g; Råbyvägen; Planetstaden; Stampelyckan; Söder; Lund; Lund Municipality; Skåne County; 224 57; Sweden,hotel,cameraforensics
https://live.staticflickr.com/6216/6349694659_ab41ce0e84_o.jpg,55.69916666666667,13.20433333333333,,,,,,Sweden,15A; Brunnsgatan; Södra innerstaden; Centrum; Lund; Lund Municipality; Skåne County; 223 59; Sweden,hotel,cameraforensics
https://live.staticflickr.com/4129/4963077991_b9ea1808d8_o.jpg,55.70070583333333,13.207080555555553,,,,,,Sweden,2; Pedellgatan; Olshög; Professorsstaden; Centrum; Lund; Lund Municipality; Skåne County; 22458; Sweden,hotel,cameraforensics
https://r-cf.bstatic.com/images/hotel/max1280x900/188/188625480.jpg,55.69901137,13.20149486,,,,,,Sweden,11a; Arkivgatan; Södra innerstaden; Centrum; Lund; Lund Municipality; Skåne County; 223 59; Sweden,hotel,cameraforensics
https://live.staticflickr.com/4377/35554459343_706d468a44_o.jpg,55.70466500000001,13.20348666666667,,,,,,Sweden,Botaniska trädgården; Agardhsgatan; Stadskärnan; Centrum; Lund; Lund Municipality; Skåne County; 220 02; Sweden,hotel,cameraforensics
https://live.staticflickr.com/5640/22621486208_3eae08b9a1_o.jpg,59.31548055555553,18.16184722222221,,,,,,Sweden,8; Augustendalsvägen; Vikdalen; Nacka Strand; Nacka; Nacka kommun; Stockholm County; 131 52; Sweden,hotel,cameraforensics
https://live.staticflickr.com/8870/28249662973_fe768a87b3_o.jpg,59.31886666666666,18.159202777777786,,,,,,Sweden,Gud Fader på himmelsbågen; Augustendalsvägen; Vikdalen; Nacka Strand; Nacka; Nacka kommun; Stockholm County; 131 52; Sweden,hotel,cameraforensics
https://live.staticflickr.com/2540/3954812615_a408d35682_o.jpg,59.3155,18.162,,,,,,Sweden,8; Augustendalsvägen; Vikdalen; Nacka Strand; Nacka; Nacka kommun; Stockholm County; 131 52; Sweden,hotel,cameraforensics
https://live.staticflickr.com/5736/23013508516_03bca2c7f5_o.jpg,59.315475,18.16182777777778,,,,,,Sweden,8; Augustendalsvägen; Vikdalen; Nacka Strand; Nacka; Nacka kommun; Stockholm County; 131 52; Sweden,hotel,cameraforensics
https://live.staticflickr.com/2828/13205302163_735653e98e_o.jpg,59.31916666666667,18.157166666666672,,,,,,Sweden,Nacka Strand; Augustendalsvägen; Vikdalen; Nacka Strand; Nacka; Nacka kommun; Stockholm County; 131 52; Sweden,hotel,cameraforensics
https://q-cf.bstatic.com/images/hotel/max1280x900/415/41539653.jpg,59.31855639,18.16502452,,,,,,Sweden,Hotel J; Ellenviksvägen; Vikdalen; Nacka Strand; Nacka; Nacka kommun; Stockholm County; 131 52; Sweden,hotel,cameraforensics
https://live.staticflickr.com/2031/32840975101_041c63d69e_o.jpg,59.31761550888889,18.17012214638889,,,,,,Sweden,Landåvägen; Jarlaberg; Nacka; Nacka kommun; Stockholm County; 131 49; Sweden,hotel,cameraforensics
https://live.staticflickr.com/3946/15114172983_fd675fa028_o.jpg,59.31527777777778,18.16055555555555,,,,,,Sweden,Sälar; Augustendalsvägen; Vikdalen; Nacka Strand; Nacka; Nacka kommun; Stockholm County; 131 52; Sweden,hotel,cameraforensics
https://live.staticflickr.com/4235/35150490242_30a25c6f59_o.jpg,59.322745999999995,18.16992155555555,,,,,,Sweden,Skönviksvägen; Bergs Oljehamn; Jarlaberg; Nacka; Nacka kommun; Stockholm County; 131 49; Sweden,hotel,cameraforensics
https://live.staticflickr.com/673/32438873295_08d03ed6e2_o.jpg,59.31888888888889,18.16972222222222,,,,,,Sweden,Skönviksvägen; Jarlaberg; Nacka; Nacka kommun; Stockholm County; 131 48; Sweden,hotel,cameraforensics
https://live.staticflickr.com/7607/17105559222_67a19a24a1_o.jpg,59.32128611111111,18.073733333333326,,,,,,Sweden,Slussbron; Skeppsbron; Gamla stan; Södermalms stadsdelsområde; Stockholm; Stockholms kommun; Stockholm County; 111 30; Sweden,hotel,cameraforensics
https://live.staticflickr.com/5533/30416733564_f26c2fbc1a_o.jpg,59.32089666666667,18.06268666666667,,,,,,Sweden,Monteliusvägen; Södermalm; Södermalms stadsdelsområde; Stockholm; Stockholms kommun; Stockholm County; 11825; Sweden,hotel,cameraforensics
https://live.staticflickr.com/588/31658020951_8a62a8837c_o.jpg,59.32425555555553,18.067683333333328,,,,,,Sweden,Petersenska huset; Munkbrogatan; Gamla stan; Södermalms stadsdelsområde; Stockholm; Stockholms kommun; Stockholm County; 114 27; Sweden,hotel,cameraforensics
https://live.staticflickr.com/5601/15375048459_400a02b4c2_o.jpg,59.324081420897215,18.071308135986108,,,,,,Sweden,22; Tyska Brinken; Gamla stan; Södermalms stadsdelsområde; Stockholm; Stockholms kommun; Stockholm County; 111 29; Sweden,hotel,cameraforensics
https://live.staticflickr.com/4323/35739809040_0df9e40f59_o.jpg,59.319992000000006,18.050763,,,,,,Sweden,Münchenbryggeriet; Söder Mälarstrand; Södermalm; Södermalms stadsdelsområde; Stockholm; Stockholms kommun; Stockholm County; 11825; Sweden,hotel,cameraforensics
https://live.staticflickr.com/4317/36003447476_94914f477d_o.jpg,59.31610833333333,18.06571111111111,,,,,,Sweden,Björngårdsskolan; Högbergsgatan; Södermalm; Södermalms stadsdelsområde; Stockholm; Stockholms kommun; Stockholm County; 118 55; Sweden,hotel,cameraforensics
https://live.staticflickr.com/281/31935105754_7903e803ae_o.jpg,59.31888888888889,18.071111111111108,,,,,,Sweden,ChangeGroup; Götgatan; Södermalm; Södermalms stadsdelsområde; Stockholm; Stockholms kommun; Stockholm County; 118 46; Sweden,hotel,cameraforensics
https://live.staticflickr.com/1626/25955689180_0fcbfae9c0_o.jpg,59.32068055555553,18.070330555555557,,,,,,Sweden,Guldfjärdsplan; Södermalm; Södermalms stadsdelsområde; Stockholm; Stockholms kommun; Stockholm County; 118 46; Sweden,hotel,cameraforensics
https://live.staticflickr.com/8288/28930069380_62988d2194_o.jpg,59.32448333333333,18.061815,,,,,,Sweden,Solbåten; Evert Taubes Terrass; Riddarholmen; Södermalms stadsdelsområde; Stockholm; Stockholms kommun; Stockholm County; 101 23; Sweden,hotel,cameraforensics
https://live.staticflickr.com/4348/36261307391_3062d9293f_o.jpg,59.317761111111096,18.06254444444444,,,,,,Sweden,10; Mariatorget; Södermalm; Södermalms stadsdelsområde; Stockholm; Stockholms kommun; Stockholm County; 11850; Sweden,hotel,cameraforensics
https://live.staticflickr.com/1685/26050354783_85aed9b35d_o.jpg,58.41708055555557,15.636036111111107,,,,,,Sweden,Saab Arena; 1; Gumpekullavägen; Kallerstads industriområde; Tannefors; Linköpings Sankt Lars; Linköping; Linköpings kommun; Östergötland County; 582 78; Sweden,hotel,cameraforensics
https://live.staticflickr.com/4153/5016012020_b2400bd616_o.jpg,58.4145,15.62033333333333,,,,,,Sweden,Klostergatan; Vasavägen; Övre Vasastaden; Vasastaden; Linköpings domkyrkodistrikt; Linköping; Linköpings kommun; Östergötland County; 58218; Sweden,hotel,cameraforensics
https://r-cf.bstatic.com/images/hotel/max1280x900/276/27643003.jpg,58.41405991,15.62935799,,,,,,Sweden,Hotell Östergyllen; 2 B; Hamngatan; Innerstaden; Linköpings Sankt Lars; Linköping; Linköpings kommun; Östergötland County; 582 26; Sweden,hotel,cameraforensics
https://live.staticflickr.com/6156/6175661409_714766c5b6_o.jpg,58.40917805555557,15.62431833333333,,,,,,Sweden,Kappa Bar; 4; Trädgårdstorget; Innerstaden; Linköpings Sankt Lars; Linköping; Linköpings kommun; Östergötland County; 582 24; Sweden,hotel,cameraforensics
https://q-cf.bstatic.com/images/hotel/max1280x900/104/10467385.jpg,58.41405991,15.62935799,,,,,,Sweden,Hotell Östergyllen; 2 B; Hamngatan; Innerstaden; Linköpings Sankt Lars; Linköping; Linköpings kommun; Östergötland County; 582 26; Sweden,hotel,cameraforensics
https://live.staticflickr.com/5214/5387417340_4f4604a587_o.jpg,58.41497820000833,15.622798999999999,,,,,,Sweden,12; Sankt Larsgatan; Vasastaden; Linköpings domkyrkodistrikt; Linköping; Linköpings kommun; Östergötland County; 58224; Sweden,hotel,cameraforensics
https://q-cf.bstatic.com/images/hotel/max1280x900/558/5585280.jpg,58.41430607,15.62857836,,,,,,Sweden,4; Tullgränd; Innerstaden; Linköpings Sankt Lars; Linköping; Linköpings kommun; Östergötland County; 582 26; Sweden,hotel,cameraforensics
https://live.staticflickr.com/4060/4592936757_ae0e59cc3d_o.jpg,58.41666666666666,15.6225,,,,,,Sweden,6A; Sankt Larsgatan; Vasastaden; Linköpings domkyrkodistrikt; Linköping; Linköpings kommun; Östergötland County; 582 21; Sweden,hotel,cameraforensics
https://live.staticflickr.com/5456/17148236344_e4140f4b22_o.jpg,58.41088888888889,15.624405555555553,,,,,,Sweden,Naturkompaniet; 30; Sankt Larsgatan; Innerstaden; Linköpings Sankt Lars; Linköping; Linköpings kommun; Östergötland County; 582 24; Sweden,hotel,cameraforensics
https://live.staticflickr.com/3324/3425518435_3ed52b7870_o.jpg,55.69283333333333,13.20216666666667,,,,,,Sweden,11; Astrakanvägen; Hospitalsgården; Nilstorp; Söder; Lund; Lund Municipality; Skåne County; 224 56; Sweden,hotel,cameraforensics
https://live.staticflickr.com/3770/12729528023_2b81b8c17a_o.jpg,55.6891361111111,13.1925,,,,,,Sweden,Tetra Pak; 2; Ruben Rausings gata; Råbyholm; Söder; Lund; Lund Municipality; Skåne County; 223 55; Sweden,hotel,cameraforensics
https://r-cf.bstatic.com/images/hotel/max1280x900/170/170599545.jpg,55.68824306,13.19360375,,,,,,Sweden,9; Borgs väg; Råbyholm; Söder; Lund; Lund Municipality; Skåne County; 223 55; Sweden,hotel,cameraforensics
https://live.staticflickr.com/1472/25798137084_1257480e8f_o.jpg,55.69095555555555,13.204122222222221,,,,,,Sweden,4; Vildvinsgränden; Hospitalsgården; Nilstorp; Söder; Lund; Lund Municipality; Skåne County; 224 57; Sweden,hotel,cameraforensics
https://r-cf.bstatic.com/images/hotel/max1280x900/170/170599597.jpg,55.68824306,13.19360375,,,,,,Sweden,9; Borgs väg; Råbyholm; Söder; Lund; Lund Municipality; Skåne County; 223 55; Sweden,hotel,cameraforensics
https://live.staticflickr.com/5108/5664030254_9d7c121869_o.jpg,55.6865,13.187000000000001,,,,,,Sweden,Malmövägen; Råbyholm; Söder; Lund; Lund Municipality; Skåne County; 222 25; Sweden,hotel,cameraforensics
https://q-cf.bstatic.com/images/hotel/max1280x900/173/173580897.jpg,55.68824306,13.19360375,,,,,,Sweden,9; Borgs väg; Råbyholm; Söder; Lund; Lund Municipality; Skåne County; 223 55; Sweden,hotel,cameraforensics
https://live.staticflickr.com/7058/6855550467_e215fc37f2_o.jpg,55.69300000000001,13.18916666666667,,,,,,Sweden,15a; Järnåkravägen; Järnåkra; Nilstorp; Söder; Lund; Lund Municipality; Skåne County; 223 58; Sweden,hotel,cameraforensics
https://live.staticflickr.com/1/369/18307496529_232315df36_o_d.jpg,55.692425,13.191610999999998,,,,,,Sweden,12b; Mellanvångsvägen; Hospitalsgården; Nilstorp; Söder; Lund; Lund Municipality; Skåne County; 223 58; Sweden,hotel,cameraforensics
https://live.staticflickr.com/5201/5273751122_8f11fd86c4_o.jpg,55.69416666666667,13.2045,,,,,,Sweden,72e; Kastanjegatan; Hospitalsgården; Nilstorp; Söder; Lund; Lund Municipality; Skåne County; 224 57; Sweden,hotel,cameraforensics
https://live.staticflickr.com/4335/36528933560_7f5f6a650e_o.jpg,59.85426019996667,17.634262399999994,,,,,,Sweden,Uppsala slott; 1; Drottning Christinas väg; Fjärdingen; Uppsala; Uppsala kommun; Uppsala County; 752 37; Sweden,hotel,cameraforensics
https://live.staticflickr.com/8587/15919808740_311f8cdaff_o.jpg,59.857647222222226,17.62978888888889,,,,,,Sweden,Universitetshuset; 3; Biskopsgatan; Fjärdingen; Uppsala; Uppsala kommun; Uppsala County; 753 10; Sweden,hotel,cameraforensics
https://live.staticflickr.com/7488/15844908686_4d79cd744a_o.jpg,57.78158055555557,14.175722222222221,,,,,,Sweden,Göta Hovrätt; Hovrättstorget; Kålgården; Jönköping; Jönköpings kommun; Jönköping County; 553 20; Sweden,hotel,cameraforensics
https://drscdn.500px.org/photo/245550191/m%3D2048_k%3D1_a%3D1/v2?client_application_id=36673&webp=true&sig=717a29533fb9d7398411c1e915749e570881a1e5287cf99cd335c20590e14663,59.2590138888889,15.20579166666667,,,,,,Sweden,Tullängsskolan; Tullängsgatan; Eklunda; Örebro; Örebro kommun; Örebro County; 70225; Sweden,hotel,cameraforensics
https://live.staticflickr.com/5753/30850945411_bb9b1d4274_o.jpg,59.26027222222222,15.193705555555553,,,,,,Sweden,Gustavsvik; 11; Gustavsviksvägen; Örnsro; Örebro; Örebro kommun; Örebro County; 702 30; Sweden,hotel,cameraforensics
https://r-cf.bstatic.com/images/hotel/max1280x900/103/10327594.jpg,59.26021894,15.19596934,,,,,,Sweden,Good Morning Örebro; 2; Stenbackevägen; Karlsdal; Ladugårdsängen; Örebro; Örebro kommun; Örebro County; 702 25; Sweden,hotel,cameraforensics
https://live.staticflickr.com/65535/48241785927_dccab9502b_o.jpg,59.260175,15.193177777777779,,,,,,Sweden,Gustavsvik; 11; Gustavsviksvägen; Örnsro; Örebro; Örebro kommun; Örebro County; 702 30; Sweden,hotel,cameraforensics
https://live.staticflickr.com/7585/16803983672_cf3b8f96e4_o.jpg,59.25965,15.19274166666667,,,,,,Sweden,Gustavsvik; Stenbackevägen; Örnsro; Örebro; Örebro kommun; Örebro County; 702 26; Sweden,hotel,cameraforensics
https://live.staticflickr.com/7643/16803963721_0468e53db1_o.jpg,59.259822222222226,15.193402777777779,,,,,,Sweden,Gustavsvik; 11; Gustavsviksvägen; Örnsro; Örebro; Örebro kommun; Örebro County; 702 30; Sweden,hotel,cameraforensics
https://live.staticflickr.com/8696/16617507958_4fb7f05c18_o.jpg,59.2596888888889,15.19280833333333,,,,,,Sweden,Gustavsvik; Stenbackevägen; Örnsro; Örebro; Örebro kommun; Örebro County; 702 26; Sweden,hotel,cameraforensics
https://live.staticflickr.com/1944/45115542741_574f021bb4_o.jpg,59.26267222222222,15.205955555555553,,,,,,Sweden,Södermalmsallén; Eklunda; Örebro; Örebro kommun; Örebro County; 70224; Sweden,hotel,cameraforensics
https://live.staticflickr.com/7627/16618944439_401bfd2837_o.jpg,59.259944444444436,15.192652777777779,,,,,,Sweden,Gustavsvik; Stenbackevägen; Örnsro; Örebro; Örebro kommun; Örebro County; 702 26; Sweden,hotel,cameraforensics
https://live.staticflickr.com/7654/16779207216_499416c4e3_o.jpg,59.26008333333333,15.19331666666667,,,,,,Sweden,Gustavsvik; 11; Gustavsviksvägen; Örnsro; Örebro; Örebro kommun; Örebro County; 702 30; Sweden,hotel,cameraforensics
https://live.staticflickr.com/7598/16793657796_922ee401fc_o.jpg,57.707161111111105,11.940205555555561,,,,,,Sweden,Navet; Lindholmspiren; Lindholmen; Lundby; Gothenburg; Göteborgs Stad; Västra Götaland County; 40271; Sweden,hotel,cameraforensics
https://live.staticflickr.com/5329/17226191775_389fb08b8c_o.jpg,57.7060611111111,11.93871666666667,,,,,,Sweden,Chalmers Lindholmen - Jupiter; Teknikgatan; Lindholmen; Lundby; Gothenburg; Göteborgs Stad; Västra Götaland County; 417 56; Sweden,hotel,cameraforensics
https://live.staticflickr.com/5255/5496594628_392773800d_o.jpg,57.70766666666667,11.94766666666667,,,,,,Sweden,Anders Carlssons Gata; Lindholmen; Lundby; Gothenburg; Göteborgs Stad; Västra Götaland County; 41755; Sweden,hotel,cameraforensics
https://live.staticflickr.com/7192/6871431168_234568409d_o.jpg,57.703,11.94500333333333,,,,,,Sweden,Stena Line Masthuggsterminalen; 1 & 2; Masthugget; Majorna-Linné; Gothenburg; Göteborgs Stad; Västra Götaland County; 40241; Sweden,hotel,cameraforensics
https://live.staticflickr.com/1829/42180251825_e6bff1fa32_o.jpg,57.707519444444436,11.940125,,,,,,Sweden,Navet; Lindholmspiren; Lindholmen; Lundby; Gothenburg; Göteborgs Stad; Västra Götaland County; 40271; Sweden,hotel,cameraforensics
https://live.staticflickr.com/1782/42180251785_408726d87a_o.jpg,57.70755277777778,11.940175,,,,,,Sweden,Navet; Lindholmspiren; Lindholmen; Lundby; Gothenburg; Göteborgs Stad; Västra Götaland County; 40271; Sweden,hotel,cameraforensics
https://q-cf.bstatic.com/images/hotel/max1280x900/209/209076318.jpg,57.70717377,11.94073856,,,,,,Sweden,Navet; Lindholmspiren; Lindholmen; Lundby; Gothenburg; Göteborgs Stad; Västra Götaland County; 40271; Sweden,hotel,cameraforensics
https://live.staticflickr.com/7203/7011461589_d7fb6d0ae0_o.jpg,57.70248138888889,11.938843333333333,,,,,,Sweden,Örnen; Lindholmspiren; Lindholmen; Lundby; Gothenburg; Göteborgs Stad; Västra Götaland County; Sweden,hotel,cameraforensics
https://live.staticflickr.com/3819/13163503234_774c83a6b4_o.jpg,57.707477777777775,11.94028611111111,,,,,,Sweden,Navet; Lindholmspiren; Lindholmen; Lundby; Gothenburg; Göteborgs Stad; Västra Götaland County; 40271; Sweden,hotel,cameraforensics
https://drscdn.500px.org/photo/215548045/m%3D2048_k%3D1_a%3D1/414843c9b2031275118f9b4aa9e26844,57.71058333333333,11.942625,,,,,,Sweden,B; Lindholmen; Lundby; Gothenburg; Göteborgs Stad; Västra Götaland County; 41755; Sweden,hotel,cameraforensics
https://live.staticflickr.com/3262/5835492865_fa50154f10_o.jpg,57.7068,12.00080555555556,,,,,,Sweden,2c; Trestegsgatan; Prästgårdsängen; Lunden; Örgryte-Härlanda; Gothenburg; Göteborgs Stad; Västra Götaland County; 41569; Sweden,hotel,cameraforensics
https://live.staticflickr.com/3937/15742792441_92fe315d40_o.jpg,57.70704166666667,11.985,,,,,,Sweden,Skånegatan; Heden; Centrum; Gothenburg; Göteborgs Stad; Västra Götaland County; 411 02; Sweden,hotel,cameraforensics
https://live.staticflickr.com/7386/12022638133_1c8789d54d_o.jpg,57.70666666666666,11.987833333333333,,,,,,Sweden,Ullevi Stadium; Hugo Levins Väg; Heden; Centrum; Gothenburg; Göteborgs Stad; Västra Götaland County; 412 50; Sweden,hotel,cameraforensics
https://r-cf.bstatic.com/images/hotel/max1280x900/203/203700138.jpg,57.70922858,11.98579565,,,,,,Sweden,2AB; Baldersgatan; Stampen; Centrum; Gothenburg; Göteborgs Stad; Västra Götaland County; 41102; Sweden,hotel,cameraforensics
https://live.staticflickr.com/65535/49203764107_6c0eacab71_o.jpg,57.70486,11.99370333333333,,,,,,Sweden,Gröna skrapan; Gårdatorget; Gårda; Heden; Centrum; Gothenburg; Göteborgs Stad; Västra Götaland County; 412 50; Sweden,hotel,cameraforensics
https://live.staticflickr.com/959/41509033294_dba0a29a3f_o.jpg,57.70694444444445,11.99833333333333,,,,,,Sweden,6A; Stavhopparegatan; Prästgårdsängen; Lunden; Örgryte-Härlanda; Gothenburg; Göteborgs Stad; Västra Götaland County; 41569; Sweden,hotel,cameraforensics
https://live.staticflickr.com/7458/27465353516_67214a807b_o.jpg,57.70652777777778,11.986811111111107,,,,,,Sweden,Ullevi Stadium; Hugo Levins Väg; Heden; Centrum; Gothenburg; Göteborgs Stad; Västra Götaland County; 412 50; Sweden,hotel,cameraforensics
https://live.staticflickr.com/7431/9441171021_5c6e05a5aa_o.jpg,57.7061663888889,11.987739999999999,,,,,,Sweden,Ullevi Stadium; Hugo Levins Väg; Heden; Centrum; Gothenburg; Göteborgs Stad; Västra Götaland County; 412 50; Sweden,hotel,cameraforensics
https://live.staticflickr.com/5152/5896637595_6bba2a9d80_o.jpg,57.71482777777778,11.999444444444439,,,,,,Sweden,20; Olskrokstorget; Olskroken; Örgryte-Härlanda; Gothenburg; Göteborgs Stad; Västra Götaland County; 416 65; Sweden,hotel,cameraforensics
https://live.staticflickr.com/6099/5902826726_6a7df6ca0c_o.jpg,57.70616666666667,11.9865,,,,,,Sweden,Ullevi Stadium; Hugo Levins Väg; Heden; Centrum; Gothenburg; Göteborgs Stad; Västra Götaland County; 412 50; Sweden,hotel,cameraforensics
https://live.staticflickr.com/8228/8434030350_003d507ac0_o.jpg,59.32607473443333,18.070939881183328,,,,,,Sweden,Stockholm Palace; Slottsbacken; Gamla stan; Södermalms stadsdelsområde; Stockholm; Stockholms kommun; Stockholm County; Sweden,hotel,cameraforensics
https://live.staticflickr.com/7292/10696995134_c7a6b9454b_o.jpg,59.32708166666666,18.074845,,,,,,Sweden,Hop-on Hop-off; Skeppsbrokajen; Gamla stan; Södermalms stadsdelsområde; Stockholm; Stockholms kommun; Stockholm County; 111 30; Sweden,hotel,cameraforensics
https://live.staticflickr.com/7788/17415029364_6da84405c7_o.jpg,59.32892166666667,18.06513666666667,,,,,,Sweden,Norrlandsbanken; Fredsgatan; Norrmalm; Norrmalms stadsdelsområde; Stockholm; Stockholms kommun; Stockholm County; 103 21; Sweden,hotel,cameraforensics
https://live.staticflickr.com/5625/22653565805_8dfb8d2d6d_o.jpg,59.32898611111111,18.06631666666668,,,,,,Sweden,4; Drottninggatan; Norrmalm; Norrmalms stadsdelsområde; Stockholm; Stockholms kommun; Stockholm County; 111 52; Sweden,hotel,cameraforensics
https://live.staticflickr.com/3693/8891288110_a03275870e_o.jpg,59.325747222222226,18.067277777777786,,,,,,Sweden,13; Storkyrkobrinken; Gamla stan; Södermalms stadsdelsområde; Stockholm; Stockholms kommun; Stockholm County; 111 28; Sweden,hotel,cameraforensics
https://live.staticflickr.com/7622/26898031811_e357cc4ec9_o.jpg,59.32718333333333,18.072233333333326,,,,,,Sweden,Stockholm Palace; Slottsbacken; Gamla stan; Södermalms stadsdelsområde; Stockholm; Stockholms kommun; Stockholm County; Sweden,hotel,cameraforensics
http://static.panoramio.com/photos/original/72173628.jpg,57.706447499999996,11.96765611111111,,,,,,Sweden,Södra Hamngatan; Kungshöjd; Inom Vallgraven; Centrum; Gothenburg; Göteborgs Stad; Västra Götaland County; 40439; Sweden,hotel,cameraforensics
https://live.staticflickr.com/5633/22682023590_b7bc30f021_o.jpg,57.70782222222223,11.97189444444444,,,,,,Sweden,Höglunds Kiosk & Grill; Nils Ericsonsgatan; Inom Vallgraven; Centrum; Gothenburg; Göteborgs Stad; Västra Götaland County; 401 25; Sweden,hotel,cameraforensics
http://static.panoramio.com/photos/original/99845274.jpg,57.70223000000001,11.97796833333333,,,,,,Sweden,Gamla Allén; Heden; Centrum; Gothenburg; Göteborgs Stad; Västra Götaland County; 411 35; Sweden,hotel,cameraforensics
https://live.staticflickr.com/5761/30497562652_fca41674f2_o.jpg,57.698009,11.978477,,,,,,Sweden,Park Lane; Kungsportsavenyen; Lorensberg; Centrum; Gothenburg; Göteborgs Stad; Västra Götaland County; 41256; Sweden,hotel,cameraforensics
https://live.staticflickr.com/320/31434634343_5c3c26e7a7_o.jpg,57.70138888888889,11.97641666666667,,,,,,Sweden,Vasagatan/Heden; Gamla Allén; Heden; Centrum; Gothenburg; Göteborgs Stad; Västra Götaland County; 411 35; Sweden,hotel,cameraforensics
https://live.staticflickr.com/3920/14554350601_862f027002_o.jpg,57.69801999999999,11.97884166666667,,,,,,Sweden,Karin Boye; Sophus Petersens Backe; Lorensberg; Centrum; Gothenburg; Göteborgs Stad; Västra Götaland County; 41256; Sweden,hotel,cameraforensics
https://live.staticflickr.com/3899/14362128265_63927a5c43_o.jpg,57.70407222222222,11.963388888888893,,,,,,Sweden,Oneoff; Kungsgatan; Kungshöjd; Inom Vallgraven; Centrum; Gothenburg; Göteborgs Stad; Västra Götaland County; 44115; Sweden,hotel,cameraforensics
https://live.staticflickr.com/7150/6519898375_b1a8254eb8_o.jpg,57.7045,11.96633333333333,,,,,,Sweden,18; Korsgatan; Kungshöjd; Inom Vallgraven; Centrum; Gothenburg; Göteborgs Stad; Västra Götaland County; 411 15; Sweden,hotel,cameraforensics
https://live.staticflickr.com/4490/37246439622_01174c8330_o.jpg,57.69783333333334,11.961825,,,,,,Sweden,Social Sciences Library; 2 A; Vasagatan; Vasastaden; Centrum; Gothenburg; Göteborgs Stad; Västra Götaland County; 42211; Sweden,hotel,cameraforensics
https://live.staticflickr.com/3696/11502670663_95a928fe99_o.jpg,57.707611111111106,11.971611111111107,,,,,,Sweden,Nordstan; Östra Hamngatan; Inom Vallgraven; Centrum; Gothenburg; Göteborgs Stad; Västra Götaland County; 411 90; Sweden,hotel,cameraforensics
https://live.staticflickr.com/7620/16705533468_c455f32929_o.jpg,59.34544722222223,18.064944444444443,,,,,,Sweden,8; Bragevägen; Lärkstaden; Östermalm; Östermalms stadsdelsområde; Stockholm; Stockholms kommun; Stockholm County; 114 24; Sweden,hotel,cameraforensics
https://live.staticflickr.com/7650/16867285056_b1638c3ebd_o.jpg,59.34566388888889,18.0649,,,,,,Sweden,10; Bragevägen; Lärkstaden; Östermalm; Östermalms stadsdelsområde; Stockholm; Stockholms kommun; Stockholm County; 114 24; Sweden,hotel,cameraforensics
https://live.staticflickr.com/5024/5611393296_e60d4d63e0_o.jpg,59.34083333333334,18.0635,,,,,,Sweden,G.A.D; Tulegatan; Sibirien; Vasastaden; Norrmalms stadsdelsområde; Stockholm; Stockholms kommun; Stockholm County; 111 40; Sweden,hotel,cameraforensics
https://live.staticflickr.com/568/23471381342_b752684460_o.jpg,59.34149930555557,18.06153297222221,,,,,,Sweden,20; Döbelnsgatan; Sibirien; Vasastaden; Norrmalms stadsdelsområde; Stockholm; Stockholms kommun; Stockholm County; 113 58; Sweden,hotel,cameraforensics
https://live.staticflickr.com/4016/34942826834_cb404f51d5_o.jpg,59.34603888888889,18.04757222222221,,,,,,Sweden,Borgerskapets änkehus; Norrtullsgatan; Sibirien; Vasastaden; Norrmalms stadsdelsområde; Stockholm; Stockholms kommun; Stockholm County; 11327; Sweden,hotel,cameraforensics
https://live.staticflickr.com/5755/21023289343_f3cda3e3e1_o.jpg,59.3411111111111,18.06111111111111,,,,,,Sweden,Headzone; Rådmansgatan; Sibirien; Vasastaden; Norrmalms stadsdelsområde; Stockholm; Stockholms kommun; Stockholm County; 113 57; Sweden,hotel,cameraforensics
https://live.staticflickr.com/5504/9213445968_153bcec1f0_o.jpg,59.3435,18.0555,,,,,,Sweden,Office Depot; Sveavägen; Sibirien; Vasastaden; Norrmalms stadsdelsområde; Stockholm; Stockholms kommun; Stockholm County; 113 50; Sweden,hotel,cameraforensics
https://live.staticflickr.com/4014/4438623525_9ac8d7af1f_o.jpg,59.348589444444436,18.05004361111111,,,,,,Sweden,4F; Vanadisvägen; Sibirien; Vasastaden; Norrmalms stadsdelsområde; Stockholm; Stockholms kommun; Stockholm County; 11347; Sweden,hotel,cameraforensics
https://live.staticflickr.com/4215/35110083225_cf4f965239_o.jpg,59.346355,18.05065,,,,,,Sweden,23B; Hagagatan; Sibirien; Vasastaden; Norrmalms stadsdelsområde; Stockholm; Stockholms kommun; Stockholm County; 11347; Sweden,hotel,cameraforensics
https://live.staticflickr.com/7342/16295662697_af49c8831f_o.jpg,59.34230833333334,18.061168333333327,,,,,,Sweden,18; Kungstensgatan; Sibirien; Vasastaden; Norrmalms stadsdelsområde; Stockholm; Stockholms kommun; Stockholm County; 113 53; Sweden,hotel,cameraforensics
https://live.staticflickr.com/2615/4132565735_49ee4655b2_o.jpg,65.58623611111109,22.165528055555548,,,,,,Sweden,Trafikverket; 2-4; Sundsbacken; Östermalm; Luleå; Luleå kommun; Norrbotten County; 97242; Sweden,hotel,cameraforensics
https://live.staticflickr.com/7168/6745560735_bba99cc17a_o.jpg,65.58166666666666,22.15466666666667,,,,,,Sweden,Unionen; 53; Varvsgatan; Östermalm; Luleå; Luleå kommun; Norrbotten County; 972 33; Sweden,hotel,cameraforensics
https://live.staticflickr.com/544/31873904452_d5e2b53873_o.jpg,65.58539444444446,22.15120833333333,,,,,,Sweden,Smedjegatan; Bergviken; Luleå; Luleå kommun; Norrbotten County; 97323; Sweden,hotel,cameraforensics
https://25.media.tumblr.com/4f8b539bca8cd39341911bf43936195f/tumblr_ohiqb6irTX1sx8v43o3_1280.jpg,58.40656666666667,15.62105,,,,,,Sweden,Helmans allé; Stolplyckan; Ekkällan; Linköpings domkyrkodistrikt; Linköping; Linköpings kommun; Östergötland County; 582 29; Sweden,hotel,cameraforensics
https://live.staticflickr.com/7379/10139454604_e94b0dbca6_o.jpg,58.41285277777778,15.617311111111107,,,,,,Sweden,11; Gråbrödragatan; Kanberget; Vasastaden; Linköpings domkyrkodistrikt; Linköping; Linköpings kommun; Östergötland County; 58220; Sweden,hotel,cameraforensics
https://live.staticflickr.com/2448/3982999041_cd706185d8_o.jpg,58.405,15.61933333333333,,,,,,Sweden,Kronés entré; Stolplyckan; Ekkällan; Linköpings domkyrkodistrikt; Linköping; Linköpings kommun; Östergötland County; 582 29; Sweden,hotel,cameraforensics
https://live.staticflickr.com/7919/47298228101_d49910e9cc_o.jpg,58.4153138888889,15.615880555555561,,,,,,Sweden,Katedralskolan; 20; Platensgatan; Övre Vasastaden; Vasastaden; Linköpings domkyrkodistrikt; Linköping; Linköpings kommun; Östergötland County; 58218; Sweden,hotel,cameraforensics
https://live.staticflickr.com/4323/35788543202_c112654c10_o.jpg,56.046786111111096,12.698625,,,,,,Sweden,3; Himmelriksgränden; Centrum; Helsingborg; Helsingborgs kommun; Skåne County; 252 23; Sweden,hotel,cameraforensics
https://live.staticflickr.com/7727/16732668013_2dd7f9a2f6_o.jpg,56.04431666666667,12.69005,,,,,,Sweden,Tivoli; 1; Hamntorget; Centrum; Helsingborg; Helsingborgs kommun; Skåne County; 252 21; Sweden,hotel,cameraforensics
https://live.staticflickr.com/8385/8558288997_9032a2909e_o.jpg,56.04316666666666,12.6955,,,,,,Sweden,Knutpunkten; Prästgatan; Centrum; Helsingborg; Helsingborgs kommun; Skåne County; 252 24; Sweden,hotel,cameraforensics
https://live.staticflickr.com/7544/16125335149_8e1ac6f2db_o.jpg,56.04921388888889,12.684177777777775,,,,,,Sweden,Tömningsstation; Båthusgatan; Centrum; Helsingborg; Helsingborgs kommun; Skåne County; 252 67; Sweden,hotel,cameraforensics
https://live.staticflickr.com/3480/3931961509_738b9660fa_o.jpg,56.0425,12.698888888888893,,,,,,Sweden,Helsingborgs stadsbibliotek; 1; Bollbrogatan; Söder; Helsingborg; Helsingborgs kommun; Skåne County; 252 25; Sweden,hotel,cameraforensics
https://live.staticflickr.com/8331/8105615012_9586c719d6_o.jpg,56.04716666666667,12.695,,,,,,Sweden,H&M; 2; Kullagatan; Centrum; Helsingborg; Helsingborgs kommun; Skåne County; 252 20; Sweden,hotel,cameraforensics
https://live.staticflickr.com/4528/23969617977_25c58f881b_o.jpg,56.041944444444454,12.695555555555561,,,,,,Sweden,Södra Parkeringen; Terminalgatan; Söder; Helsingborg; Helsingborgs kommun; Skåne County; 25218; Sweden,hotel,cameraforensics
https://live.staticflickr.com/4120/4938998424_ccbeb1cf80_o.jpg,56.04796944444447,12.697058333333333,,,,,,Sweden,Terasstrapporna; Centrum; Helsingborg; Helsingborgs kommun; Skåne County; 252 34; Sweden,hotel,cameraforensics
https://live.staticflickr.com/3353/3441205591_22fb196ebc_o.jpg,56.04683333333333,12.69533333333333,,,,,,Sweden,Smarteyes; Stortorget; Centrum; Helsingborg; Helsingborgs kommun; Skåne County; 252 20; Sweden,hotel,cameraforensics
https://q-cf.bstatic.com/images/hotel/max1280x900/288/28839184.jpg,56.044431499999995,12.69296944,,,,,,Sweden,Elite Hotel Marina Plaza; 6; Kungstorget; Centrum; Helsingborg; Helsingborgs kommun; Skåne County; Sweden,hotel,cameraforensics
https://live.staticflickr.com/5094/5540972022_a765c7aa71_o.jpg,58.93861111111111,11.170277777777779,,,,,,Sweden,Vatuland; Kristorp; Strömstad; Strömstads kommun; Västra Götaland County; 452 37; Sweden,hotel,cameraforensics
https://live.staticflickr.com/5096/5462638739_c3bc422bc2_o.jpg,58.9395,11.17266666666667,,,,,,Sweden,Primi piatti; Södra Hamngatan; Surbrunnen; Kristorp; Strömstad; Strömstads kommun; Västra Götaland County; 452 37; Sweden,hotel,cameraforensics
https://live.staticflickr.com/4056/4671646024_10d91b3f56_o.jpg,58.934770370001104,11.168804170005279,,,,,,Sweden,Strömstad Gästhamn; Uddevallavägen; Vatuland; Kristorp; Strömstad; Strömstads kommun; Västra Götaland County; 452 31; Sweden,hotel,cameraforensics
https://live.staticflickr.com/1965/44655874694_659bfc049e_o.jpg,58.93565,11.16990833333333,,,,,,Sweden,Strömstad Gästhamn; Uddevallavägen; Vatuland; Kristorp; Strömstad; Strömstads kommun; Västra Götaland County; 452 31; Sweden,hotel,cameraforensics
https://live.staticflickr.com/7085/7208006708_3ef486fedf_o.jpg,58.93766666666667,11.1805,,,,,,Sweden,Strömstiernaskolan; Södra Linnégatan; Södertull; Kristorp; Strömstad; Strömstads kommun; Västra Götaland County; 452 82; Sweden,hotel,cameraforensics
https://live.staticflickr.com/5741/23727966566_21a35e3dbf_o.jpg,58.939527777777776,11.17154166666667,,,,,,Sweden,Lekia; Södra Hamngatan; Surbrunnen; Kristorp; Strömstad; Strömstads kommun; Västra Götaland County; 452 37; Sweden,hotel,cameraforensics
https://live.staticflickr.com/5452/7056118149_5f9ca5c5dd_o.jpg,58.938,11.181,,,,,,Sweden,Strömstiernagatan; Södertull; Kristorp; Strömstad; Strömstads kommun; Västra Götaland County; 452 82; Sweden,hotel,cameraforensics
https://live.staticflickr.com/5075/7044269539_af3366f0f8_o.jpg,58.93783333333333,11.181,,,,,,Sweden,Strömstiernagatan; Södertull; Kristorp; Strömstad; Strömstads kommun; Västra Götaland County; 452 82; Sweden,hotel,cameraforensics
https://cpmr.org/wp-content/uploads/2019/10/NSC-and-the-king.jpg,58.93881666666667,11.16743611111111,,,,,,Sweden,Laholmen Hotell; Ångbåtskajen; Surbrunnen; Kristorp; Strömstad; Strömstads kommun; Västra Götaland County; 452 37; Sweden,hotel,cameraforensics
https://live.staticflickr.com/8353/8303359160_ed5e87978b_o.jpg,58.93600000000001,11.17233333333333,,,,,,Sweden,Strömstad Gästhamn; Uddevallavägen; Vatuland; Kristorp; Strömstad; Strömstads kommun; Västra Götaland County; 452 31; Sweden,hotel,cameraforensics
https://live.staticflickr.com/4382/36488876595_159058f074_o.jpg,57.70916666666667,11.960555555555553,,,,,,Sweden,Dan Broström; Packhuskajen; Kungshöjd; Inom Vallgraven; Centrum; Gothenburg; Göteborgs Stad; Västra Götaland County; Sweden,hotel,cameraforensics
https://live.staticflickr.com/8656/15989022092_dc7dd8a2c2_o.jpg,57.711953333333334,11.96885333333333,,,,,,Sweden,Norra Sjöfarten; Stampen; Centrum; Gothenburg; Göteborgs Stad; Västra Götaland County; 411 90; Sweden,hotel,cameraforensics
https://live.staticflickr.com/4466/37381841460_27e583f7ab_o.jpg,57.71368333333334,11.97578333333333,,,,,,Sweden,Gullbergsvass; Centrum; Gothenburg; Göteborgs Stad; Västra Götaland County; 41104; Sweden,hotel,cameraforensics
https://live.staticflickr.com/7245/27601147871_944d317c6d_o.jpg,57.69542888888889,11.99422805555556,,,,,,Sweden,Liseberg; 5; Örgrytevägen; Heden; Centrum; Gothenburg; Göteborgs Stad; Västra Götaland County; 40222; Sweden,hotel,cameraforensics
https://live.staticflickr.com/8406/28766518984_2ec239e7fb_o.jpg,57.695719444444435,11.993508333333333,,,,,,Sweden,Liseberg; Heden; Centrum; Gothenburg; Göteborgs Stad; Västra Götaland County; Sweden,hotel,cameraforensics
https://live.staticflickr.com/4675/26120575558_0769856d25_o.jpg,57.69777777777777,11.988611111111107,,,,,,Sweden,The Swedish Exhibition & Conference Centre; Korsvägen; Heden; Centrum; Gothenburg; Göteborgs Stad; Västra Götaland County; 402 22; Sweden,hotel,cameraforensics
https://live.staticflickr.com/3506/5824079560_f8415370a7_o.jpg,57.70225555555553,11.99488333333333,,,,,,Sweden,E 6;E 20; Heden; Centrum; Gothenburg; Göteborgs Stad; Västra Götaland County; Sweden,hotel,cameraforensics
https://live.staticflickr.com/8586/15805302302_3eea7fae20_o.jpg,57.6958,11.98845,,,,,,Sweden,Universeum; 50; Södra Vägen; Krokslätt; Centrum; Gothenburg; Göteborgs Stad; Västra Götaland County; 402 22; Sweden,hotel,cameraforensics
https://live.staticflickr.com/2868/12862381274_c388350e36_o.jpg,57.694561111111106,11.98933611111111,,,,,,Sweden,Museum of World Culture; 54; Södra Vägen; Heden; Centrum; Gothenburg; Göteborgs Stad; Västra Götaland County; 41254; Sweden,hotel,cameraforensics
https://live.staticflickr.com/1560/26561096152_2562bbe640_o.jpg,57.69938611111111,11.989252777777779,,,,,,Sweden,The Swedish Exhibition & Conference Centre; Korsvägen; Heden; Centrum; Gothenburg; Göteborgs Stad; Västra Götaland County; 402 22; Sweden,hotel,cameraforensics
https://live.staticflickr.com/4236/35089080426_d0b7f2a36b_o.jpg,57.69454444444445,11.989222222222221,,,,,,Sweden,Museum of World Culture; 54; Södra Vägen; Heden; Centrum; Gothenburg; Göteborgs Stad; Västra Götaland County; 41254; Sweden,hotel,cameraforensics
https://live.staticflickr.com/4262/35383302486_6dafc9a70d_o.jpg,59.352936111111106,18.05159444444444,,,,,,Sweden,Carl Eldh Studio Museum; Norrtullstunneln; Sibirien; Vasastaden; Norrmalms stadsdelsområde; Stockholm; Stockholms kommun; Stockholm County; 114 19; Sweden,hotel,cameraforensics
https://live.staticflickr.com/7406/12196836836_2d2948ed09_o.jpg,59.35123888888889,18.04556111111111,,,,,,Sweden,Gärdestunneln; Sibirien; Vasastaden; Norrmalms stadsdelsområde; Stockholm; Stockholms kommun; Stockholm County; 11346; Sweden,hotel,cameraforensics
https://live.staticflickr.com/4094/4777123206_23d8804377_o.jpg,59.34419833333333,18.03713111111111,,,,,,Sweden,3; Rödabergsgatan; Röda bergen; Vasastaden; Norrmalms stadsdelsområde; Stockholm; Stockholms kommun; Stockholm County; 113 37; Sweden,hotel,cameraforensics
http://lanetaneta.com/wp-content/uploads/2019/07/1562228481_%E2%80%98Neobank%E2%80%99-sueco-P.F.C.-obtiene-un-respaldo-de-5-millones-de.jpg,59.345244444444454,18.048338888888885,,,,,,Sweden,Nagel- & Skönhetsgalleriet; Frejgatan; Sibirien; Vasastaden; Norrmalms stadsdelsområde; Stockholm; Stockholms kommun; Stockholm County; 11327; Sweden,hotel,cameraforensics
https://live.staticflickr.com/8454/8050030411_72e47d3600_o.jpg,59.3405,18.04716666666668,,,,,,Sweden,36; Dalagatan; Atlasområdet; Vasastaden; Norrmalms stadsdelsområde; Stockholm; Stockholms kommun; Stockholm County; 11324; Sweden,hotel,cameraforensics
https://live.staticflickr.com/3704/11286610125_0b4cefa13f_o.jpg,59.34416666666667,18.05716666666667,,,,,,Sweden,98; Luntmakargatan; Sibirien; Vasastaden; Norrmalms stadsdelsområde; Stockholm; Stockholms kommun; Stockholm County; 113 52; Sweden,hotel,cameraforensics
https://live.staticflickr.com/8256/8671767042_8df5bec0d2_o.jpg,59.27483333333333,15.215,,,,,,Sweden,Befriaren; Olaigatan; Holmen; Örebro; Örebro kommun; Örebro County; 703 61; Sweden,hotel,cameraforensics
https://live.staticflickr.com/2877/12193946254_2b3d862187_o.jpg,59.27466666666667,15.2075,,,,,,Sweden,Yuelong Restaurang; 11; Västra Bangatan; Holmen; Örebro; Örebro kommun; Örebro County; 703 54; Sweden,hotel,cameraforensics
https://live.staticflickr.com/7426/13890055865_44dd4dfc2f_o.jpg,59.2685,15.20516666666667,,,,,,Sweden,Änggatan; Eklunda; Örebro; Örebro kommun; Örebro County; 702 22; Sweden,hotel,cameraforensics
https://live.staticflickr.com/4439/36749138461_b1d5e4b831_o.jpg,59.27512222222222,15.21378888888889,,,,,,Sweden,Rubber Duck; Järntorget; Holmen; Örebro; Örebro kommun; Örebro County; 703 61; Sweden,hotel,cameraforensics
https://live.staticflickr.com/8894/28407498066_a119d2a746_o.jpg,59.27519166666666,15.21331388888889,,,,,,Sweden,Rubber Duck; Järntorget; Holmen; Örebro; Örebro kommun; Örebro County; 703 61; Sweden,hotel,cameraforensics
https://live.staticflickr.com/1861/30540880548_9fdb3a617f_o.jpg,59.274772222222225,15.214019444444439,,,,,,Sweden,Slottet; Storgatan; Holmen; Örebro; Örebro kommun; Örebro County; 703 61; Sweden,hotel,cameraforensics
https://q-cf.bstatic.com/images/hotel/max1280x900/124/124494234.jpg,59.26868097,15.21238983,,,,,,Sweden,Örebro City Hotel; Kungsgatan; Eklunda; Örebro; Örebro kommun; Örebro County; 702 24; Sweden,hotel,cameraforensics
https://live.staticflickr.com/2568/3974249887_e021ac3f48_o.jpg,59.2745246111111,15.21393202777778,,,,,,Sweden,Holmen; Örebro; Örebro kommun; Örebro County; 703 61; Sweden,hotel,cameraforensics
https://live.staticflickr.com/7722/17117774498_fb9a6d9756_o.jpg,59.27051666666667,15.214102777777779,,,,,,Sweden,Zälls; Kungsgatan; Eklunda; Örebro; Örebro kommun; Örebro County; 702 11; Sweden,hotel,cameraforensics
https://live.staticflickr.com/7602/16975557546_0c01bde346_o.jpg,59.26833333333333,15.20683333333333,,,,,,Sweden,Hk-parkering (1 plats); 53;20; Näbbtorgsgatan; Eklunda; Örebro; Örebro kommun; Örebro County; 702 23; Sweden,hotel,cameraforensics
https://live.staticflickr.com/1635/25978521206_2144211ecf_o.jpg,57.69139666666667,11.90730333333333,,,,,,Sweden,Klippans Strandpromenad; Sanna; Majorna-Linné; Gothenburg; Göteborgs Stad; Västra Götaland County; 41451; Sweden,hotel,cameraforensics
https://67.media.tumblr.com/tumblr_me9pukGBzc1rmnw27o1_1280.jpg,57.6865,11.90383333333333,,,,,,Sweden,Älvsborgsbron; Otterklintsvägen; Sanna; Majorna-Linné; Gothenburg; Göteborgs Stad; Västra Götaland County; 41451; Sweden,hotel,cameraforensics
https://live.staticflickr.com/4334/36246061493_041a64a70d_o.jpg,57.68769444444445,11.91548611111111,,,,,,Sweden,15A; Ostindiegatan; Majorna; Majorna-Linné; Gothenburg; Göteborgs Stad; Västra Götaland County; 414 53; Sweden,hotel,cameraforensics
https://live.staticflickr.com/4453/37647844721_1cda64c5bb_o.jpg,57.6893,11.901702777777775,,,,,,Sweden,Röda Sten Konsthall; 1; Röda Sten; Sanna; Majorna-Linné; Gothenburg; Göteborgs Stad; Västra Götaland County; 414 51; Sweden,hotel,cameraforensics
https://live.staticflickr.com/3706/13901076023_70fe18a00e_o.jpg,57.68962777777778,11.91425277777778,,,,,,Sweden,32; Kustroddaregatan; Kungsladugård; Majorna-Linné; Gothenburg; Göteborgs Stad; Västra Götaland County; 414 53; Sweden,hotel,cameraforensics
https://live.staticflickr.com/3607/3393966793_e1caf66701_o.jpg,57.68833333333333,11.91472222222222,,,,,,Sweden,22B; Älvsborgsgatan; Kungsladugård; Majorna-Linné; Gothenburg; Göteborgs Stad; Västra Götaland County; 41471; Sweden,hotel,cameraforensics
https://live.staticflickr.com/5695/20996962289_c833a87348_o.jpg,57.69213055003333,11.90437221665556,,,,,,Sweden,Klippans Strandpromenad; Sanna; Majorna-Linné; Gothenburg; Göteborgs Stad; Västra Götaland County; 41451; Sweden,hotel,cameraforensics
https://66.media.tumblr.com/796d6ce7360aa8ca9303fdaee6119d70/tumblr_odwxrc9ZJh1rk6tb7o1_1280.jpg,57.68932777777778,11.90547222222222,,,,,,Sweden,Sockerbruket; A R Lorents gata; Kungsladugård; Majorna-Linné; Gothenburg; Göteborgs Stad; Västra Götaland County; 414 51; Sweden,hotel,cameraforensics
https://live.staticflickr.com/418/33224317686_9b8c7e2f26_o.jpg,57.687175,11.897605555555561,,,,,,Sweden,Harry Martinsons Väg; Sanna; Majorna-Linné; Gothenburg; Göteborgs Stad; Västra Götaland County; 4261 71; Sweden,hotel,cameraforensics
https://live.staticflickr.com/8366/8596598910_140f8bf057_o.jpg,57.68666666666667,11.918,,,,,,Sweden,48; Älvsborgsgatan; Kungsladugård; Majorna-Linné; Gothenburg; Göteborgs Stad; Västra Götaland County; 41471; Sweden,hotel,cameraforensics
https://live.staticflickr.com/4383/36444019641_45d119b4f7_o.jpg,59.34969430555557,17.97657772222221,,,,,,Sweden,Huvudsta Strand; Västra skogen; Huvudsta; Solna kommun; Sundbybergs kommun; Stockholm County; 171 51; Sweden,hotel,cameraforensics
https://live.staticflickr.com/4258/35661411291_cca2bcce49_o.jpg,59.35187222222223,17.96670833333333,,,,,,Sweden,Bodyflight Sthlm; 16B; Bryggerivägen; Ulvsunda industriområde; Bromma stadsdelsområde; Stockholm; Stockholms kommun; Stockholm County; 168 67; Sweden,hotel,cameraforensics
https://live.staticflickr.com/1857/43532674715_1cb9f70a95_o.jpg,59.34123333333334,17.964822222222214,,,,,,Sweden,Norra Flygeln; Margretelundsvägen; Ulvsunda; Bromma stadsdelsområde; Stockholm; Stockholms kommun; Stockholm County; 167 33; Sweden,hotel,cameraforensics
https://live.staticflickr.com/3466/3247037959_d021ea6a8d_o.jpg,59.34416666666667,17.97444444444444,,,,,,Sweden,Tackjärnsvägen; Traneberg; Bromma stadsdelsområde; Stockholm; Stockholms kommun; Stockholm County; 16868; Sweden,hotel,cameraforensics
https://live.staticflickr.com/4313/35147017083_664a3ba256_o.jpg,59.351507999999995,17.973750583333327,,,,,,Sweden,Huvudstabron; Huvudsta; Solna kommun; Sundbybergs kommun; Stockholm County; 171 54; Sweden,hotel,cameraforensics
https://r-cf.bstatic.com/images/hotel/max1280x900/523/52379552.jpg,59.34088245,17.96408415,,,,,,Sweden,Ulvsunda Slott; Margretelundsvägen; Ulvsunda; Bromma stadsdelsområde; Stockholm; Stockholms kommun; Stockholm County; 167 33; Sweden,hotel,cameraforensics
https://live.staticflickr.com/65535/48377774156_a28a13139a_o.jpg,59.34859638888889,17.97268758333333,,,,,,Sweden,60b; Johannesfredsvägen; Traneberg; Bromma stadsdelsområde; Stockholm; Stockholms kommun; Stockholm County; 16868; Sweden,hotel,cameraforensics
https://live.staticflickr.com/4174/34521456501_9cb359b176_o.jpg,59.34994166666667,17.96775,,,,,,Sweden,Europamöbler; 10; Norrbyvägen; Ulvsunda industriområde; Bromma stadsdelsområde; Stockholm; Stockholms kommun; Stockholm County; 168 69; Sweden,hotel,cameraforensics
https://live.staticflickr.com/8031/7984803093_f53a910b18_o.jpg,59.34397222222222,17.96801666666667,,,,,,Sweden,SL Teknikhus; Ekbacksvägen; Ulvsunda industriområde; Bromma stadsdelsområde; Stockholm; Stockholms kommun; Stockholm County; 168 69; Sweden,hotel,cameraforensics
https://live.staticflickr.com/7408/9103545096_370352a643_o.jpg,59.348285,17.96104388888889,,,,,,Sweden,Ranhammarsvägen; Ulvsunda industriområde; Bromma stadsdelsområde; Stockholm; Stockholms kommun; Stockholm County; 168 67; Sweden,hotel,cameraforensics
https://live.staticflickr.com/4754/40576847951_15966fa0ba_o.jpg,56.041801111111106,12.712052222222221,,,,,,Sweden,21C; Tranemansgatan; Eneborg; Helsingborg; Helsingborgs kommun; Skåne County; 252 49; Sweden,hotel,cameraforensics
https://live.staticflickr.com/4788/38901467500_557206349e_o.jpg,56.04199277777778,12.709285277777779,,,,,,Sweden,36A; Övre Eneborgsvägen; Eneborg; Helsingborg; Helsingborgs kommun; Skåne County; 252 48; Sweden,hotel,cameraforensics
https://live.staticflickr.com/8501/8339340162_22fd419958_o.jpg,56.03833333333333,12.7095,,,,,,Sweden,56A; Furutorpsgatan; Högaborg; Helsingborg; Helsingborgs kommun; Skåne County; 252 27; Sweden,hotel,cameraforensics
https://live.staticflickr.com/5590/15095093972_e97a2111b8_o.jpg,56.03751666666667,12.70021666666667,,,,,,Sweden,Lunds universitet Campus Helsingborg; Sockerbruksgatan; Söder; Helsingborg; Helsingborgs kommun; Skåne County; 252 25; Sweden,hotel,cameraforensics
https://r-cf.bstatic.com/images/hotel/max1280x900/992/99202026.jpg,56.03637062,12.712129800000001,,,,,,Sweden,ProfilHotels Hotell Horisont; 45; Gustav Adolfs gata; Högaborg; Helsingborg; Helsingborgs kommun; Skåne County; 252 27; Sweden,hotel,cameraforensics
https://live.staticflickr.com/723/31428179254_b60373ecde_o.jpg,56.04055555555557,12.70305555555556,,,,,,Sweden,4; Smedjegatan; Söder; Helsingborg; Helsingborgs kommun; Skåne County; 252 26; Sweden,hotel,cameraforensics
https://live.staticflickr.com/1788/28259760747_da050bd66e_o.jpg,56.029275,12.70775,,,,,,Sweden,8; Sydhamnsgatan; Planteringen; Helsingborg; Helsingborgs kommun; Skåne County; 252 28; Sweden,hotel,cameraforensics
https://live.staticflickr.com/6082/6083613836_e018cae01b_o.jpg,56.03983333333333,12.72183333333333,,,,,,Sweden,15; Uppsalagatan; Fältabacken; Helsingborg; Helsingborgs kommun; Skåne County; 252 50; Sweden,hotel,cameraforensics
https://live.staticflickr.com/2830/33317687222_6a8af7cdff_o.jpg,56.038572277777774,12.70259677777778,,,,,,Sweden,Gustav Adolfs kyrka; Gustav Adolfs torg; Söder; Helsingborg; Helsingborgs kommun; Skåne County; Sweden,hotel,cameraforensics
https://live.staticflickr.com/4408/36018713313_0749c8fa7e_o.jpg,56.03249444444445,12.705522222222221,,,,,,Sweden,8; Cindersgatan; Söder; Helsingborg; Helsingborgs kommun; Skåne County; 252 25; Sweden,hotel,cameraforensics
https://live.staticflickr.com/4140/4795416976_0ac9e9b8ee_o.jpg,58.06423333333333,11.810302777777775,,,,,,Sweden,Stenungsbron; Kvarnberget; Stenungsund; Stenungsunds kommun; Västra Götaland County; 44448; Sweden,hotel,cameraforensics
https://live.staticflickr.com/4132/5030369012_c96dfd2f5b_o.jpg,58.06916666666667,11.8165,,,,,,Sweden,Stenungstorg; Östra Köpmansgatan; Kvarnberget; Stenungsund; Stenungsunds kommun; Västra Götaland County; 444 30; Sweden,hotel,cameraforensics
https://live.staticflickr.com/2557/3921855519_dee042a17d_o.jpg,58.06633333333333,11.81683333333333,,,,,,Sweden,1-5; Fregatten; Kvarnberget; Stenungsund; Stenungsunds kommun; Västra Götaland County; 444 30; Sweden,hotel,cameraforensics
https://live.staticflickr.com/6125/5963076213_786edc00dc_o.jpg,58.0685,11.81666666666667,,,,,,Sweden,Stenungstorg; Östra Köpmansgatan; Kvarnberget; Stenungsund; Stenungsunds kommun; Västra Götaland County; 444 30; Sweden,hotel,cameraforensics
https://live.staticflickr.com/4537/38607045306_4d9e691979_o.jpg,58.07072333333333,11.812891666666667,,,,,,Sweden,Beyers backe; Stenungsön; Stenungsunds kommun; Västra Götaland County; 444 31; Sweden,hotel,cameraforensics
https://live.staticflickr.com/5098/5531979096_c013bddd0e_o.jpg,58.06513,11.81529166666667,,,,,,Sweden,1-3; Fregatten; Kvarnberget; Stenungsund; Stenungsunds kommun; Västra Götaland County; 444 30; Sweden,hotel,cameraforensics
https://drscdn.500px.org/photo/218009353/m%3D2048_k%3D1_a%3D1/8c669ee83a2266451243630373f69152,58.0642138888889,11.807975,,,,,,Sweden,Stenungsbaden Yacht Club Hotell AB; Södra Stenungsön; Stenungsön; Stenungsunds kommun; Västra Götaland County; 44448; Sweden,hotel,cameraforensics
https://live.staticflickr.com/5103/5576867037_8a4782c111_o.jpg,58.06933166666666,11.81337166666667,,,,,,Sweden,Kommunkontor; Strandvägen; Kristinedal; Stenungsund; Stenungsunds kommun; Västra Götaland County; 444 31; Sweden,hotel,cameraforensics
https://live.staticflickr.com/5292/5531394337_f01eef86aa_o.jpg,58.06509499999999,11.81346666666667,,,,,,Sweden,Tömningsstation; 160; Kvarnberget; Stenungsund; Stenungsunds kommun; Västra Götaland County; 44430; Sweden,hotel,cameraforensics
https://live.staticflickr.com/65535/48215277962_165ac0fe7d_o.jpg,58.06067833333334,11.81424316666667,,,,,,Sweden,160; Kvarnberget; Stenungsund; Stenungsunds kommun; Västra Götaland County; 44430; Sweden,hotel,cameraforensics
http://static.panoramio.com/photos/original/74469097.jpg,57.706067000000004,11.969845,,,,,,Sweden,MQ; Drottninggatan; Kungshöjd; Inom Vallgraven; Centrum; Gothenburg; Göteborgs Stad; Västra Götaland County; 411 09; Sweden,hotel,cameraforensics
https://live.staticflickr.com/8289/29329807146_8063e71497_o.jpg,57.70295,11.97255,,,,,,Sweden,G; Vasastaden; Centrum; Gothenburg; Göteborgs Stad; Västra Götaland County; 41108; Sweden,hotel,cameraforensics
https://live.staticflickr.com/5073/5891001590_69c8abe551_o.jpg,57.70816666666666,11.96883333333333,,,,,,Sweden,Nordstan; Östra Hamngatan; Inom Vallgraven; Centrum; Gothenburg; Göteborgs Stad; Västra Götaland County; 411 90; Sweden,hotel,cameraforensics
https://live.staticflickr.com/8848/28329928265_3e290d6c26_o.jpg,59.33492777777778,18.062552777777785,,,,,,Sweden,Orpheusgruppen; Hötorget; Norrmalm; Norrmalms stadsdelsområde; Stockholm; Stockholms kommun; Stockholm County; Sweden,hotel,cameraforensics
https://live.staticflickr.com/2922/32773125191_223d403749_o.jpg,59.3357611111111,18.055444444444444,,,,,,Sweden,Barnhusgatan; Norrmalm; Norrmalms stadsdelsområde; Stockholm; Stockholms kommun; Stockholm County; 111 23; Sweden,hotel,cameraforensics
https://live.staticflickr.com/8223/8447675085_e87b862b62_o.jpg,59.33566666666667,18.059833333333327,,,,,,Sweden,Duvans citykiosk; Olof Palmes Gata; Norrmalm; Norrmalms stadsdelsområde; Stockholm; Stockholms kommun; Stockholm County; 111 36; Sweden,hotel,cameraforensics
https://live.staticflickr.com/3890/33196785996_b520b2a4e4_o.jpg,59.33555555555557,18.05472222222221,,,,,,Sweden,Vasagatan; Norrmalm; Norrmalms stadsdelsområde; Stockholm; Stockholms kommun; Stockholm County; 111 23; Sweden,hotel,cameraforensics
https://live.staticflickr.com/8556/29785528955_8da97293ff_o.jpg,59.333302777777774,18.05,,,,,,Sweden,Västra Kungsbrokopplet; Norrmalm; Norrmalms stadsdelsområde; Stockholm; Stockholms kommun; Stockholm County; 11123; Sweden,hotel,cameraforensics
https://live.staticflickr.com/8108/29169538701_ca2627036f_o.jpg,59.333214,18.059010999999998,,,,,,Sweden,17; Klara Norra Kyrkogata; Norrmalm; Norrmalms stadsdelsområde; Stockholm; Stockholms kommun; Stockholm County; 111 22; Sweden,hotel,cameraforensics
https://live.staticflickr.com/4370/35612200654_b2c80a6cd9_o.jpg,55.605740000000004,12.99860833333333,,,,,,Sweden,Scandic Stortorget; Isak Slaktaregatan; Gamla Staden; Norr; Malmo; Malmö kommun; Skåne County; 21134; Sweden,hotel,cameraforensics
https://live.staticflickr.com/1711/25126461951_bbfe8404c5_o.jpg,55.603975,12.99273833333333,,,,,,Sweden,Diana; Kommendantstigen; Malmö Hus; Norr; Malmo; Malmö kommun; Skåne County; 211 33; Sweden,hotel,cameraforensics
https://live.staticflickr.com/8603/28750535591_090b7a1d3c_o.jpg,55.60613833333333,13.000296666666667,,,,,,Sweden,Karl X Gustav; Stortorget; Gamla Staden; Norr; Malmo; Malmö kommun; Skåne County; 211 34; Sweden,hotel,cameraforensics
https://live.staticflickr.com/7785/17395681121_9752c458e8_o.jpg,55.61227861111111,12.9963,,,,,,Sweden,Universitetsbron; Dockan; Västra Hamnen; Norr; Malmo; Malmö kommun; Skåne County; 211 20; Sweden,hotel,cameraforensics
https://live.staticflickr.com/7029/26989440920_b399825fa0_o.jpg,55.610975,13.00279666666667,,,,,,Sweden,Slagthuset; Jörgen Kocksgatan; Inre Hamnen; Norr; Malmo; Malmö kommun; Skåne County; 211 20; Sweden,hotel,cameraforensics
https://live.staticflickr.com/7756/28030426082_6472be4743_o.jpg,55.60138888888889,13.007222222222225,,,,,,Sweden,Latinskolan; H; Rörsjöstaden; Norr; Malmo; Malmö kommun; Skåne County; 21155; Sweden,hotel,cameraforensics
https://live.staticflickr.com/2852/11736240664_8374562cd8_o.jpg,55.610344444444436,12.99561666666667,,,,,,Sweden,Orkanen; 10; Nordenskiöldsgatan; Dockan; Västra Hamnen; Norr; Malmo; Malmö kommun; Skåne County; 21121; Sweden,hotel,cameraforensics
https://live.staticflickr.com/5627/20925190903_5fd6d3d92c_o.jpg,55.60940833333333,12.997697222222225,,,,,,Sweden,Posthusplatsen; Inre Hamnen; Norr; Malmo; Malmö kommun; Skåne County; Sweden,hotel,cameraforensics
https://live.staticflickr.com/7741/17403164825_1eea448257_o.jpg,55.60285277777778,12.99399444444444,,,,,,Sweden,33; Slottsgatan; Malmö Hus; Norr; Malmo; Malmö kommun; Skåne County; 211 33; Sweden,hotel,cameraforensics
https://live.staticflickr.com/3806/9294556071_4db66ea339_o.jpg,55.60021666666667,12.99617222222222,,,,,,Sweden,20; Regementsgatan; Hästhagen; Innerstaden; Malmo; Malmö kommun; Skåne County; 21142; Sweden,hotel,cameraforensics
https://drscdn.500px.org/photo/26841699/q%3D80_m%3D2000/v2?webp=true&sig=f6afa555df83622e70627aed467c3130057bd943da8b29f3ce44759309f6eb8b,59.32808833333333,18.06308666666667,,,,,,Sweden,Vasabron; Klara Mälarstrand; Norrmalm; Norrmalms stadsdelsområde; Stockholm; Stockholms kommun; Stockholm County; 101 23; Sweden,hotel,cameraforensics
https://live.staticflickr.com/4433/36204738222_80c73c68a9_o.jpg,59.33730833333333,18.07308055555556,,,,,,Sweden,23; Humlegårdsgatan; Villastaden; Östermalm; Östermalms stadsdelsområde; Stockholm; Stockholms kommun; Stockholm County; 106 63; Sweden,hotel,cameraforensics
https://live.staticflickr.com/8626/28787801286_5150c0158b_o.jpg,59.336872222222226,18.07504166666667,,,,,,Sweden,Humlegårdsgatan 20; Humlegårdsgatan; Villastaden; Östermalm; Östermalms stadsdelsområde; Stockholm; Stockholms kommun; Stockholm County; 114 46; Sweden,hotel,cameraforensics
https://live.staticflickr.com/5716/23421305439_1a731569c4_o.jpg,59.34406388888889,18.072780555555557,,,,,,Sweden,18; Engelbrektsgatan; Villastaden; Östermalm; Östermalms stadsdelsområde; Stockholm; Stockholms kommun; Stockholm County; 114 31; Sweden,hotel,cameraforensics
https://live.staticflickr.com/4251/34124927283_ee57916b55_o.jpg,59.33885833333333,18.07955277777778,,,,,,Sweden,15; Kommendörsgatan; Villastaden; Östermalm; Östermalms stadsdelsområde; Stockholm; Stockholms kommun; Stockholm County; 114 60; Sweden,hotel,cameraforensics
https://live.staticflickr.com/8089/8517858393_d9657dbb73_o.jpg,59.3355,18.07816666666667,,,,,,Sweden,Villeroy & Boch; Nybrogatan; Östermalm; Östermalms stadsdelsområde; Stockholm; Stockholms kommun; Stockholm County; 114 39; Sweden,hotel,cameraforensics
https://live.staticflickr.com/4155/33737522793_8233342c3f_o.jpg,59.344494444444436,18.07339444444445,,,,,,Sweden,Lill-Jans Plan; Villastaden; Östermalm; Östermalms stadsdelsområde; Stockholm; Stockholms kommun; Stockholm County; 114 32; Sweden,hotel,cameraforensics
https://live.staticflickr.com/5696/21728664614_145b1383cc_o.jpg,59.33067777777778,18.03730833333333,,,,,,Sweden,51; Bergsgatan; Kungsholmen; Kungsholmens stadsdelsområde; Stockholm; Stockholms kommun; Stockholm County; 112 30; Sweden,hotel,cameraforensics
https://live.staticflickr.com/4082/4858135848_53820d120e_o.jpg,59.33016666666666,18.05583333333333,,,,,,Sweden,Stockholm Waterfront; Centralbron; Norrmalm; Norrmalms stadsdelsområde; Stockholm; Stockholms kommun; Stockholm County; 11164; Sweden,hotel,cameraforensics
https://live.staticflickr.com/2257/32772905341_a5a66fea93_o.jpg,59.327236111111105,18.055383333333328,,,,,,Sweden,Stockholm City Hall; Borgargården; Kungsholmen; Kungsholmens stadsdelsområde; Stockholm; Stockholms kommun; Stockholm County; Sweden,hotel,cameraforensics
https://live.staticflickr.com/1627/24538973140_9b9801ee26_o.jpg,59.32635497222223,18.0407295,,,,,,Sweden,Norr Mälarstrands strandpromenad; Kungsholmen; Kungsholmens stadsdelsområde; Stockholm; Stockholms kommun; Stockholm County; 112 20; Sweden,hotel,cameraforensics
https://live.staticflickr.com/737/21338260773_b08c95f484_o.jpg,59.33577727777778,18.041936861111108,,,,,,Sweden,Båtparken; Kungsholms Strandstig; Kungsholmen; Kungsholmens stadsdelsområde; Stockholm; Stockholms kommun; Stockholm County; 11123; Sweden,hotel,cameraforensics
https://live.staticflickr.com/7454/27973532902_27d7d81620_o.jpg,59.327975,18.04340833333333,,,,,,Sweden,Björklund & Wingqvist; Garvargatan; Kungsholmen; Kungsholmens stadsdelsområde; Stockholm; Stockholms kommun; Stockholm County; 11223; Sweden,hotel,cameraforensics
https://live.staticflickr.com/4318/35297044893_e5f6a4e580_o.jpg,59.32751944444446,18.05536111111111,,,,,,Sweden,Stockholm City Hall; Borgargården; Kungsholmen; Kungsholmens stadsdelsområde; Stockholm; Stockholms kommun; Stockholm County; Sweden,hotel,cameraforensics
https://live.staticflickr.com/2916/14280239498_511f7d4e79_o.jpg,59.33833333333333,18.11087222222222,,,,,,Sweden,Greve von Essens Väg; Ladugårdsgärdet; Östermalms stadsdelsområde; Stockholm; Stockholms kommun; Stockholm County; 115 27; Sweden,hotel,cameraforensics
https://live.staticflickr.com/3682/14125996600_1c4d6af349_o.jpg,59.34160277777778,18.10852222222222,,,,,,Sweden,Gärdet utegym; Sandhamnsgatan; Ladugårdsgärdet; Östermalms stadsdelsområde; Stockholm; Stockholms kommun; Stockholm County; 115 28; Sweden,hotel,cameraforensics
https://live.staticflickr.com/3099/5821570685_2dc0260624_o.jpg,59.347199444444435,18.10285666666667,,,,,,Sweden,Fyrtalet; Sandhamnsgatan; Gärdeshöjden; Ladugårdsgärdet; Östermalms stadsdelsområde; Stockholm; Stockholms kommun; Stockholm County; 115 39; Sweden,hotel,cameraforensics
https://live.staticflickr.com/4088/5022409193_6e0f46eaf4_o.jpg,59.33883333333333,18.1115,,,,,,Sweden,Greve von Essens Väg; Ladugårdsgärdet; Östermalms stadsdelsområde; Stockholm; Stockholms kommun; Stockholm County; 115 27; Sweden,hotel,cameraforensics
https://live.staticflickr.com/1666/24085225285_f5ab587469_o.jpg,59.339166666666664,18.10566666666667,,,,,,Sweden,Filmhuset; Lindarängsvägen; Ladugårdsgärdet; Östermalms stadsdelsområde; Stockholm; Stockholms kommun; Stockholm County; 115 27; Sweden,hotel,cameraforensics
https://live.staticflickr.com/4280/35653847656_31abd3c606_o.jpg,59.343961111111106,18.09924444444444,,,,,,Sweden,19; Askrikegatan; Gärdeshöjden; Ladugårdsgärdet; Östermalms stadsdelsområde; Stockholm; Stockholms kommun; Stockholm County; 115 35; Sweden,hotel,cameraforensics
https://live.staticflickr.com/65535/48875332966_a7ec4be8e5_o.jpg,59.34090277777778,18.11405833333333,,,,,,Sweden,Frihamnsporten; Tegeluddsvägen; Ladugårdsgärdet; Östermalms stadsdelsområde; Stockholm; Stockholms kommun; Stockholm County; 115 28; Sweden,hotel,cameraforensics
https://r-cf.bstatic.com/images/hotel/max1280x900/128/128399077.jpg,59.34880346,18.11353147,,,,,,Sweden,37; Södra Kajen; Ladugårdsgärdet; Östermalms stadsdelsområde; Stockholm; Stockholms kommun; Stockholm County; 115 74; Sweden,hotel,cameraforensics
https://live.staticflickr.com/5190/5561621844_5b2208f236_o.jpg,59.340333333333334,18.12583333333333,,,,,,Sweden,Magasin 7; Palermogatan; Frihamnen; Ladugårdsgärdet; Östermalms stadsdelsområde; Stockholm; Stockholms kommun; Stockholm County; 115 56; Sweden,hotel,cameraforensics
https://live.staticflickr.com/5294/5542562095_2657c64340_o.jpg,59.340333333333334,18.12583333333333,,,,,,Sweden,Magasin 7; Palermogatan; Frihamnen; Ladugårdsgärdet; Östermalms stadsdelsområde; Stockholm; Stockholms kommun; Stockholm County; 115 56; Sweden,hotel,cameraforensics
https://live.staticflickr.com/7337/26542843964_65b13d9a7a_o.jpg,57.70165,11.9072,,,,,,Sweden,Västra Eriksbergsgatan; Färjenäs; Eriksberg; Lundby; Gothenburg; Göteborgs Stad; Västra Götaland County; 417 67; Sweden,hotel,cameraforensics
https://live.staticflickr.com/2851/33542824062_b47785160c_o.jpg,57.700903333333336,11.913945,,,,,,Sweden,Blå hallen; Maskingatan; Färjenäs; Eriksberg; Lundby; Gothenburg; Göteborgs Stad; Västra Götaland County; 41764; Sweden,hotel,cameraforensics
https://live.staticflickr.com/1917/31202539408_df58611859_o.jpg,57.701944444444436,11.91472222222222,,,,,,Sweden,Östra Eriksbergsgatan; Sannegården; Eriksberg; Lundby; Gothenburg; Göteborgs Stad; Västra Götaland County; 417631; Sweden,hotel,cameraforensics
https://live.staticflickr.com/8681/16218353516_aa59f8a02f_o.jpg,57.7012638888889,11.915594444444439,,,,,,Sweden,Sjöporten; Kvarnpirsgatan; Färjenäs; Eriksberg; Lundby; Gothenburg; Göteborgs Stad; Västra Götaland County; 41764; Sweden,hotel,cameraforensics
https://live.staticflickr.com/7029/27148622945_1dd6b188e2_o.jpg,57.69941388888889,11.91318611111111,,,,,,Sweden,Café Italia; Maskinkajen; Färjenäs; Eriksberg; Lundby; Gothenburg; Göteborgs Stad; Västra Götaland County; 41764; Sweden,hotel,cameraforensics
http://static.panoramio.com/photos/original/60192360.jpg,57.700625,11.918794444444439,,,,,,Sweden,Pir 4; Sannegården; Eriksberg; Lundby; Gothenburg; Göteborgs Stad; Västra Götaland County; 417 62; Sweden,hotel,cameraforensics
https://live.staticflickr.com/5517/12192305445_c3399ee5a2_o.jpg,57.69816666666667,11.91133333333333,,,,,,Sweden,Blue Peter; Arne Augustssons Plats; Färjenäs; Eriksberg; Lundby; Gothenburg; Göteborgs Stad; Västra Götaland County; 417 64; Sweden,hotel,cameraforensics
https://live.staticflickr.com/3692/14332370133_f9c79c6ca0_o.jpg,57.7047,11.92540833333333,,,,,,Sweden,Sannegårdshamnen; Sannegårdsbron; Eriksberg; Lundby; Gothenburg; Göteborgs Stad; Västra Götaland County; 41760; Sweden,hotel,cameraforensics
https://live.staticflickr.com/8323/29132796580_90c30901c1_o.jpg,57.70426666666667,11.92521388888889,,,,,,Sweden,6; Västra Sannegårdskajen; Sannegården; Eriksberg; Lundby; Gothenburg; Göteborgs Stad; Västra Götaland County; 41760; Sweden,hotel,cameraforensics
https://live.staticflickr.com/7763/28774335870_f0597defa0_o.jpg,57.695811111111105,11.92283888888889,,,,,,Sweden,Karl Johansgatan; Majorna; Majorna-Linné; Gothenburg; Göteborgs Stad; Västra Götaland County; 41456; Sweden,hotel,cameraforensics
https://drscdn.500px.org/photo/59593936/q%3D80_m%3D2000/35c4e4c078b6372eca751b68f210a0b8,56.66436388888889,16.35168333333333,,,,,,Sweden,5B; Smålandsgatan; Malmen; Kalmar; Kalmar kommun; Kalmar County; 39233; Sweden,hotel,cameraforensics
https://live.staticflickr.com/4027/4276401004_ee94773a62_o.jpg,56.662315,16.34898472222222,,,,,,Sweden,2B; Frejagatan; Bremerlyckan; Kalmar; Kalmar kommun; Kalmar County; 39233; Sweden,hotel,cameraforensics
https://q-cf.bstatic.com/images/hotel/max1280x900/187/187593443.jpg,58.618495700000004,16.16104022,,,,,,Sweden,Scandic Hotel Norrköping Nord; 17; Järngatan; Ingelsta; Herstadberg; Norrköpings kommun; Östergötland County; 60223; Sweden,hotel,cameraforensics
https://live.staticflickr.com/8468/8145213628_5826118593_o.jpg,58.61216666666667,16.15916666666667,,,,,,Sweden,Pizza Hut; 2; Koppargatan; Ingelsta; Norrköping; Norrköpings kommun; Östergötland County; 60211; Sweden,hotel,cameraforensics
https://live.staticflickr.com/4181/34671281646_e8521d623c_o.jpg,58.615,16.15616666666667,,,,,,Sweden,Mässingsgatan; Koppargatan; Ingelsta; Norrköping; Norrköpings kommun; Östergötland County; 60211; Sweden,hotel,cameraforensics
https://live.staticflickr.com/4194/33869205094_37d467d9e3_o.jpg,58.615,16.15616666666667,,,,,,Sweden,Mässingsgatan; Koppargatan; Ingelsta; Norrköping; Norrköpings kommun; Östergötland County; 60211; Sweden,hotel,cameraforensics
https://q-cf.bstatic.com/images/hotel/max1280x900/402/40256173.jpg,58.618495700000004,16.16104022,,,,,,Sweden,Scandic Hotel Norrköping Nord; 17; Järngatan; Ingelsta; Herstadberg; Norrköpings kommun; Östergötland County; 60223; Sweden,hotel,cameraforensics
https://live.staticflickr.com/7062/6931140717_5c74d31ac9_o.jpg,58.61116666666667,16.162,,,,,,Sweden,Ingelsta Handelscentrum södra; Kiselrondellen; Ingelsta handelscentrum; Ingelsta; Norrköping; Norrköpings kommun; Östergötland County; 60223; Sweden,hotel,cameraforensics
https://live.staticflickr.com/6181/6105412315_34efe8a4cf_o.jpg,58.61566666666667,16.1585,,,,,,Sweden,Mediakontoret; 12; Koppargatan; Ingelsta; Norrköping; Norrköpings kommun; Östergötland County; 60211; Sweden,hotel,cameraforensics
https://r-cf.bstatic.com/images/hotel/max1280x900/187/187597179.jpg,58.618495700000004,16.16104022,,,,,,Sweden,Scandic Hotel Norrköping Nord; 17; Järngatan; Ingelsta; Herstadberg; Norrköpings kommun; Östergötland County; 60223; Sweden,hotel,cameraforensics
http://static.panoramio.com/photos/original/112738584.jpg,58.62445066666667,16.15397641666667,,,,,,Sweden,Koppargatan; Kvillinge församling; Herstadberg; Norrköpings kommun; Östergötland County; 60223; Sweden,hotel,cameraforensics
https://st3.depositphotos.com/7700164/33203/i/1600/depositphotos_332034954-stock-photo-closeup-view-tesla-logo.jpg,58.62212833333334,16.15489166666667,,,,,,Sweden,Tesla Supercharger; Koppargatan; Ingelsta; Kvillinge församling; Herstadberg; Norrköpings kommun; Östergötland County; 60223; Sweden,hotel,cameraforensics
https://live.staticflickr.com/5678/22679311236_a0f7693b1d_o.jpg,59.33596388888889,18.05074166666667,,,,,,Sweden,Generator Stockholm; Torsgatan; Atlasområdet; Norrmalm; Norrmalms stadsdelsområde; Stockholm; Stockholms kommun; Stockholm County; 11124; Sweden,hotel,cameraforensics
https://live.staticflickr.com/6016/5930914056_a44eb1151c_o.jpg,59.339166666666664,18.035333333333327,,,,,,Sweden,12; Bråvallagatan; Birkastan; Vasastaden; Norrmalms stadsdelsområde; Stockholm; Stockholms kommun; Stockholm County; 114 30; Sweden,hotel,cameraforensics
https://67.media.tumblr.com/49d7404eb2722e998fd796dd5c5d547f/tumblr_ohbmvcUv0j1vn8f6mo1_1280.jpg,59.33582777777778,18.05085,,,,,,Sweden,10; Torsgatan; Atlasområdet; Vasastaden; Norrmalms stadsdelsområde; Stockholm; Stockholms kommun; Stockholm County; 111 23; Sweden,hotel,cameraforensics
https://live.staticflickr.com/4335/36601915540_e3cf06dca3_o.jpg,59.32863611111111,18.10825833333333,,,,,,Sweden,Skansen; 49-51; Djurgårdsslätten; Djurgårdsstaden; Djurgården; Östermalms stadsdelsområde; Stockholm; Stockholms kommun; Stockholm County; 115 21; Sweden,hotel,cameraforensics
https://live.staticflickr.com/3781/8790708103_74f1a1d659_o.jpg,59.33683333333333,18.102999999999998,,,,,,Sweden,TV-huset; Oxenstiernsgatan; Östermalm; Östermalms stadsdelsområde; Stockholm; Stockholms kommun; Stockholm County; 115 27; Sweden,hotel,cameraforensics
https://live.staticflickr.com/4283/35159221881_a51ed6d8f0_o.jpg,59.32874,18.1083,,,,,,Sweden,Skansen; 49-51; Djurgårdsslätten; Djurgårdsstaden; Djurgården; Östermalms stadsdelsområde; Stockholm; Stockholms kommun; Stockholm County; 115 21; Sweden,hotel,cameraforensics
https://live.staticflickr.com/502/19454377528_29acd52bb4_o.jpg,59.32716111111111,18.10823888888889,,,,,,Sweden,Skansen; 49-51; Djurgårdsslätten; Djurgårdsstaden; Djurgården; Östermalms stadsdelsområde; Stockholm; Stockholms kommun; Stockholm County; 115 21; Sweden,hotel,cameraforensics
https://live.staticflickr.com/4182/34628312545_6535f8fb59_o.jpg,59.33281666666667,18.115553333333327,,,,,,Sweden,Maritime Museum; Folke Bernadottes Väg; Kaknäs; Ladugårdsgärdet; Östermalms stadsdelsområde; Stockholm; Stockholms kommun; Stockholm County; 115 27; Sweden,hotel,cameraforensics
https://live.staticflickr.com/6208/6059566787_d0c43dfc42_o.jpg,59.33233333333333,18.119166666666672,,,,,,Sweden,Mathematical Garden; Museivägen; Ladugårdsgärdet; Östermalms stadsdelsområde; Stockholm; Stockholms kommun; Stockholm County; 115 27; Sweden,hotel,cameraforensics
https://live.staticflickr.com/4431/36163244564_8ed463d96c_o.jpg,59.328625,18.10815833333333,,,,,,Sweden,Skansen; 49-51; Djurgårdsslätten; Djurgårdsstaden; Djurgården; Östermalms stadsdelsområde; Stockholm; Stockholms kommun; Stockholm County; 115 21; Sweden,hotel,cameraforensics
https://live.staticflickr.com/65535/48948765756_d8385871af_o.jpg,59.32752222222222,18.11571666666667,,,,,,Sweden,Stora växhuset; Rosendalsvägen; Rosendal; Djurgården; Östermalms stadsdelsområde; Stockholm; Stockholms kommun; Stockholm County; 115 21; Sweden,hotel,cameraforensics
http://static.panoramio.com/photos/original/64732158.jpg,59.328118971488884,18.104723779405557,,,,,,Sweden,Skansen; 49-51; Djurgårdsslätten; Djurgårdsstaden; Djurgården; Östermalms stadsdelsområde; Stockholm; Stockholms kommun; Stockholm County; 115 21; Sweden,hotel,cameraforensics
https://live.staticflickr.com/522/32528489412_73865602af_o.jpg,59.32951388888889,18.06839722222222,,,,,,Sweden,Gustav Adolfs Torg; Norrmalm; Norrmalms stadsdelsområde; Stockholm; Stockholms kommun; Stockholm County; 103 21; Sweden,hotel,cameraforensics
http://static.panoramio.com/photos/original/73357268.jpg,59.325466666666664,18.064813888888885,,,,,,Sweden,Hessensteinska palatset; Centralbron; Riddarholmen; Södermalms stadsdelsområde; Stockholm; Stockholms kommun; Stockholm County; 114 27; Sweden,hotel,cameraforensics
https://65.media.tumblr.com/2dbf62d4ba6d22d54a9df89c8079e383/tumblr_ofcasmFXtF1v9upw8o1_1280.jpg,57.6995388888889,11.97240555555556,,,,,,Sweden,Vasastan Fashion; Vasagatan; Lorensberg; Centrum; Gothenburg; Göteborgs Stad; Västra Götaland County; 411 37; Sweden,hotel,cameraforensics
https://live.staticflickr.com/1605/24524351081_91ca76a7e3_o.jpg,57.70433333333333,11.9645,,,,,,Sweden,14; Vallgatan; Kungshöjd; Inom Vallgraven; Centrum; Gothenburg; Göteborgs Stad; Västra Götaland County; 41116; Sweden,hotel,cameraforensics
https://live.staticflickr.com/3868/14717830302_94d06926aa_o.jpg,57.64193333333333,18.283008333333328,,,,,,Sweden,Hällarna; Visby; Gotland Municipality; Gotland County; Sweden,hotel,cameraforensics
https://live.staticflickr.com/4321/36334041885_25734910a4_o.jpg,57.64194444444446,18.29777777777778,,,,,,Sweden,Sankta Maria domkyrka; Västra Kyrkogatan; Hanseatic Town of Visby; Hällarna; Visby; Gotland Municipality; Gotland County; 621 55; Sweden,hotel,cameraforensics
http://static.panoramio.com/photos/original/122429396.jpg,57.63523933333333,18.2921245,,,,,,Sweden,Odds Guld; Södertorg; Hanseatic Town of Visby; Hällarna; Visby; Gotland Municipality; Gotland County; 62157; Sweden,hotel,cameraforensics
https://live.staticflickr.com/7559/28307294345_b0fde1b6da_o.jpg,57.64454166666667,18.29615,,,,,,Sweden,Bredablick; Tranhusgatan; Hanseatic Town of Visby; Hällarna; Visby; Gotland Municipality; Gotland County; 621 55; Sweden,hotel,cameraforensics
https://live.staticflickr.com/3760/9288677263_a58d956f76_o.jpg,57.64239166666667,18.280433333333328,,,,,,Sweden,Berget; Hanseatic Town of Visby; Hällarna; Visby; Gotland Municipality; Gotland County; 62157; Sweden,hotel,cameraforensics
https://live.staticflickr.com/3473/3845325693_e6479515ac_o.jpg,57.64116666666666,18.296,,,,,,Sweden,Mamsell Langs hus; 3; Sankt Larsgränd; Hanseatic Town of Visby; Hällarna; Visby; Gotland Municipality; Gotland County; 621 56; Sweden,hotel,cameraforensics
https://live.staticflickr.com/7776/28640808071_997e71f8a2_o.jpg,57.64409444444443,18.294141666666672,,,,,,Sweden,DBW's Botanical Garden; Strandpromenaden; Hanseatic Town of Visby; Hällarna; Visby; Gotland Municipality; Gotland County; 621 57; Sweden,hotel,cameraforensics
https://live.staticflickr.com/8887/28079106024_a33f659cc5_o.jpg,57.64318888888889,18.29550555555555,,,,,,Sweden,4A; Tranhusgatan; Hanseatic Town of Visby; Hällarna; Visby; Gotland Municipality; Gotland County; 621 55; Sweden,hotel,cameraforensics
https://live.staticflickr.com/8736/17375148026_d0e822d912_o.jpg,57.64160555555557,18.29004722222221,,,,,,Sweden,Strandpromenaden; Hanseatic Town of Visby; Hällarna; Visby; Gotland Municipality; Gotland County; 621 57; Sweden,hotel,cameraforensics
https://live.staticflickr.com/838/43081956002_44a656fed1_o.jpg,57.63921750000001,18.29089977777778,,,,,,Sweden,Donnerska huset; Hamngatan; Hanseatic Town of Visby; Hällarna; Visby; Gotland Municipality; Gotland County; 621 57; Sweden,hotel,cameraforensics
http://static.panoramio.com/photos/original/88637353.jpg,57.70157,11.955123,,,,,,Sweden,Brogatan; Pustervik; Haga; Majorna-Linné; Gothenburg; Göteborgs Stad; Västra Götaland County; 41301; Sweden,hotel,cameraforensics
https://live.staticflickr.com/8747/16802370159_e59c1f5ba2_o.jpg,57.7115,11.963,,,,,,Sweden,Göteborgsoperans Restaurang; Operagatan; Inom Vallgraven; Centrum; Gothenburg; Göteborgs Stad; Västra Götaland County; 411 90; Sweden,hotel,cameraforensics
https://live.staticflickr.com/416/18953487638_78a64ba779_o.jpg,57.704425,11.963863888888893,,,,,,Sweden,Domkyrkan; Västra Hamngatan; Kungshöjd; Inom Vallgraven; Centrum; Gothenburg; Göteborgs Stad; Västra Götaland County; 41116; Sweden,hotel,cameraforensics
https://live.staticflickr.com/7466/16080885401_600e4ffa3a_o.jpg,57.70459444444445,11.96501388888889,,,,,,Sweden,Gothenburg Cathedral; 10B; Västra Hamngatan; Kungshöjd; Inom Vallgraven; Centrum; Gothenburg; Göteborgs Stad; Västra Götaland County; 41116; Sweden,hotel,cameraforensics
https://live.staticflickr.com/5529/9757748582_a31a4a7f98_o.jpg,55.701094999999995,13.19816166666667,,,,,,Sweden,3; Råbygatan; Stadskärnan; Centrum; Lund; Lund Municipality; Skåne County; 22351; Sweden,hotel,cameraforensics
https://live.staticflickr.com/4327/35394679404_ccdeb110d0_o.jpg,55.705247222222226,13.18948888888889,,,,,,Sweden,Hotell Lundia; 2; Knut den stores torg; Stadskärnan; Centrum; Lund; Lund Municipality; Skåne County; Sweden,hotel,cameraforensics
https://live.staticflickr.com/6046/6349386903_52f4cc5626_o.jpg,55.70333333333333,13.196666666666667,,,,,,Sweden,Hemgården; 11; Kiliansgatan; Stadskärnan; Centrum; Lund; Lund Municipality; Skåne County; 223 51; Sweden,hotel,cameraforensics
https://live.staticflickr.com/515/18752558254_1f82dbeb26_o.jpg,55.7057638888889,13.19401944444444,,,,,,Sweden,Kungshuset; Universitetsplatsen; Stadskärnan; Centrum; Lund; Lund Municipality; Skåne County; Sweden,hotel,cameraforensics
https://live.staticflickr.com/2900/14050041833_7a44f49cf4_o.jpg,55.705653888888904,13.194319722222225,,,,,,Sweden,Meridianen för den akademiska kvarten; Universitetsplatsen; Stadskärnan; Centrum; Lund; Lund Municipality; Skåne County; 22350; Sweden,hotel,cameraforensics
https://live.staticflickr.com/4052/5149877954_9569f45bf8_o.jpg,55.705,13.20033333333333,,,,,,Sweden,44; Stora Tomegatan; Stadskärnan; Centrum; Lund; Lund Municipality; Skåne County; 220 02; Sweden,hotel,cameraforensics
https://live.staticflickr.com/6085/6145297452_d147813b31_o.jpg,55.70464444444447,13.20108055555556,,,,,,Sweden,Malmö nation; 53; Östra Vallgatan; Hyphoffslyckan; Professorsstaden; Centrum; Lund; Lund Municipality; Skåne County; 221 00; Sweden,hotel,cameraforensics
https://r-cf.bstatic.com/images/hotel/max1280x900/107/107538565.jpg,55.70150416,13.19855243,,,,,,Sweden,Forenom; 10; Laboratoriegatan; Stadskärnan; Centrum; Lund; Lund Municipality; Skåne County; 22361; Sweden,hotel,cameraforensics
https://drscdn.500px.org/photo/242504929/m%3D2048_k%3D1_a%3D1/v2?client_application_id=36673&webp=true&sig=a3dd3fd7fefb6eb42a28d77118c79bba2956a3dc682a8fa8f74b03b4e77f86f3,55.698069444444435,13.18765,,,,,,Sweden,19; Gyllenkroks allé; Södra innerstaden; Centrum; Lund; Lund Municipality; Skåne County; 22223; Sweden,hotel,cameraforensics
https://live.staticflickr.com/1847/44174438132_66e129e785_o.jpg,57.64985,12.002622222222225,,,,,,Sweden,Åbytravet; Tandemgatan; Åby; Mölndal; Mölndals kommun; Västra Götaland County; 43162; Sweden,hotel,cameraforensics
https://r-cf.bstatic.com/images/hotel/max1280x900/202/20286009.jpg,57.64774891,11.99497819,,,,,,Sweden,Ibis hotel Göteborg-Mölndal; Ragnar Thorngrens gata; Pedagogen Park; Åby; Mölndal; Mölndals kommun; Västra Götaland County; 43145; Sweden,hotel,cameraforensics
https://live.staticflickr.com/1911/44870416295_3ebeefd514_o.jpg,57.65057777777778,11.997127777777779,,,,,,Sweden,23; Åby allé; Pedagogen Park; Åby; Mölndal; Mölndals kommun; Västra Götaland County; 43145; Sweden,hotel,cameraforensics
https://live.staticflickr.com/4327/35263026313_7671c7a66c_o.jpg,57.64530833333333,12.00164666666667,,,,,,Sweden,Åby 1; Idrottsvägen; Pedagogen Park; Åby; Mölndal; Mölndals kommun; Västra Götaland County; 43162; Sweden,hotel,cameraforensics
http://orig05.deviantart.net/6399/f/2015/274/0/0/top_gear___snes___papercraft_diorama_by_retroberra-d9bmn8m.jpg,57.64333333333333,12.006111111111107,,,,,,Sweden,Söderleden; Åby; Mölndal; Mölndals kommun; Västra Götaland County; 431 61; Sweden,hotel,cameraforensics
https://live.staticflickr.com/8313/8058683668_62f50175fa_o.jpg,57.64937777777778,12.000652777777779,,,,,,Sweden,Åbytravet; Tandemgatan; Åby; Mölndal; Mölndals kommun; Västra Götaland County; 43162; Sweden,hotel,cameraforensics
https://q-cf.bstatic.com/images/hotel/max1280x900/134/13480725.jpg,57.64774891,11.99497819,,,,,,Sweden,Ibis hotel Göteborg-Mölndal; Ragnar Thorngrens gata; Pedagogen Park; Åby; Mölndal; Mölndals kommun; Västra Götaland County; 43145; Sweden,hotel,cameraforensics
https://live.staticflickr.com/7702/17098277602_dccd2e8db5_o.jpg,57.653886111111106,11.99651944444444,,,,,,Sweden,17; Mellanängsgatan; Solängen; Åby; Mölndal; Mölndals kommun; Västra Götaland County; 43145; Sweden,hotel,cameraforensics
https://live.staticflickr.com/1911/31912158698_5dac642405_o.jpg,57.650558333333336,11.997038888888893,,,,,,Sweden,23; Åby allé; Pedagogen Park; Åby; Mölndal; Mölndals kommun; Västra Götaland County; 43145; Sweden,hotel,cameraforensics
https://r-cf.bstatic.com/images/hotel/max1280x900/140/14017268.jpg,57.64774891,11.99497819,,,,,,Sweden,Ibis hotel Göteborg-Mölndal; Ragnar Thorngrens gata; Pedagogen Park; Åby; Mölndal; Mölndals kommun; Västra Götaland County; 43145; Sweden,hotel,cameraforensics
https://live.staticflickr.com/7398/16330129328_511f68779f_o.jpg,59.34028333333333,18.096858333333326,,,,,,Sweden,71; Banérgatan; Gärdeshöjden; Ladugårdsgärdet; Östermalms stadsdelsområde; Stockholm; Stockholms kommun; Stockholm County; 115 24; Sweden,hotel,cameraforensics
https://live.staticflickr.com/8793/28877986321_6c9f99935a_o.jpg,59.337075,18.090928333333327,,,,,,Sweden,34A; Narvavägen; Östermalm; Östermalms stadsdelsområde; Stockholm; Stockholms kommun; Stockholm County; 115 22; Sweden,hotel,cameraforensics
https://live.staticflickr.com/8590/16045885968_8a4f206770_o.jpg,59.335775,18.079079999999998,,,,,,Sweden,Östermalms saluhall; Östermalmstorg; Östermalm; Östermalms stadsdelsområde; Stockholm; Stockholms kommun; Stockholm County; Sweden,hotel,cameraforensics
http://static.panoramio.com/photos/original/127181010.jpg,59.33349000000001,18.092789,,,,,,Sweden,Narvavägen; Östermalm; Östermalms stadsdelsområde; Stockholm; Stockholms kommun; Stockholm County; 115 23; Sweden,hotel,cameraforensics
https://live.staticflickr.com/4271/34003579484_d56c10d5db_o.jpg,59.335094999999995,18.079286666666672,,,,,,Sweden,21; Sibyllegatan; Östermalm; Östermalms stadsdelsområde; Stockholm; Stockholms kommun; Stockholm County; 114 51; Sweden,hotel,cameraforensics
https://live.staticflickr.com/1482/23911846363_215a7cf316_o.jpg,59.340511111111105,18.075016666666674,,,,,,Sweden,C.W. Scheele; Karlavägen; Villastaden; Östermalm; Östermalms stadsdelsområde; Stockholm; Stockholms kommun; Stockholm County; 114 31; Sweden,hotel,cameraforensics
https://live.staticflickr.com/1581/26481595542_f433033a71_o.jpg,59.33833333333333,18.08027777777778,,,,,,Sweden,42; Nybrogatan; Villastaden; Östermalm; Östermalms stadsdelsområde; Stockholm; Stockholms kommun; Stockholm County; 102 44; Sweden,hotel,cameraforensics
https://live.staticflickr.com/4186/34224657890_ae72ffa99d_o.jpg,59.333562899722224,18.087807,,,,,,Sweden,14; Grev Magnigatan; Östermalm; Östermalms stadsdelsområde; Stockholm; Stockholms kommun; Stockholm County; 114 55; Sweden,hotel,cameraforensics
http://static.panoramio.com/photos/original/95816737.jpg,67.85183333333333,20.23016666666668,,,,,,Sweden,Villastigen; Björkbacken; Högalid; Kiruna; Kiruna kommun; Norrbotten County; 98131; Sweden,hotel,cameraforensics
https://live.staticflickr.com/1448/25273541332_6df3acc99f_o.jpg,67.85573611111111,20.22523055555556,,,,,,Sweden,Tourist Information & Activities; Vänortstorget; Nedre Norrmalm; Kiruna; Kiruna kommun; Norrbotten County; 98132; Sweden,hotel,cameraforensics
https://live.staticflickr.com/6131/5975301011_6cb0b7ef60_o.jpg,67.8523361111111,20.22456666666667,,,,,,Sweden,Kiruna Busstation; Biblioteksgatan; Nedre Norrmalm; Kiruna; Kiruna kommun; Norrbotten County; 98131; Sweden,hotel,cameraforensics
https://live.staticflickr.com/8095/8498918213_12ce8f0e1b_o.jpg,67.85516666666666,20.228333333333328,,,,,,Sweden,The Bishops Arms; 6; Föreningsgatan; Högalid; Kiruna; Kiruna kommun; Norrbotten County; 98131; Sweden,hotel,cameraforensics
https://live.staticflickr.com/4749/27886792539_b0d58cb2e1_o.jpg,67.85199166666666,20.23227666666667,,,,,,Sweden,Kiruna kyrka; Gruvvägen; Högalid; Kiruna; Kiruna kommun; Norrbotten County; FIXME; Sweden,hotel,cameraforensics
https://live.staticflickr.com/7578/27926745271_8962760887_o.jpg,67.85279166666666,20.2223,,,,,,Sweden,Stationsvägen; Nedre Norrmalm; Kiruna; Kiruna kommun; Norrbotten County; 98132; Sweden,hotel,cameraforensics
https://live.staticflickr.com/3463/3299995455_eb25a364f4_o.jpg,67.85222222222222,20.231111111111108,,,,,,Sweden,Gruvvägen; Högalid; Kiruna; Kiruna kommun; Norrbotten County; FIXME; Sweden,hotel,cameraforensics
https://live.staticflickr.com/7444/27724587230_436d81dac3_o.jpg,67.85279166666666,20.2223,,,,,,Sweden,Stationsvägen; Nedre Norrmalm; Kiruna; Kiruna kommun; Norrbotten County; 98132; Sweden,hotel,cameraforensics
https://live.staticflickr.com/2833/33261241320_b32029020c_o.jpg,67.85196666666667,20.232945,,,,,,Sweden,Kiruna kyrka; Gruvvägen; Högalid; Kiruna; Kiruna kommun; Norrbotten County; FIXME; Sweden,hotel,cameraforensics
https://live.staticflickr.com/6053/6325746160_4019194e09_o.jpg,67.85566666666666,20.225166666666674,,,,,,Sweden,Lars Janssonsgatan; Nedre Norrmalm; Kiruna; Kiruna kommun; Norrbotten County; 98132; Sweden,hotel,cameraforensics
https://live.staticflickr.com/7379/15773429753_65739cd64f_o.jpg,59.33333333333334,18.06483333333333,,,,,,Sweden,Telia; Sveavägen; Norrmalm; Norrmalms stadsdelsområde; Stockholm; Stockholms kommun; Stockholm County; 111 57; Sweden,hotel,cameraforensics
https://live.staticflickr.com/7630/16791070866_f37d74ddb8_o.jpg,55.710708333333336,13.196925,,,,,,Sweden,Skånes Universitetssjukhus i Lund (SUS); Sofiavägen; Möllevången; Norr; Lund; Lund Municipality; Skåne County; 22241; Sweden,hotel,cameraforensics
